2017-05-26T11:24:01
2017-05-26T11:24:03 -->> ============================
2017-05-26T11:24:04 -->> $PMTK011,MTKGPS*08
2017-05-26T11:24:04 -->> $PMTK010,001*2E
2017-05-26T11:24:04 -->> $PMTK011,MTKGPS*08
2017-05-26T11:24:04 -->> $PMTK010,002*2D
2017-05-26T11:24:05 -->> $GNGGA,235942.800,,,,,0,0,,,M,,M,,*55
2017-05-26T11:24:05 -->> $GPGSA,A,1,,,,,,,,,,,,,,,*1E
2017-05-26T11:24:05 -->> $GLGSA,A,1,,,,,,,,,,,,,,,*02
2017-05-26T11:24:05 -->> $GPGSV,1,1,00*79
2017-05-26T11:24:05 -->> $GLGSV,1,1,00*65
2017-05-26T11:24:05 -->> $GNRMC,235942.800,V,,,,,0.00,0.00,050180,,,N*5C
2017-05-26T11:24:05 -->> $GNVTG,0.00,T,,M,0.00,N,0.00,K,N*2C
2017-05-26T11:24:06 -->> $GNGGA,235943.800,,,,,0,0,,,M,,M,,*54
2017-05-26T11:24:06 -->> $GPGSA,A,1,,,,,,,,,,,,,,,*1E
2017-05-26T11:24:06 -->> $GLGSA,A,1,,,,,,,,,,,,,,,*02
2017-05-26T11:24:06 -->> $GPGSV,1,1,01,16,,,33*7F
2017-05-26T11:24:06 -->> $GLGSV,1,1,00*65
2017-05-26T11:24:06 -->> $GNRMC,235943.800,V,,,,,0.00,0.00,050180,,,N*5D
2017-05-26T11:24:06 -->> $GNVTG,0.00,T,,M,0.00,N,0.00,K,N*2C
2017-05-26T11:24:07 -->> $GNGGA,235944.799,,,,,0,0,,,M,,M,,*5C
2017-05-26T11:24:07 -->> $GPGSA,A,1,,,,,,,,,,,,,,,*1E
2017-05-26T11:24:07 -->> $GLGSA,A,1,,,,,,,,,,,,,,,*02
2017-05-26T11:24:07 -->> $GPGSV,1,1,01,16,,,35*79
2017-05-26T11:24:07 -->> $GLGSV,1,1,00*65
2017-05-26T11:24:07 -->> $GNRMC,235944.799,V,,,,,0.00,0.00,050180,,,N*55
2017-05-26T11:24:07 -->> $GNVTG,0.00,T,,M,0.00,N,0.00,K,N*2C
2017-05-26T11:24:08 -->> $GNGGA,235945.799,,,,,0,0,,,M,,M,,*5D
2017-05-26T11:24:08 -->> $GPGSA,A,1,,,,,,,,,,,,,,,*1E
2017-05-26T11:24:08 -->> $GLGSA,A,1,,,,,,,,,,,,,,,*02
2017-05-26T11:24:08 -->> $GPGSV,1,1,03,16,,,33,08,,,34,27,,,31*75
2017-05-26T11:24:08 -->> $GLGSV,1,1,00*65
2017-05-26T11:24:08 -->> $GNRMC,235945.799,V,,,,,0.00,0.00,050180,,,N*54
2017-05-26T11:24:08 -->> $GNVTG,0.00,T,,M,0.00,N,0.00,K,N*2C
2017-05-26T11:24:09 -->> $GNGGA,235946.799,,,,,0,0,,,M,,M,,*5E
2017-05-26T11:24:09 -->> $GPGSA,A,1,,,,,,,,,,,,,,,*1E
2017-05-26T11:24:09 -->> $GLGSA,A,1,,,,,,,,,,,,,,,*02
2017-05-26T11:24:09 -->> $GPGSV,1,1,03,16,,,35,08,,,35,27,,,35*76
2017-05-26T11:24:09 -->> $GLGSV,1,1,00*65
2017-05-26T11:24:09 -->> $GNRMC,235946.799,V,,,,,0.00,0.00,050180,,,N*57
2017-05-26T11:24:09 -->> $GNVTG,0.00,T,,M,0.00,N,0.00,K,N*2C
2017-05-26T11:24:10 -->> $GNGGA,235947.799,,,,,0,0,,,M,,M,,*5F
2017-05-26T11:24:10 -->> $GPGSA,A,1,,,,,,,,,,,,,,,*1E
2017-05-26T11:24:10 -->> $GLGSA,A,1,,,,,,,,,,,,,,,*02
2017-05-26T11:24:10 -->> $GPGSV,1,1,04,16,,,34,08,,,35,27,,,34,23,,,25*77
2017-05-26T11:24:10 -->> $GLGSV,1,1,00*65
2017-05-26T11:24:10 -->> $GNRMC,235947.799,V,,,,,0.00,0.00,050180,,,N*56
2017-05-26T11:24:10 -->> $GNVTG,0.00,T,,M,0.00,N,0.00,K,N*2C
2017-05-26T11:24:11 -->> $GNGGA,235948.799,,,,,0,0,,,M,,M,,*50
2017-05-26T11:24:11 -->> $GPGSA,A,1,,,,,,,,,,,,,,,*1E
2017-05-26T11:24:11 -->> $GLGSA,A,1,,,,,,,,,,,,,,,*02
2017-05-26T11:24:11 -->> $GPGSV,1,1,04,16,,,34,08,,,34,27,,,33,23,,,30*75
2017-05-26T11:24:11 -->> $GLGSV,1,1,00*65
2017-05-26T11:24:11 -->> $GNRMC,235948.799,V,,,,,0.00,0.00,050180,,,N*59
2017-05-26T11:24:11 -->> $GNVTG,0.00,T,,M,0.00,N,0.00,K,N*2C
2017-05-26T11:24:12 -->> $GNGGA,235949.799,,,,,0,0,,,M,,M,,*51
2017-05-26T11:24:12 -->> $GPGSA,A,1,,,,,,,,,,,,,,,*1E
2017-05-26T11:24:12 -->> $GLGSA,A,1,,,,,,,,,,,,,,,*02
2017-05-26T11:24:12 -->> $GPGSV,1,1,04,16,,,34,08,,,35,27,,,34,23,,,32*71
2017-05-26T11:24:12 -->> $GLGSV,1,1,00*65
2017-05-26T11:24:12 -->> $GNRMC,235949.799,V,,,,,0.00,0.00,050180,,,N*58
2017-05-26T11:24:12 -->> $GNVTG,0.00,T,,M,0.00,N,0.00,K,N*2C
2017-05-26T11:24:12 -->> $GNGGA,235950.304,,,,,0,0,,,M,,M,,*59
2017-05-26T11:24:12 -->> $GPGSA,A,1,,,,,,,,,,,,,,,*1E
2017-05-26T11:24:12 -->> $GLGSA,A,1,,,,,,,,,,,,,,,*02
2017-05-26T11:24:12 -->> $GPGSV,1,1,04,16,,,34,08,,,35,27,,,34,23,,,30*73
2017-05-26T11:24:12 -->> $GLGSV,1,1,00*65
2017-05-26T11:24:12 -->> $GNRMC,235950.304,V,,,,,0.00,0.00,050180,,,N*50
2017-05-26T11:24:12 -->> $GNVTG,0.00,T,,M,0.00,N,0.00,K,N*2C
2017-05-26T11:24:13 -->> $GNGGA,235951.304,,,,,0,0,,,M,,M,,*58
2017-05-26T11:24:13 -->> $GPGSA,A,1,,,,,,,,,,,,,,,*1E
2017-05-26T11:24:13 -->> $GLGSA,A,1,,,,,,,,,,,,,,,*02
2017-05-26T11:24:13 -->> $GPGSV,2,1,05,16,,,34,08,,,35,27,,,34,23,,,31*70
2017-05-26T11:24:13 -->> $GPGSV,2,2,05,09,,,34*72
2017-05-26T11:24:13 -->> $GLGSV,1,1,00*65
2017-05-26T11:24:13 -->> $GNRMC,235951.304,V,,,,,0.00,0.00,050180,,,N*51
2017-05-26T11:24:13 -->> $GNVTG,0.00,T,,M,0.00,N,0.00,K,N*2C
2017-05-26T11:24:14 -->> $GNGGA,032414.098,,,,,0,0,,,M,,M,,*57
2017-05-26T11:24:14 -->> $GPGSA,A,1,,,,,,,,,,,,,,,*1E
2017-05-26T11:24:14 -->> $GLGSA,A,1,,,,,,,,,,,,,,,*02
2017-05-26T11:24:14 -->> $GPGSV,2,1,05,16,,,34,08,,,35,27,,,34,23,,,30*71
2017-05-26T11:24:14 -->> $GPGSV,2,2,05,09,,,36*70
2017-05-26T11:24:14 -->> $GLGSV,1,1,00*65
2017-05-26T11:24:14 -->> $GNRMC,032414.098,V,,,,,0.00,0.00,110180,,,N*5B
2017-05-26T11:24:14 -->> $GNVTG,0.00,T,,M,0.00,N,0.00,K,N*2C
2017-05-26T11:24:15 -->> $GNGGA,032415.098,,,,,0,0,,,M,,M,,*56
2017-05-26T11:24:15 -->> $GPGSA,A,1,,,,,,,,,,,,,,,*1E
2017-05-26T11:24:15 -->> $GLGSA,A,1,,,,,,,,,,,,,,,*02
2017-05-26T11:24:15 -->> $GPGSV,2,1,06,16,,,34,08,,,35,27,,,34,23,,,31*73
2017-05-26T11:24:15 -->> $GPGSV,2,2,06,09,,,36,04,,,30*74
2017-05-26T11:24:15 -->> $GLGSV,1,1,00*65
2017-05-26T11:24:15 -->> $GNRMC,032415.098,V,,,,,0.00,0.00,110180,,,N*5A
2017-05-26T11:24:16 -->> $GNVTG,0.00,T,,M,0.00,N,0.00,K,N*2C
2017-05-26T11:24:16 -->> $GNGGA,032416.098,,,,,0,0,,,M,,M,,*55
2017-05-26T11:24:16 -->> $GPGSA,A,1,,,,,,,,,,,,,,,*1E
2017-05-26T11:24:16 -->> $GLGSA,A,1,,,,,,,,,,,,,,,*02
2017-05-26T11:24:16 -->> $GPGSV,2,1,06,16,,,34,08,,,35,27,,,33,23,,,31*74
2017-05-26T11:24:16 -->> $GPGSV,2,2,06,09,,,36,04,,,33*77
2017-05-26T11:24:16 -->> $GLGSV,1,1,00*65
2017-05-26T11:24:16 -->> $GNRMC,032416.098,V,,,,,0.00,0.00,110180,,,N*59
2017-05-26T11:24:17 -->> $GNVTG,0.00,T,,M,0.00,N,0.00,K,N*2C
2017-05-26T11:24:17 -->> $GNGGA,032417.098,,,,,0,0,,,M,,M,,*54
2017-05-26T11:24:17 -->> $GPGSA,A,1,,,,,,,,,,,,,,,*1E
2017-05-26T11:24:17 -->> $GLGSA,A,1,,,,,,,,,,,,,,,*02
2017-05-26T11:24:17 -->> $GPGSV,2,1,06,16,,,34,08,,,35,27,,,33,23,,,31*74
2017-05-26T11:24:17 -->> $GPGSV,2,2,06,09,,,37,04,,,35*70
2017-05-26T11:24:17 -->> $GLGSV,1,1,00*65
2017-05-26T11:24:17 -->> $GNRMC,032417.098,V,,,,,0.00,0.00,110180,,,N*58
2017-05-26T11:24:17 -->> $GNVTG,0.00,T,,M,0.00,N,0.00,K,N*2C
2017-05-26T11:24:18 -->> $GNGGA,032418.097,,,,,0,0,,,M,,M,,*54
2017-05-26T11:24:18 -->> $GPGSA,A,1,,,,,,,,,,,,,,,*1E
2017-05-26T11:24:18 -->> $GLGSA,A,1,,,,,,,,,,,,,,,*02
2017-05-26T11:24:18 -->> $GPGSV,2,1,06,16,,,34,08,,,35,27,,,33,23,,,31*74
2017-05-26T11:24:18 -->> $GPGSV,2,2,06,09,,,37,04,,,34*71
2017-05-26T11:24:18 -->> $GLGSV,1,1,00*65
2017-05-26T11:24:18 -->> $GNRMC,032418.097,V,,,,,0.00,0.00,110180,,,N*58
2017-05-26T11:24:18 -->> $GNVTG,0.00,T,,M,0.00,N,0.00,K,N*2C
2017-05-26T11:24:19 -->> $GNGGA,032419.097,,,,,0,0,,,M,,M,,*55
2017-05-26T11:24:19 -->> $GPGSA,A,1,,,,,,,,,,,,,,,*1E
2017-05-26T11:24:19 -->> $GLGSA,A,1,,,,,,,,,,,,,,,*02
2017-05-26T11:24:19 -->> $GPGSV,2,1,06,16,,,34,08,,,35,27,,,32,23,,,31*75
2017-05-26T11:24:19 -->> $GPGSV,2,2,06,09,,,37,04,,,35*70
2017-05-26T11:24:19 -->> $GLGSV,1,1,00*65
2017-05-26T11:24:19 -->> $GNRMC,032419.097,V,,,,,0.00,0.00,110180,,,N*59
2017-05-26T11:24:19 -->> $GNVTG,0.00,T,,M,0.00,N,0.00,K,N*2C
2017-05-26T11:24:20 -->> $GNGGA,032420.097,,,,,0,0,,,M,,M,,*5F
2017-05-26T11:24:20 -->> $GPGSA,A,1,,,,,,,,,,,,,,,*1E
2017-05-26T11:24:20 -->> $GLGSA,A,1,,,,,,,,,,,,,,,*02
2017-05-26T11:24:20 -->> $GPGSV,2,1,06,16,,,34,08,,,35,27,,,32,23,,,31*75
2017-05-26T11:24:20 -->> $GPGSV,2,2,06,09,,,37,04,,,35*70
2017-05-26T11:24:20 -->> $GLGSV,1,1,00*65
2017-05-26T11:24:20 -->> $GNRMC,032420.097,V,,,,,0.00,0.00,110180,,,N*53
2017-05-26T11:24:20 -->> $GNVTG,0.00,T,,M,0.00,N,0.00,K,N*2C
2017-05-26T11:24:21 -->> $GNGGA,032421.097,,,,,0,0,,,M,,M,,*5E
2017-05-26T11:24:21 -->> $GPGSA,A,1,,,,,,,,,,,,,,,*1E
2017-05-26T11:24:21 -->> $GLGSA,A,1,,,,,,,,,,,,,,,*02
2017-05-26T11:24:21 -->> $GPGSV,2,1,06,16,,,34,08,,,34,27,,,32,23,,,30*75
2017-05-26T11:24:21 -->> $GPGSV,2,2,06,09,,,36,04,,,34*70
2017-05-26T11:24:21 -->> $GLGSV,1,1,00*65
2017-05-26T11:24:21 -->> $GNRMC,032421.097,V,,,,,0.00,0.00,110180,,,N*52
2017-05-26T11:24:21 -->> $GNVTG,0.00,T,,M,0.00,N,0.00,K,N*2C
2017-05-26T11:24:22 -->> $GNGGA,032422.097,,,,,0,0,,,M,,M,,*5D
2017-05-26T11:24:22 -->> $GPGSA,A,1,,,,,,,,,,,,,,,*1E
2017-05-26T11:24:22 -->> $GLGSA,A,1,,,,,,,,,,,,,,,*02
2017-05-26T11:24:22 -->> $GPGSV,2,1,06,16,,,34,08,,,34,27,,,32,23,,,30*75
2017-05-26T11:24:22 -->> $GPGSV,2,2,06,09,,,36,04,,,34*70
2017-05-26T11:24:22 -->> $GLGSV,1,1,00*65
2017-05-26T11:24:22 -->> $GNRMC,032422.097,V,,,,,0.00,0.00,110180,,,N*51
2017-05-26T11:24:22 -->> $GNVTG,0.00,T,,M,0.00,N,0.00,K,N*2C
2017-05-26T11:24:23 -->> $GNGGA,032423.097,,,,,0,0,,,M,,M,,*5C
2017-05-26T11:24:23 -->> $GPGSA,A,1,,,,,,,,,,,,,,,*1E
2017-05-26T11:24:23 -->> $GLGSA,A,1,,,,,,,,,,,,,,,*02
2017-05-26T11:24:23 -->> $GPGSV,2,1,06,16,,,34,08,,,34,27,,,32,23,,,31*74
2017-05-26T11:24:23 -->> $GPGSV,2,2,06,09,,,36,04,,,34*70
2017-05-26T11:24:23 -->> $GLGSV,1,1,00*65
2017-05-26T11:24:23 -->> $GNRMC,032423.097,V,,,,,0.00,0.00,110180,,,N*50
2017-05-26T11:24:23 -->> $GNVTG,0.00,T,,M,0.00,N,0.00,K,N*2C
2017-05-26T11:24:24 -->> $GNGGA,032424.091,,,,,0,0,,,M,,M,,*5D
2017-05-26T11:24:24 -->> $GPGSA,A,1,,,,,,,,,,,,,,,*1E
2017-05-26T11:24:24 -->> $GLGSA,A,1,,,,,,,,,,,,,,,*02
2017-05-26T11:24:24 -->> $GPGSV,2,1,06,16,,,34,08,,,34,27,,,33,23,,,31*75
2017-05-26T11:24:24 -->> $GPGSV,2,2,06,09,,,36,04,,,35*71
2017-05-26T11:24:24 -->> $GLGSV,1,1,00*65
2017-05-26T11:24:24 -->> $GNRMC,032424.091,V,,,,,0.00,0.00,110180,,,N*51
2017-05-26T11:24:24 -->> $GNVTG,0.00,T,,M,0.00,N,0.00,K,N*2C
2017-05-26T11:24:25 -->> $GNGGA,032425.091,,,,,0,0,,,M,,M,,*5C
2017-05-26T11:24:25 -->> $GPGSA,A,1,,,,,,,,,,,,,,,*1E
2017-05-26T11:24:25 -->> $GLGSA,A,1,,,,,,,,,,,,,,,*02
2017-05-26T11:24:25 -->> $GPGSV,2,1,06,16,,,34,08,,,34,27,,,34,23,,,31*72
2017-05-26T11:24:25 -->> $GPGSV,2,2,06,09,,,36,04,,,35*71
2017-05-26T11:24:25 -->> $GLGSV,1,1,00*65
2017-05-26T11:24:25 -->> $GNRMC,032425.091,V,,,,,0.00,0.00,110180,,,N*50
2017-05-26T11:24:26 -->> $GNVTG,0.00,T,,M,0.00,N,0.00,K,N*2C
2017-05-26T11:24:26 -->> $GNGGA,032426.091,,,,,0,0,,,M,,M,,*5F
2017-05-26T11:24:26 -->> $GPGSA,A,1,,,,,,,,,,,,,,,*1E
2017-05-26T11:24:26 -->> $GLGSA,A,1,,,,,,,,,,,,,,,*02
2017-05-26T11:24:26 -->> $GPGSV,2,1,06,16,,,34,08,,,34,27,,,34,23,,,31*72
2017-05-26T11:24:26 -->> $GPGSV,2,2,06,09,,,36,04,,,35*71
2017-05-26T11:24:26 -->> $GLGSV,1,1,00*65
2017-05-26T11:24:26 -->> $GNRMC,032426.091,V,,,,,0.00,0.00,110180,,,N*53
2017-05-26T11:24:26 -->> $GNVTG,0.00,T,,M,0.00,N,0.00,K,N*2C
2017-05-26T11:24:27 -->> $GNGGA,032427.091,,,,,0,0,,,M,,M,,*5E
2017-05-26T11:24:27 -->> $GPGSA,A,1,,,,,,,,,,,,,,,*1E
2017-05-26T11:24:27 -->> $GLGSA,A,1,,,,,,,,,,,,,,,*02
2017-05-26T11:24:27 -->> $GPGSV,2,1,07,16,,,34,08,,,34,27,,,34,23,,,32*70
2017-05-26T11:24:27 -->> $GPGSV,2,2,07,09,,,36,04,,,35,07,,,29*7C
2017-05-26T11:24:27 -->> $GLGSV,1,1,00*65
2017-05-26T11:24:27 -->> $GNRMC,032427.091,V,,,,,0.00,0.00,110180,,,N*52
2017-05-26T11:24:27 -->> $GNVTG,0.00,T,,M,0.00,N,0.00,K,N*2C
2017-05-26T11:24:28 -->> $GNGGA,032428.091,,,,,0,0,,,M,,M,,*51
2017-05-26T11:24:28 -->> $GPGSA,A,1,,,,,,,,,,,,,,,*1E
2017-05-26T11:24:28 -->> $GLGSA,A,1,,,,,,,,,,,,,,,*02
2017-05-26T11:24:28 -->> $GPGSV,2,1,08,16,,,34,08,,,34,27,,,34,23,,,32*7F
2017-05-26T11:24:28 -->> $GPGSV,2,2,08,09,,,36,04,,,35,07,,,29,03,,,25*77
2017-05-26T11:24:28 -->> $GLGSV,1,1,00*65
2017-05-26T11:24:28 -->> $GNRMC,032428.091,V,,,,,0.00,0.00,110180,,,N*5D
2017-05-26T11:24:28 -->> $GNVTG,0.00,T,,M,0.00,N,0.00,K,N*2C
2017-05-26T11:24:29 -->> $GNGGA,032429.091,,,,,0,0,,,M,,M,,*50
2017-05-26T11:24:29 -->> $GPGSA,A,1,,,,,,,,,,,,,,,*1E
2017-05-26T11:24:29 -->> $GLGSA,A,1,,,,,,,,,,,,,,,*02
2017-05-26T11:24:29 -->> $GPGSV,2,1,07,16,,,34,08,,,34,27,,,34,23,,,32*70
2017-05-26T11:24:29 -->> $GPGSV,2,2,07,09,,,35,04,,,35,07,,,29*7F
2017-05-26T11:24:29 -->> $GLGSV,1,1,00*65
2017-05-26T11:24:29 -->> $GNRMC,032429.091,V,,,,,0.00,0.00,110180,,,N*5C
2017-05-26T11:24:30 -->> $GNVTG,0.00,T,,M,0.00,N,0.00,K,N*2C
2017-05-26T11:24:30 -->> $GNGGA,032430.085,,,,,0,0,,,M,,M,,*5D
2017-05-26T11:24:30 -->> $GPGSA,A,1,,,,,,,,,,,,,,,*1E
2017-05-26T11:24:30 -->> $GLGSA,A,1,,,,,,,,,,,,,,,*02
2017-05-26T11:24:30 -->> $GPGSV,2,1,07,16,,,35,08,,,34,27,,,34,23,,,32*71
2017-05-26T11:24:30 -->> $GPGSV,2,2,07,09,,,35,04,,,34,07,,,29*7E
2017-05-26T11:24:30 -->> $GLGSV,1,1,00*65
2017-05-26T11:24:30 -->> $GNRMC,032430.085,V,,,,,0.35,0.00,260517,,,N*59
2017-05-26T11:24:31 -->> $GNVTG,0.00,T,,M,0.35,N,0.64,K,N*28
2017-05-26T11:24:31 -->> $GNGGA,032431.085,3032.9035,N,10403.6885,E,1,4,2.03,523.5,M,-31.9,M,,*62
2017-05-26T11:24:31 -->> $GPGSA,A,2,16,08,27,23,,,,,,,,,2.26,2.03,0.99*0F
2017-05-26T11:24:31 -->> $GLGSA,A,2,,,,,,,,,,,,,2.26,2.03,0.99*18
2017-05-26T11:24:31 -->> $GPGSV,3,1,09,27,66,124,34,23,64,274,32,16,53,024,35,08,44,184,34*77
2017-05-26T11:24:32 -->> $GPGSV,3,2,09,42,37,124,,193,,,,09,,,35,04,,,33*74
2017-05-26T11:24:32 -->> $GPGSV,3,3,09,07,,,26*73
2017-05-26T11:24:32 -->> $GLGSV,1,1,00*65
2017-05-26T11:24:32 -->> $GNRMC,032431.085,A,3032.9035,N,10403.6885,E,0.35,0.00,260517,,,A*73
2017-05-26T11:24:32 -->> $GNVTG,0.00,T,,M,0.35,N,0.65,K,A*26
2017-05-26T11:24:33 -->> $GNGGA,032433.000,3032.9038,N,10403.6892,E,1,4,2.03,515.0,M,-31.9,M,,*66
2017-05-26T11:24:33 -->> $GPGSA,A,3,16,08,27,23,,,,,,,,,2.26,2.03,0.99*0E
2017-05-26T11:24:33 -->> $GLGSA,A,3,,,,,,,,,,,,,2.26,2.03,0.99*19
2017-05-26T11:24:33 -->> $GPGSV,3,1,09,27,66,124,34,23,64,274,32,16,53,024,35,08,44,184,34*77
2017-05-26T11:24:33 -->> $GPGSV,3,2,09,42,37,124,,193,,,,09,,,35,04,,,32*75
2017-05-26T11:24:33 -->> $GPGSV,3,3,09,07,,,25*70
2017-05-26T11:24:33 -->> $GLGSV,1,1,00*65
2017-05-26T11:24:33 -->> $GNRMC,032433.000,A,3032.9038,N,10403.6892,E,0.21,0.00,260517,,,A*72
2017-05-26T11:24:34 -->> $GNVTG,0.00,T,,M,0.21,N,0.38,K,A*2B
2017-05-26T11:24:34 -->> $GNGGA,032434.000,3032.9040,N,10403.6892,E,1,4,2.03,507.6,M,-31.9,M,,*6B
2017-05-26T11:24:34 -->> $GPGSA,A,3,16,08,27,23,,,,,,,,,2.26,2.03,0.99*0E
2017-05-26T11:24:34 -->> $GLGSA,A,3,,,,,,,,,,,,,2.26,2.03,0.99*19
2017-05-26T11:24:34 -->> $GPGSV,3,1,09,27,66,124,34,23,64,274,32,16,53,024,35,08,44,184,34*77
2017-05-26T11:24:34 -->> $GPGSV,3,2,09,42,37,124,,193,,,,09,,,35,04,,,30*77
2017-05-26T11:24:34 -->> $GPGSV,3,3,09,07,,,24*71
2017-05-26T11:24:34 -->> $GLGSV,1,1,00*65
2017-05-26T11:24:35 -->> $GNRMC,032434.000,A,3032.9040,N,10403.6892,E,0.04,0.00,260517,,,A*7D
2017-05-26T11:24:35 -->> $GNVTG,0.00,T,,M,0.04,N,0.08,K,A*2F
2017-05-26T11:24:35 -->> $GNGGA,032435.000,3032.9042,N,10403.6882,E,1,4,2.03,502.0,M,-31.9,M,,*6A
2017-05-26T11:24:35 -->> $GPGSA,A,3,16,08,27,23,,,,,,,,,2.26,2.03,0.99*0E
2017-05-26T11:24:35 -->> $GLGSA,A,3,,,,,,,,,,,,,2.26,2.03,0.99*19
2017-05-26T11:24:35 -->> $GPGSV,3,1,09,27,66,124,35,23,64,274,32,16,53,024,35,08,44,184,34*76
2017-05-26T11:24:35 -->> $GPGSV,3,2,09,42,37,124,,193,,,,09,,,34,04,,,28*7F
2017-05-26T11:24:36 -->> $GPGSV,3,3,09,07,,,23*76
2017-05-26T11:24:36 -->> $GLGSV,1,1,00*65
2017-05-26T11:24:36 -->> $GNRMC,032435.000,A,3032.9042,N,10403.6882,E,0.00,0.00,260517,,,A*7B
2017-05-26T11:24:36 -->> $GNVTG,0.00,T,,M,0.00,N,0.00,K,A*23
2017-05-26T11:24:36 -->> $GNGGA,032436.000,3032.9043,N,10403.6877,E,1,4,2.03,500.3,M,-31.9,M,,*63
2017-05-26T11:24:36 -->> $GPGSA,A,3,16,08,27,23,,,,,,,,,2.26,2.03,0.99*0E
2017-05-26T11:24:36 -->> $GLGSA,A,3,,,,,,,,,,,,,2.26,2.03,0.99*19
2017-05-26T11:24:36 -->> $GPGSV,3,1,09,27,66,124,35,23,64,274,32,16,53,024,35,08,44,184,33*71
2017-05-26T11:24:36 -->> $GPGSV,3,2,09,42,37,124,,193,,,,09,,,34,04,,,27*70
2017-05-26T11:24:36 -->> $GPGSV,3,3,09,07,,,23*76
2017-05-26T11:24:36 -->> $GLGSV,1,1,00*65
2017-05-26T11:24:36 -->> $GNRMC,032436.000,A,3032.9043,N,10403.6877,E,0.00,0.00,260517,,,A*73
2017-05-26T11:24:37 -->> $GNVTG,0.00,T,,M,0.00,N,0.00,K,A*23
2017-05-26T11:24:37 -->> $GNGGA,032437.000,3032.9042,N,10403.6875,E,1,4,2.03,497.0,M,-31.9,M,,*6D
2017-05-26T11:24:37 -->> $GPGSA,A,3,16,08,27,23,,,,,,,,,2.26,2.03,0.99*0E
2017-05-26T11:24:37 -->> $GLGSA,A,3,,,,,,,,,,,,,2.26,2.03,0.99*19
2017-05-26T11:24:37 -->> $GPGSV,3,1,09,27,66,124,35,23,64,274,32,16,53,024,35,08,44,184,33*71
2017-05-26T11:24:37 -->> $GPGSV,3,2,09,42,37,124,,193,,,,09,,,34,04,,,27*70
2017-05-26T11:24:37 -->> $GPGSV,3,3,09,07,,,23*76
2017-05-26T11:24:37 -->> $GLGSV,1,1,00*65
2017-05-26T11:24:38 -->> $GNRMC,032437.000,A,3032.9042,N,10403.6875,E,0.00,0.00,260517,,,A*71
2017-05-26T11:24:38 -->> $GNVTG,0.00,T,,M,0.00,N,0.00,K,A*23
2017-05-26T11:24:38 -->> $GNGGA,032438.000,3032.9042,N,10403.6875,E,1,4,2.03,497.0,M,-31.9,M,,*62
2017-05-26T11:24:38 -->> $GPGSA,A,3,16,08,27,23,,,,,,,,,2.26,2.03,0.99*0E
2017-05-26T11:24:38 -->> $GLGSA,A,3,,,,,,,,,,,,,2.26,2.03,0.99*19
2017-05-26T11:24:38 -->> $GPGSV,3,1,09,27,66,124,35,23,64,274,32,16,53,024,35,08,44,184,33*71
2017-05-26T11:24:38 -->> $GPGSV,3,2,09,42,37,124,,193,,,,09,,,33,04,,,28*78
2017-05-26T11:24:38 -->> $GPGSV,3,3,09,07,,,24*71
2017-05-26T11:24:38 -->> $GLGSV,1,1,00*65
2017-05-26T11:24:39 -->> $GNRMC,032438.000,A,3032.9042,N,10403.6875,E,0.00,0.00,260517,,,A*7E
2017-05-26T11:24:39 -->> $GNVTG,0.00,T,,M,0.00,N,0.00,K,A*23
2017-05-26T11:24:39 -->> $GNGGA,032439.000,3032.9042,N,10403.6875,E,1,4,2.03,497.0,M,-31.9,M,,*63
2017-05-26T11:24:39 -->> $GPGSA,A,3,16,08,27,23,,,,,,,,,2.26,2.03,0.99*0E
2017-05-26T11:24:39 -->> $GLGSA,A,3,,,,,,,,,,,,,2.26,2.03,0.99*19
2017-05-26T11:24:39 -->> $GPGSV,3,1,09,27,66,124,35,23,64,274,32,16,53,024,35,08,44,184,33*71
2017-05-26T11:24:39 -->> $GPGSV,3,2,09,42,37,124,,193,,,,09,,,32,04,,,29*78
2017-05-26T11:24:39 -->> $GPGSV,3,3,09,07,,,26*73
2017-05-26T11:24:39 -->> $GLGSV,1,1,00*65
2017-05-26T11:24:39 -->> $GNRMC,032439.000,A,3032.9042,N,10403.6875,E,0.00,0.00,260517,,,A*7F
2017-05-26T11:24:39 -->> $GNVTG,0.00,T,,M,0.00,N,0.00,K,A*23
2017-05-26T11:24:40 -->> $GNGGA,032440.000,3032.9042,N,10403.6875,E,1,5,1.63,497.0,M,-31.9,M,,*69
2017-05-26T11:24:40 -->> $GPGSA,A,3,16,08,27,23,,,,,,,,,1.90,1.63,0.99*05
2017-05-26T11:24:40 -->> $GLGSA,A,3,82,,,,,,,,,,,,1.90,1.63,0.99*18
2017-05-26T11:24:40 -->> $GPGSV,3,1,09,27,66,124,36,23,64,274,32,16,53,024,35,08,44,184,33*72
2017-05-26T11:24:41 -->> $GPGSV,3,2,09,42,37,124,,193,,,,09,,,31,04,,,29*7B
2017-05-26T11:24:41 -->> $GPGSV,3,3,09,07,,,27*72
2017-05-26T11:24:41 -->> $GLGSV,1,1,01,82,46,105,30*5B
2017-05-26T11:24:41 -->> $GNRMC,032440.000,A,3032.9042,N,10403.6875,E,0.00,0.00,260517,,,A*71
2017-05-26T11:24:41 -->> $GNVTG,0.00,T,,M,0.00,N,0.00,K,A*23
2017-05-26T11:24:41 -->> $GNGGA,032441.000,3032.9042,N,10403.6875,E,1,5,1.63,497.0,M,-31.9,M,,*68
2017-05-26T11:24:41 -->> $GPGSA,A,3,16,08,27,23,,,,,,,,,1.90,1.63,0.99*05
2017-05-26T11:24:41 -->> $GLGSA,A,3,82,,,,,,,,,,,,1.90,1.63,0.99*18
2017-05-26T11:24:41 -->> $GPGSV,3,1,09,27,66,124,36,23,64,274,32,16,53,024,35,08,44,184,33*72
2017-05-26T11:24:41 -->> $GPGSV,3,2,09,44,35,237,,193,,,,09,,,31,04,,,29*7E
2017-05-26T11:24:41 -->> $GPGSV,3,3,09,07,,,28*7D
2017-05-26T11:24:41 -->> $GLGSV,1,1,01,82,46,105,31*5A
2017-05-26T11:24:42 -->> $GNRMC,032441.000,A,3032.9042,N,10403.6875,E,0.00,0.00,260517,,,A*70
2017-05-26T11:24:42 -->> $GNVTG,0.00,T,,M,0.00,N,0.00,K,A*23
2017-05-26T11:24:42 -->> $GNGGA,032442.000,3032.9042,N,10403.6875,E,1,5,1.63,497.0,M,-31.9,M,,*6B
2017-05-26T11:24:42 -->> $GPGSA,A,3,16,08,27,23,,,,,,,,,1.90,1.63,0.99*05
2017-05-26T11:24:42 -->> $GLGSA,A,3,82,,,,,,,,,,,,1.90,1.63,0.99*18
2017-05-26T11:24:42 -->> $GPGSV,3,1,09,27,66,124,36,23,64,274,32,16,53,024,35,08,44,184,33*72
2017-05-26T11:24:42 -->> $GPGSV,3,2,09,44,35,237,,193,,,,09,,,30,04,,,29*7F
2017-05-26T11:24:42 -->> $GPGSV,3,3,09,07,,,29*7C
2017-05-26T11:24:43 -->> $GLGSV,1,1,01,82,46,105,31*5A
2017-05-26T11:24:43 -->> $GNRMC,032442.000,A,3032.9042,N,10403.6875,E,0.00,0.00,260517,,,A*73
2017-05-26T11:24:43 -->> $GNVTG,0.00,T,,M,0.00,N,0.00,K,A*23
2017-05-26T11:24:43 -->> $GNGGA,032443.000,3032.9042,N,10403.6875,E,1,5,1.63,497.0,M,-31.9,M,,*6A
2017-05-26T11:24:43 -->> $GPGSA,A,3,16,08,27,23,,,,,,,,,1.90,1.63,0.99*05
2017-05-26T11:24:43 -->> $GLGSA,A,3,82,,,,,,,,,,,,1.90,1.63,0.99*18
2017-05-26T11:24:43 -->> $GPGSV,3,1,09,27,66,124,36,23,64,274,32,16,53,024,35,08,44,184,33*72
2017-05-26T11:24:43 -->> $GPGSV,3,2,09,44,35,237,,193,,,,09,,,29,04,,,29*77
2017-05-26T11:24:43 -->> $GPGSV,3,3,09,07,,,29*7C
2017-05-26T11:24:43 -->> $GLGSV,1,1,01,82,46,105,31*5A
2017-05-26T11:24:44 -->> $GNRMC,032443.000,A,3032.9042,N,10403.6875,E,0.00,0.00,260517,,,A*72
2017-05-26T11:24:44 -->> $GNVTG,0.00,T,,M,0.00,N,0.00,K,A*23
2017-05-26T11:24:44 -->> $GNGGA,032444.000,3032.9042,N,10403.6875,E,1,5,1.63,497.0,M,-31.9,M,,*6D
2017-05-26T11:24:44 -->> $GPGSA,A,3,16,08,27,23,,,,,,,,,1.91,1.63,0.99*04
2017-05-26T11:24:44 -->> $GLGSA,A,3,82,,,,,,,,,,,,1.91,1.63,0.99*19
2017-05-26T11:24:44 -->> $GPGSV,3,1,09,27,66,124,36,23,64,274,31,16,53,024,35,08,44,184,34*76
2017-05-26T11:24:44 -->> $GPGSV,3,2,09,44,35,237,,193,,,,09,,,25,04,,,30*73
2017-05-26T11:24:44 -->> $GPGSV,3,3,09,07,,,29*7C
2017-05-26T11:24:44 -->> $GLGSV,1,1,01,82,46,105,31*5A
2017-05-26T11:24:45 -->> $GNRMC,032444.000,A,3032.9042,N,10403.6875,E,0.00,0.00,260517,,,A*75
2017-05-26T11:24:45 -->> $GNVTG,0.00,T,,M,0.00,N,0.00,K,A*23
2017-05-26T11:24:45 -->> $GNGGA,032445.000,3032.9065,N,10403.6818,E,1,5,1.63,471.6,M,-31.9,M,,*6C
2017-05-26T11:24:45 -->> $GPGSA,A,3,16,08,27,23,,,,,,,,,1.90,1.63,0.99*05
2017-05-26T11:24:45 -->> $GLGSA,A,3,82,,,,,,,,,,,,1.90,1.63,0.99*18
2017-05-26T11:24:45 -->> $GPGSV,3,1,09,27,66,124,36,23,64,274,31,16,53,024,35,08,44,184,34*76
2017-05-26T11:24:45 -->> $GPGSV,3,2,09,44,35,237,,193,,,,09,,,25,04,,,30*73
2017-05-26T11:24:45 -->> $GPGSV,3,3,09,07,,,30*74
2017-05-26T11:24:46 -->> $GLGSV,1,1,01,82,46,105,31*5A
2017-05-26T11:24:46 -->> $GNRMC,032445.000,A,3032.9065,N,10403.6818,E,0.18,0.00,260517,,,A*73
2017-05-26T11:24:46 -->> $GNVTG,0.00,T,,M,0.18,N,0.34,K,A*2D
2017-05-26T11:24:46 -->> $GNGGA,032446.000,3032.9065,N,10403.6816,E,1,5,1.63,471.0,M,-31.9,M,,*67
2017-05-26T11:24:46 -->> $GPGSA,A,3,16,08,27,23,,,,,,,,,1.91,1.63,0.99*04
2017-05-26T11:24:46 -->> $GLGSA,A,3,82,,,,,,,,,,,,1.91,1.63,0.99*19
2017-05-26T11:24:46 -->> $GPGSV,3,1,09,27,66,124,36,23,64,274,31,16,53,024,35,08,44,184,34*76
2017-05-26T11:24:46 -->> $GPGSV,3,2,09,44,35,237,,193,,,,09,,,24,04,,,31*73
2017-05-26T11:24:46 -->> $GPGSV,3,3,09,07,,,30*74
2017-05-26T11:24:46 -->> $GLGSV,1,1,01,82,46,105,32*59
2017-05-26T11:24:47 -->> $GNRMC,032446.000,A,3032.9065,N,10403.6816,E,0.00,0.00,260517,,,A*77
2017-05-26T11:24:47 -->> $GNVTG,0.00,T,,M,0.00,N,0.00,K,A*23
2017-05-26T11:24:47 -->> $GNGGA,032447.000,3032.9064,N,10403.6814,E,1,5,1.63,470.4,M,-31.9,M,,*60
2017-05-26T11:24:47 -->> $GPGSA,A,3,16,08,27,23,,,,,,,,,1.90,1.63,0.99*05
2017-05-26T11:24:47 -->> $GLGSA,A,3,82,,,,,,,,,,,,1.90,1.63,0.99*18
2017-05-26T11:24:47 -->> $GPGSV,3,1,09,27,66,124,36,23,64,274,31,16,53,024,35,08,44,184,34*76
2017-05-26T11:24:47 -->> $GPGSV,3,2,09,44,35,237,,193,,,,09,,,24,04,,,32*70
2017-05-26T11:24:47 -->> $GPGSV,3,3,09,07,,,31*75
2017-05-26T11:24:47 -->> $GLGSV,1,1,01,82,46,105,32*59
2017-05-26T11:24:47 -->> $GNRMC,032447.000,A,3032.9064,N,10403.6814,E,0.00,0.00,260517,,,A*75
2017-05-26T11:24:48 -->> $GNVTG,0.00,T,,M,0.00,N,0.00,K,A*23
2017-05-26T11:24:48 -->> $GNGGA,032448.000,3032.9062,N,10403.6814,E,1,5,1.63,469.9,M,-31.9,M,,*6C
2017-05-26T11:24:48 -->> $GPGSA,A,3,16,08,27,23,,,,,,,,,1.91,1.63,0.99*04
2017-05-26T11:24:48 -->> $GLGSA,A,3,82,,,,,,,,,,,,1.91,1.63,0.99*19
2017-05-26T11:24:48 -->> $GPGSV,3,1,09,27,66,124,36,23,64,274,31,16,53,024,35,08,44,184,33*71
2017-05-26T11:24:48 -->> $GPGSV,3,2,09,44,35,237,,193,,,,09,,,24,04,,,32*70
2017-05-26T11:24:48 -->> $GPGSV,3,3,09,07,,,31*75
2017-05-26T11:24:48 -->> $GLGSV,1,1,01,82,46,105,32*59
2017-05-26T11:24:48 -->> $GNRMC,032448.000,A,3032.9062,N,10403.6814,E,0.00,0.00,260517,,,A*7C
2017-05-26T11:24:49 -->> $GNVTG,0.00,T,,M,0.00,N,0.00,K,A*23
2017-05-26T11:24:49 -->> $GNGGA,032449.000,3032.9062,N,10403.6814,E,1,5,1.63,469.9,M,-31.9,M,,*6D
2017-05-26T11:24:49 -->> $GPGSA,A,3,16,08,27,23,,,,,,,,,1.90,1.63,0.99*05
2017-05-26T11:24:49 -->> $GLGSA,A,3,82,,,,,,,,,,,,1.90,1.63,0.99*18
2017-05-26T11:24:49 -->> $GPGSV,3,1,09,27,66,124,36,23,64,274,31,16,53,024,35,08,44,184,33*71
2017-05-26T11:24:49 -->> $GPGSV,3,2,09,44,35,237,,193,,,,09,,,23,04,,,32*77
2017-05-26T11:24:49 -->> $GPGSV,3,3,09,07,,,30*74
2017-05-26T11:24:49 -->> $GLGSV,1,1,01,82,46,105,32*59
2017-05-26T11:24:50 -->> $GNRMC,032449.000,A,3032.9062,N,10403.6814,E,0.00,0.00,260517,,,A*7D
2017-05-26T11:24:50 -->> $GNVTG,0.00,T,,M,0.00,N,0.00,K,A*23
2017-05-26T11:24:50 -->> $GNGGA,032450.000,3032.9062,N,10403.6814,E,1,5,1.63,469.9,M,-31.9,M,,*65
2017-05-26T11:24:50 -->> $GPGSA,A,3,16,08,27,23,,,,,,,,,1.90,1.63,0.99*05
2017-05-26T11:24:50 -->> $GLGSA,A,3,82,,,,,,,,,,,,1.90,1.63,0.99*18
2017-05-26T11:24:50 -->> $GPGSV,2,1,08,27,66,124,36,23,64,274,30,16,53,024,35,08,44,184,33*70
2017-05-26T11:24:50 -->> $GPGSV,2,2,08,40,34,238,,193,,,,09,,,21,07,,,29*76
2017-05-26T11:24:50 -->> $GLGSV,1,1,01,82,46,105,32*59
2017-05-26T11:24:50 -->> $GNRMC,032450.000,A,3032.9062,N,10403.6814,E,0.00,0.00,260517,,,A*75
2017-05-26T11:24:51 -->> $GNVTG,0.00,T,,M,0.00,N,0.00,K,A*23
2017-05-26T11:24:51 -->> $GNGGA,032451.000,3032.9062,N,10403.6814,E,1,5,1.63,469.9,M,-31.9,M,,*64
2017-05-26T11:24:51 -->> $GPGSA,A,3,16,08,27,23,,,,,,,,,1.91,1.63,0.99*04
2017-05-26T11:24:51 -->> $GLGSA,A,3,82,,,,,,,,,,,,1.91,1.63,0.99*19
2017-05-26T11:24:51 -->> $GPGSV,2,1,08,27,66,124,36,23,64,274,30,16,52,024,35,08,44,184,33*71
2017-05-26T11:24:51 -->> $GPGSV,2,2,08,40,34,238,,193,,,,09,,,19,07,,,28*7C
2017-05-26T11:24:51 -->> $GLGSV,1,1,01,82,46,105,32*59
2017-05-26T11:24:51 -->> $GNRMC,032451.000,A,3032.9062,N,10403.6814,E,0.00,0.00,260517,,,A*74
2017-05-26T11:24:51 -->> $GNVTG,0.00,T,,M,0.00,N,0.00,K,A*23
2017-05-26T11:24:52 -->> $GNGGA,032452.000,3032.9062,N,10403.6814,E,1,5,1.63,469.9,M,-31.9,M,,*67
2017-05-26T11:24:52 -->> $GPGSA,A,3,16,08,27,23,,,,,,,,,1.91,1.63,0.99*04
2017-05-26T11:24:52 -->> $GLGSA,A,3,82,,,,,,,,,,,,1.91,1.63,0.99*19
2017-05-26T11:24:52 -->> $GPGSV,2,1,08,27,66,124,36,23,64,274,30,16,52,024,35,08,44,184,33*71
2017-05-26T11:24:52 -->> $GPGSV,2,2,08,40,34,238,,193,,,,09,,,18,07,,,28*7D
2017-05-26T11:24:52 -->> $GLGSV,1,1,01,82,46,105,32*59
2017-05-26T11:24:52 -->> $GNRMC,032452.000,A,3032.9062,N,10403.6814,E,0.00,0.00,260517,,,A*77
2017-05-26T11:24:52 -->> $GNVTG,0.00,T,,M,0.00,N,0.00,K,A*23
2017-05-26T11:24:53 -->> $GNGGA,032453.000,3032.9062,N,10403.6814,E,1,5,1.63,469.9,M,-31.9,M,,*66
2017-05-26T11:24:53 -->> $GPGSA,A,3,16,08,27,23,,,,,,,,,1.91,1.63,0.99*04
2017-05-26T11:24:53 -->> $GLGSA,A,3,82,,,,,,,,,,,,1.91,1.63,0.99*19
2017-05-26T11:24:53 -->> $GPGSV,2,1,08,27,66,124,36,23,64,274,30,16,52,024,35,08,44,184,33*71
2017-05-26T11:24:53 -->> $GPGSV,2,2,08,40,34,238,,193,,,,09,,,17,07,,,28*72
2017-05-26T11:24:53 -->> $GLGSV,1,1,01,82,46,105,32*59
2017-05-26T11:24:53 -->> $GNRMC,032453.000,A,3032.9062,N,10403.6814,E,0.00,0.00,260517,,,A*76
2017-05-26T11:24:53 -->> $GNVTG,0.00,T,,M,0.00,N,0.00,K,A*23
2017-05-26T11:24:54 -->> $GNGGA,032454.000,3032.9062,N,10403.6814,E,1,5,1.63,469.9,M,-31.9,M,,*61
2017-05-26T11:24:54 -->> $GPGSA,A,3,16,08,27,23,,,,,,,,,1.90,1.63,0.99*05
2017-05-26T11:24:54 -->> $GLGSA,A,3,82,,,,,,,,,,,,1.90,1.63,0.99*18
2017-05-26T11:24:54 -->> $GPGSV,2,1,08,27,66,124,36,23,64,274,29,16,52,024,35,08,44,184,33*79
2017-05-26T11:24:54 -->> $GPGSV,2,2,08,40,34,238,,193,,,,09,,,16,07,,,29*72
2017-05-26T11:24:54 -->> $GLGSV,1,1,01,82,46,105,32*59
2017-05-26T11:24:54 -->> $GNRMC,032454.000,A,3032.9062,N,10403.6814,E,0.00,0.00,260517,,,A*71
2017-05-26T11:24:55 -->> $GNVTG,0.00,T,,M,0.00,N,0.00,K,A*23
2017-05-26T11:24:55 -->> $GNGGA,032455.000,3032.9062,N,10403.6814,E,1,5,1.63,469.9,M,-31.9,M,,*60
2017-05-26T11:24:55 -->> $GPGSA,A,3,16,08,27,23,,,,,,,,,1.91,1.63,0.99*04
2017-05-26T11:24:55 -->> $GLGSA,A,3,82,,,,,,,,,,,,1.91,1.63,0.99*19
2017-05-26T11:24:55 -->> $GPGSV,2,1,08,27,66,124,36,23,64,274,29,16,52,024,35,08,44,184,33*79
2017-05-26T11:24:55 -->> $GPGSV,2,2,08,40,34,238,,193,,,,09,,,15,07,,,29*71
2017-05-26T11:24:55 -->> $GLGSV,1,1,01,82,46,105,32*59
2017-05-26T11:24:55 -->> $GNRMC,032455.000,A,3032.9062,N,10403.6814,E,0.00,0.00,260517,,,A*70
2017-05-26T11:24:55 -->> $GNVTG,0.00,T,,M,0.00,N,0.00,K,A*23
2017-05-26T11:24:56 -->> $GNGGA,032456.000,3032.9062,N,10403.6814,E,1,5,1.63,469.9,M,-31.9,M,,*63
2017-05-26T11:24:56 -->> $GPGSA,A,3,16,08,27,23,,,,,,,,,1.91,1.63,0.99*04
2017-05-26T11:24:56 -->> $GLGSA,A,3,82,,,,,,,,,,,,1.91,1.63,0.99*19
2017-05-26T11:24:56 -->> $GPGSV,2,1,08,27,66,124,36,23,64,274,28,16,52,024,35,08,44,184,33*78
2017-05-26T11:24:56 -->> $GPGSV,2,2,08,40,34,238,,193,,,,09,,,15,07,,,30*79
2017-05-26T11:24:56 -->> $GLGSV,1,1,01,82,46,105,32*59
2017-05-26T11:24:56 -->> $GNRMC,032456.000,A,3032.9062,N,10403.6814,E,0.00,0.00,260517,,,A*73
2017-05-26T11:24:56 -->> $GNVTG,0.00,T,,M,0.00,N,0.00,K,A*23
2017-05-26T11:24:57 -->> $GNGGA,032457.000,3032.9062,N,10403.6814,E,1,5,1.63,469.9,M,-31.9,M,,*62
2017-05-26T11:24:57 -->> $GPGSA,A,3,16,08,27,23,,,,,,,,,1.91,1.63,0.99*04
2017-05-26T11:24:57 -->> $GLGSA,A,3,82,,,,,,,,,,,,1.91,1.63,0.99*19
2017-05-26T11:24:57 -->> $GPGSV,2,1,08,27,66,124,36,23,64,274,28,16,52,024,35,08,44,184,33*78
2017-05-26T11:24:57 -->> $GPGSV,2,2,08,40,34,238,,193,,,,09,,,15,07,,,30*79
2017-05-26T11:24:57 -->> $GLGSV,1,1,01,82,46,105,31*5A
2017-05-26T11:24:57 -->> $GNRMC,032457.000,A,3032.9062,N,10403.6814,E,0.00,0.00,260517,,,A*72
2017-05-26T11:24:57 -->> $GNVTG,0.00,T,,M,0.00,N,0.00,K,A*23
2017-05-26T11:24:58 -->> $GNGGA,032458.000,3032.9062,N,10403.6814,E,1,5,1.63,469.9,M,-31.9,M,,*6D
2017-05-26T11:24:58 -->> $GPGSA,A,3,16,08,27,23,,,,,,,,,1.91,1.63,0.99*04
2017-05-26T11:24:58 -->> $GLGSA,A,3,82,,,,,,,,,,,,1.91,1.63,0.99*19
2017-05-26T11:24:58 -->> $GPGSV,3,1,09,27,66,124,36,23,65,273,28,16,52,024,35,08,44,184,33*7E
2017-05-26T11:24:58 -->> $GPGSV,3,2,09,40,34,238,,193,,,,09,,,15,26,,,26*7D
2017-05-26T11:24:58 -->> $GPGSV,3,3,09,07,,,30*74
2017-05-26T11:24:58 -->> $GLGSV,1,1,01,82,46,105,32*59
2017-05-26T11:24:58 -->> $GNRMC,032458.000,A,3032.9062,N,10403.6814,E,0.00,0.00,260517,,,A*7D
2017-05-26T11:24:59 -->> $GNVTG,0.00,T,,M,0.00,N,0.00,K,A*23
2017-05-26T11:24:59 -->> $GNGGA,032459.000,3032.9062,N,10403.6814,E,1,5,1.63,469.9,M,-31.9,M,,*6C
2017-05-26T11:24:59 -->> $GPGSA,A,3,16,08,27,23,,,,,,,,,1.91,1.63,0.99*04
2017-05-26T11:24:59 -->> $GLGSA,A,3,82,,,,,,,,,,,,1.91,1.63,0.99*19
2017-05-26T11:24:59 -->> $GPGSV,3,1,09,27,66,124,36,23,65,273,28,16,52,024,35,08,44,184,33*7E
2017-05-26T11:24:59 -->> $GPGSV,3,2,09,40,34,238,,193,,,,09,,,14,26,,,27*7D
2017-05-26T11:24:59 -->> $GPGSV,3,3,09,07,,,30*74
2017-05-26T11:24:59 -->> $GLGSV,1,1,01,82,46,105,32*59
2017-05-26T11:24:59 -->> $GNRMC,032459.000,A,3032.9062,N,10403.6814,E,0.00,0.00,260517,,,A*7C
2017-05-26T11:25:00 -->> $GNVTG,0.00,T,,M,0.00,N,0.00,K,A*23
2017-05-26T11:25:00 -->> $GNGGA,032500.000,3032.9062,N,10403.6814,E,1,5,1.63,469.9,M,-31.9,M,,*61
2017-05-26T11:25:00 -->> $GPGSA,A,3,16,08,27,23,,,,,,,,,1.91,1.63,0.99*04
2017-05-26T11:25:00 -->> $GLGSA,A,3,82,,,,,,,,,,,,1.91,1.63,0.99*19
2017-05-26T11:25:00 -->> $GPGSV,3,1,09,27,66,124,36,23,65,273,28,16,52,024,35,08,44,184,33*7E
2017-05-26T11:25:00 -->> $GPGSV,3,2,09,50,33,120,,193,,,,09,,,13,26,,,28*79
2017-05-26T11:25:00 -->> $GPGSV,3,3,09,07,,,30*74
2017-05-26T11:25:00 -->> $GLGSV,1,1,01,82,46,105,32*59
2017-05-26T11:25:00 -->> $GNRMC,032500.000,A,3032.9062,N,10403.6814,E,0.00,0.00,260517,,,A*71
2017-05-26T11:25:01 -->> $GNVTG,0.00,T,,M,0.00,N,0.00,K,A*23
2017-05-26T11:25:01 -->> $GNGGA,032501.000,3032.9062,N,10403.6814,E,1,6,1.34,469.9,M,-31.9,M,,*61
2017-05-26T11:25:01 -->> $GPGSA,A,3,16,08,27,23,07,,,,,,,,1.62,1.34,0.92*06
2017-05-26T11:25:01 -->> $GLGSA,A,3,82,,,,,,,,,,,,1.62,1.34,0.92*1C
2017-05-26T11:25:01 -->> $GPGSV,2,1,08,27,66,124,36,23,65,273,28,16,52,024,35,08,44,184,33*7E
2017-05-26T11:25:01 -->> $GPGSV,2,2,08,50,33,120,,07,14,304,31,193,,,,26,,,27*4A
2017-05-26T11:25:01 -->> $GLGSV,1,1,01,82,46,105,32*59
2017-05-26T11:25:02 -->> $GNRMC,032501.000,A,3032.9062,N,10403.6814,E,0.00,0.00,260517,,,A*70
2017-05-26T11:25:02 -->> $GNVTG,0.00,T,,M,0.00,N,0.00,K,A*23
2017-05-26T11:25:02 -->> $GNGGA,032502.000,3032.9062,N,10403.6814,E,1,6,1.34,469.9,M,-31.9,M,,*62
2017-05-26T11:25:02 -->> $GPGSA,A,3,16,08,27,23,07,,,,,,,,1.62,1.34,0.92*06
2017-05-26T11:25:02 -->> $GLGSA,A,3,82,,,,,,,,,,,,1.62,1.34,0.92*1C
2017-05-26T11:25:02 -->> $GPGSV,2,1,08,27,66,124,36,23,65,273,28,16,52,024,35,08,44,184,33*7E
2017-05-26T11:25:02 -->> $GPGSV,2,2,08,50,33,120,,07,14,304,32,193,,,,26,,,27*49
2017-05-26T11:25:02 -->> $GLGSV,1,1,01,82,46,105,32*59
2017-05-26T11:25:03 -->> $GNRMC,032502.000,A,3032.9062,N,10403.6814,E,0.00,0.00,260517,,,A*73
2017-05-26T11:25:03 -->> $GNVTG,0.00,T,,M,0.00,N,0.00,K,A*23
2017-05-26T11:25:03 -->> $GNGGA,032503.000,3032.9062,N,10403.6814,E,1,6,1.34,469.9,M,-31.9,M,,*63
2017-05-26T11:25:03 -->> $GPGSA,A,3,16,08,27,23,07,,,,,,,,1.62,1.34,0.92*06
2017-05-26T11:25:03 -->> $GLGSA,A,3,82,,,,,,,,,,,,1.62,1.34,0.92*1C
2017-05-26T11:25:03 -->> $GPGSV,2,1,08,27,66,124,36,23,65,273,28,16,52,024,35,08,44,184,33*7E
2017-05-26T11:25:03 -->> $GPGSV,2,2,08,50,33,120,,07,14,304,32,193,,,,26,,,27*49
2017-05-26T11:25:03 -->> $GLGSV,1,1,01,82,46,105,32*59
2017-05-26T11:25:04 -->> $GNRMC,032503.000,A,3032.9062,N,10403.6814,E,0.00,0.00,260517,,,A*72
2017-05-26T11:25:04 -->> $GNVTG,0.00,T,,M,0.00,N,0.00,K,A*23
2017-05-26T11:25:04 -->> $GNGGA,032504.000,3032.9062,N,10403.6814,E,1,6,1.34,469.9,M,-31.9,M,,*64
2017-05-26T11:25:04 -->> $GPGSA,A,3,16,08,27,23,07,,,,,,,,1.62,1.34,0.92*06
2017-05-26T11:25:04 -->> $GLGSA,A,3,82,,,,,,,,,,,,1.62,1.34,0.92*1C
2017-05-26T11:25:04 -->> $GPGSV,2,1,08,27,66,124,36,23,65,273,27,16,52,024,35,08,44,184,33*71
2017-05-26T11:25:04 -->> $GPGSV,2,2,08,50,33,120,,07,14,304,32,193,,,,26,,,27*49
2017-05-26T11:25:04 -->> $GLGSV,1,1,01,82,46,105,31*5A
2017-05-26T11:25:05 -->> $GNRMC,032504.000,A,3032.9062,N,10403.6814,E,0.00,0.00,260517,,,A*75
2017-05-26T11:25:05 -->> $GNVTG,0.00,T,,M,0.00,N,0.00,K,A*23
2017-05-26T11:25:05 -->> $GNGGA,032505.000,3032.9062,N,10403.6814,E,1,6,1.34,469.9,M,-31.9,M,,*65
2017-05-26T11:25:05 -->> $GPGSA,A,3,16,08,27,23,07,,,,,,,,1.62,1.34,0.92*06
2017-05-26T11:25:05 -->> $GLGSA,A,3,82,,,,,,,,,,,,1.62,1.34,0.92*1C
2017-05-26T11:25:05 -->> $GPGSV,2,1,08,27,66,124,36,23,65,273,26,16,52,024,35,08,44,184,33*70
2017-05-26T11:25:05 -->> $GPGSV,2,2,08,50,33,120,,07,14,304,32,193,,,,26,,,27*49
2017-05-26T11:25:05 -->> $GLGSV,1,1,01,82,46,105,31*5A
2017-05-26T11:25:06 -->> $GNRMC,032505.000,A,3032.9062,N,10403.6814,E,0.00,0.00,260517,,,A*74
2017-05-26T11:25:06 -->> $GNVTG,0.00,T,,M,0.00,N,0.00,K,A*23
2017-05-26T11:25:06 -->> $GNGGA,032506.000,3032.9062,N,10403.6814,E,1,6,1.34,469.9,M,-31.9,M,,*66
2017-05-26T11:25:06 -->> $GPGSA,A,3,16,08,27,23,07,,,,,,,,1.62,1.34,0.92*06
2017-05-26T11:25:06 -->> $GLGSA,A,3,82,,,,,,,,,,,,1.62,1.34,0.92*1C
2017-05-26T11:25:06 -->> $GPGSV,2,1,08,27,66,124,36,23,65,273,26,16,52,024,35,08,44,184,33*70
2017-05-26T11:25:06 -->> $GPGSV,2,2,08,50,33,120,,07,14,304,32,193,,,,26,,,26*48
2017-05-26T11:25:06 -->> $GLGSV,1,1,01,82,46,105,31*5A
2017-05-26T11:25:07 -->> $GNRMC,032506.000,A,3032.9062,N,10403.6814,E,0.00,0.00,260517,,,A*77
2017-05-26T11:25:07 -->> $GNVTG,0.00,T,,M,0.00,N,0.00,K,A*23
2017-05-26T11:25:07 -->> $GNGGA,032507.000,3032.9062,N,10403.6814,E,1,6,1.34,469.9,M,-31.9,M,,*67
2017-05-26T11:25:07 -->> $GPGSA,A,3,16,08,27,23,07,,,,,,,,1.62,1.34,0.92*06
2017-05-26T11:25:07 -->> $GLGSA,A,3,82,,,,,,,,,,,,1.62,1.34,0.92*1C
2017-05-26T11:25:07 -->> $GPGSV,2,1,08,27,66,124,36,23,65,273,26,16,52,024,35,08,44,184,33*70
2017-05-26T11:25:07 -->> $GPGSV,2,2,08,50,33,120,,07,14,304,32,193,,,,26,,,25*4B
2017-05-26T11:25:07 -->> $GLGSV,1,1,01,82,46,105,31*5A
2017-05-26T11:25:08 -->> $GNRMC,032507.000,A,3032.9062,N,10403.6814,E,0.00,0.00,260517,,,A*76
2017-05-26T11:25:08 -->> $GNVTG,0.00,T,,M,0.00,N,0.00,K,A*23
2017-05-26T11:25:08 -->> $GNGGA,032508.000,3032.9062,N,10403.6814,E,1,6,1.34,469.9,M,-31.9,M,,*68
2017-05-26T11:25:08 -->> $GPGSA,A,3,16,08,27,23,07,,,,,,,,1.62,1.34,0.92*06
2017-05-26T11:25:08 -->> $GLGSA,A,3,82,,,,,,,,,,,,1.62,1.34,0.92*1C
2017-05-26T11:25:08 -->> $GPGSV,2,1,08,27,66,124,36,23,65,273,25,16,52,024,35,08,44,184,33*73
2017-05-26T11:25:08 -->> $GPGSV,2,2,08,50,33,120,,07,14,304,32,193,,,,26,,,24*4A
2017-05-26T11:25:08 -->> $GLGSV,1,1,01,82,46,105,31*5A
2017-05-26T11:25:09 -->> $GNRMC,032508.000,A,3032.9062,N,10403.6814,E,0.00,0.00,260517,,,A*79
2017-05-26T11:25:09 -->> $GNVTG,0.00,T,,M,0.00,N,0.00,K,A*23
2017-05-26T11:25:09 -->> $GNGGA,032509.000,3032.9062,N,10403.6814,E,1,6,1.34,469.9,M,-31.9,M,,*69
2017-05-26T11:25:09 -->> $GPGSA,A,3,16,08,27,23,07,,,,,,,,1.62,1.34,0.92*06
2017-05-26T11:25:09 -->> $GLGSA,A,3,82,,,,,,,,,,,,1.62,1.34,0.92*1C
2017-05-26T11:25:09 -->> $GPGSV,2,1,08,27,66,124,36,23,65,273,25,16,52,024,35,08,44,184,33*73
2017-05-26T11:25:09 -->> $GPGSV,2,2,08,07,14,304,32,39,00,264,,193,,,,26,,,22*40
2017-05-26T11:25:09 -->> $GLGSV,1,1,01,82,46,105,31*5A
2017-05-26T11:25:10 -->> $GNRMC,032509.000,A,3032.9062,N,10403.6814,E,0.00,0.00,260517,,,A*78
2017-05-26T11:25:10 -->> $GNVTG,0.00,T,,M,0.00,N,0.00,K,A*23
2017-05-26T11:25:10 -->> $GNGGA,032510.000,3032.9062,N,10403.6814,E,1,7,1.28,469.9,M,-31.9,M,,*6D
2017-05-26T11:25:10 -->> $GPGSA,A,3,16,08,27,23,07,,,,,,,,1.58,1.28,0.92*02
2017-05-26T11:25:10 -->> $GLGSA,A,3,73,82,,,,,,,,,,,1.58,1.28,0.92*1C
2017-05-26T11:25:10 -->> $GPGSV,2,1,08,27,66,124,36,23,65,273,25,16,52,024,35,08,44,184,33*73
2017-05-26T11:25:10 -->> $GPGSV,2,2,08,07,14,304,32,39,00,264,,193,,,,26,,,20*42
2017-05-26T11:25:11 -->> $GLGSV,1,1,02,82,46,105,31,73,23,303,26*68
2017-05-26T11:25:11 -->> $GNRMC,032510.000,A,3032.9062,N,10403.6814,E,0.00,0.00,260517,,,A*70
2017-05-26T11:25:11 -->> $GNVTG,0.00,T,,M,0.00,N,0.00,K,A*23
2017-05-26T11:25:11 -->> $GNGGA,032511.000,3032.9062,N,10403.6814,E,1,7,1.28,469.9,M,-31.9,M,,*6C
2017-05-26T11:25:11 -->> $GPGSA,A,3,16,08,27,23,07,,,,,,,,1.58,1.28,0.92*02
2017-05-26T11:25:11 -->> $GLGSA,A,3,73,82,,,,,,,,,,,1.58,1.28,0.92*1C
2017-05-26T11:25:11 -->> $GPGSV,2,1,08,27,66,124,36,23,65,273,26,16,52,024,35,08,44,184,33*70
2017-05-26T11:25:11 -->> $GPGSV,2,2,08,07,14,304,31,39,00,264,,193,,,,26,,,19*4B
2017-05-26T11:25:12 -->> $GLGSV,1,1,02,82,46,105,31,73,23,303,26*68
2017-05-26T11:25:12 -->> $GNRMC,032511.000,A,3032.9062,N,10403.6814,E,0.00,0.00,260517,,,A*71
2017-05-26T11:25:12 -->> $GNVTG,0.00,T,,M,0.00,N,0.00,K,A*23
2017-05-26T11:25:12 -->> $GNGGA,032512.000,3032.9062,N,10403.6814,E,1,7,1.28,469.9,M,-31.9,M,,*6F
2017-05-26T11:25:12 -->> $GPGSA,A,3,16,08,27,23,07,,,,,,,,1.57,1.28,0.92*0D
2017-05-26T11:25:12 -->> $GLGSA,A,3,73,82,,,,,,,,,,,1.57,1.28,0.92*13
2017-05-26T11:25:12 -->> $GPGSV,3,1,09,27,66,124,36,23,65,273,26,16,52,024,35,08,44,184,33*70
2017-05-26T11:25:12 -->> $GPGSV,3,2,09,07,14,304,29,39,00,264,,193,,,,03,,,26*49
2017-05-26T11:25:12 -->> $GPGSV,3,3,09,26,,,19*7C
2017-05-26T11:25:13 -->> $GLGSV,1,1,02,82,46,105,30,73,23,303,26*69
2017-05-26T11:25:13 -->> $GNRMC,032512.000,A,3032.9062,N,10403.6814,E,0.00,0.00,260517,,,A*72
2017-05-26T11:25:13 -->> $GNVTG,0.00,T,,M,0.00,N,0.00,K,A*23
2017-05-26T11:25:13 -->> $GNGGA,032513.000,3032.9062,N,10403.6814,E,1,7,1.28,469.9,M,-31.9,M,,*6E
2017-05-26T11:25:13 -->> $GPGSA,A,3,16,08,27,23,07,,,,,,,,1.58,1.28,0.92*02
2017-05-26T11:25:13 -->> $GLGSA,A,3,73,82,,,,,,,,,,,1.58,1.28,0.92*1C
2017-05-26T11:25:13 -->> $GPGSV,3,1,10,27,66,124,36,23,65,273,26,16,52,024,35,08,44,184,33*78
2017-05-26T11:25:13 -->> $GPGSV,3,2,10,07,14,304,29,11,01,188,,39,00,264,,193,,,*76
2017-05-26T11:25:14 -->> $GPGSV,3,3,10,03,,,25,26,,,20*7A
2017-05-26T11:25:14 -->> $GLGSV,1,1,02,82,46,105,30,73,23,303,26*69
2017-05-26T11:25:14 -->> $GNRMC,032513.000,A,3032.9062,N,10403.6814,E,0.00,0.00,260517,,,A*73
2017-05-26T11:25:14 -->> $GNVTG,0.00,T,,M,0.00,N,0.00,K,A*23
2017-05-26T11:25:14 -->> $GNGGA,032514.000,3032.9062,N,10403.6814,E,1,7,1.28,469.9,M,-31.9,M,,*69
2017-05-26T11:25:14 -->> $GPGSA,A,3,16,08,27,23,07,,,,,,,,1.58,1.28,0.92*02
2017-05-26T11:25:14 -->> $GLGSA,A,3,73,82,,,,,,,,,,,1.58,1.28,0.92*1C
2017-05-26T11:25:14 -->> $GPGSV,3,1,10,27,66,124,36,23,65,273,25,16,52,024,35,08,44,184,33*7B
2017-05-26T11:25:14 -->> $GPGSV,3,2,10,07,14,304,28,11,01,188,,39,00,264,,193,,,*77
2017-05-26T11:25:14 -->> $GPGSV,3,3,10,03,,,26,26,,,22*7B
2017-05-26T11:25:15 -->> $GLGSV,1,1,02,82,46,105,30,73,23,303,25*6A
2017-05-26T11:25:15 -->> $GNRMC,032514.000,A,3032.9062,N,10403.6814,E,0.00,0.00,260517,,,A*74
2017-05-26T11:25:15 -->> $GNVTG,0.00,T,,M,0.00,N,0.00,K,A*23
2017-05-26T11:25:15 -->> $GNGGA,032515.000,3032.9062,N,10403.6814,E,1,7,1.28,469.9,M,-31.9,M,,*68
2017-05-26T11:25:15 -->> $GPGSA,A,3,16,08,27,23,07,,,,,,,,1.57,1.28,0.92*0D
2017-05-26T11:25:15 -->> $GLGSA,A,3,73,82,,,,,,,,,,,1.57,1.28,0.92*13
2017-05-26T11:25:15 -->> $GPGSV,3,1,10,27,66,124,36,23,65,273,25,16,52,024,35,08,44,184,33*7B
2017-05-26T11:25:15 -->> $GPGSV,3,2,10,07,14,304,28,11,01,188,,39,00,264,,193,,,*77
2017-05-26T11:25:15 -->> $GPGSV,3,3,10,03,,,24,26,,,24*7F
2017-05-26T11:25:16 -->> $GLGSV,1,1,02,82,46,105,30,73,23,303,25*6A
2017-05-26T11:25:16 -->> $GNRMC,032515.000,A,3032.9062,N,10403.6814,E,0.00,0.00,260517,,,A*75
2017-05-26T11:25:16 -->> $GNVTG,0.00,T,,M,0.00,N,0.00,K,A*23
2017-05-26T11:25:16 -->> $GNGGA,032516.000,3032.9062,N,10403.6814,E,1,7,1.28,469.9,M,-31.9,M,,*6B
2017-05-26T11:25:16 -->> $GPGSA,A,3,16,08,27,23,07,,,,,,,,1.57,1.28,0.92*0D
2017-05-26T11:25:16 -->> $GLGSA,A,3,73,82,,,,,,,,,,,1.57,1.28,0.92*13
2017-05-26T11:25:16 -->> $GPGSV,3,1,10,27,66,124,36,23,65,273,25,16,52,024,35,08,44,184,33*7B
2017-05-26T11:25:16 -->> $GPGSV,3,2,10,07,14,304,28,11,01,188,,39,00,264,,193,,,*77
2017-05-26T11:25:16 -->> $GPGSV,3,3,10,03,,,24,26,,,26*7D
2017-05-26T11:25:17 -->> $GLGSV,1,1,02,82,46,105,31,73,23,303,25*6B
2017-05-26T11:25:17 -->> $GNRMC,032516.000,A,3032.9062,N,10403.6814,E,0.00,0.00,260517,,,A*76
2017-05-26T11:25:17 -->> $GNVTG,0.00,T,,M,0.00,N,0.00,K,A*23
2017-05-26T11:25:17 -->> $GNGGA,032517.000,3032.9062,N,10403.6814,E,1,7,1.28,469.9,M,-31.9,M,,*6A
2017-05-26T11:25:17 -->> $GPGSA,A,3,16,08,27,23,07,,,,,,,,1.58,1.28,0.92*02
2017-05-26T11:25:17 -->> $GLGSA,A,3,73,82,,,,,,,,,,,1.58,1.28,0.92*1C
2017-05-26T11:25:17 -->> $GPGSV,3,1,10,27,66,124,35,23,65,273,25,16,52,024,35,08,44,184,33*78
2017-05-26T11:25:17 -->> $GPGSV,3,2,10,07,14,304,28,11,01,188,,39,00,264,,193,,,*77
2017-05-26T11:25:17 -->> $GPGSV,3,3,10,03,,,24,26,,,28*73
2017-05-26T11:25:18 -->> $GLGSV,1,1,02,82,46,105,31,73,23,303,25*6B
2017-05-26T11:25:18 -->> $GNRMC,032517.000,A,3032.9062,N,10403.6814,E,0.00,0.00,260517,,,A*77
2017-05-26T11:25:18 -->> $GNVTG,0.00,T,,M,0.00,N,0.00,K,A*23
2017-05-26T11:25:18 -->> $GNGGA,032518.000,3032.9062,N,10403.6814,E,1,7,1.28,469.9,M,-31.9,M,,*65
2017-05-26T11:25:18 -->> $GPGSA,A,3,16,08,27,23,07,,,,,,,,1.58,1.28,0.92*02
2017-05-26T11:25:18 -->> $GLGSA,A,3,73,82,,,,,,,,,,,1.58,1.28,0.92*1C
2017-05-26T11:25:18 -->> $GPGSV,3,1,10,27,66,124,35,23,65,273,26,16,52,024,35,08,44,184,33*7B
2017-05-26T11:25:18 -->> $GPGSV,3,2,10,07,14,304,27,11,01,188,,39,00,264,,193,,,*78
2017-05-26T11:25:18 -->> $GPGSV,3,3,10,03,,,24,26,,,29*72
2017-05-26T11:25:19 -->> $GLGSV,1,1,02,82,46,105,32,73,23,303,25*68
2017-05-26T11:25:19 -->> $GNRMC,032518.000,A,3032.9062,N,10403.6814,E,0.00,0.00,260517,,,A*78
2017-05-26T11:25:19 -->> $GNVTG,0.00,T,,M,0.00,N,0.00,K,A*23
2017-05-26T11:25:19 -->> $GNGGA,032519.000,3032.9062,N,10403.6814,E,1,7,1.28,469.9,M,-31.9,M,,*64
2017-05-26T11:25:19 -->> $GPGSA,A,3,16,08,27,23,07,,,,,,,,1.57,1.28,0.92*0D
2017-05-26T11:25:19 -->> $GLGSA,A,3,73,82,,,,,,,,,,,1.57,1.28,0.92*13
2017-05-26T11:25:19 -->> $GPGSV,3,1,10,27,66,124,35,23,65,273,26,16,52,024,35,08,44,184,33*7B
2017-05-26T11:25:19 -->> $GPGSV,3,2,10,07,14,304,27,11,01,188,,39,00,264,,193,,,*78
2017-05-26T11:25:20 -->> $GPGSV,3,3,10,03,,,24,26,,,29*72
2017-05-26T11:25:20 -->> $GLGSV,1,1,02,82,46,105,32,73,23,303,25*68
2017-05-26T11:25:20 -->> $GNRMC,032519.000,A,3032.9062,N,10403.6814,E,0.00,0.00,260517,,,A*79
2017-05-26T11:25:20 -->> $GNVTG,0.00,T,,M,0.00,N,0.00,K,A*23
2017-05-26T11:25:20 -->> $GNGGA,032520.000,3032.9062,N,10403.6814,E,1,7,1.28,469.9,M,-31.9,M,,*6E
2017-05-26T11:25:20 -->> $GPGSA,A,3,16,08,27,23,07,,,,,,,,1.58,1.28,0.92*02
2017-05-26T11:25:20 -->> $GLGSA,A,3,73,82,,,,,,,,,,,1.58,1.28,0.92*1C
2017-05-26T11:25:20 -->> $GPGSV,3,1,10,27,66,124,35,23,65,273,26,16,52,024,35,08,44,184,33*7B
2017-05-26T11:25:20 -->> $GPGSV,3,2,10,07,14,304,26,11,01,188,,39,00,264,,193,,,*79
2017-05-26T11:25:21 -->> $GPGSV,3,3,10,03,,,21,26,,,29*77
2017-05-26T11:25:21 -->> $GLGSV,1,1,02,82,46,105,33,73,23,303,25*69
2017-05-26T11:25:21 -->> $GNRMC,032520.000,A,3032.9062,N,10403.6814,E,0.00,0.00,260517,,,A*73
2017-05-26T11:25:21 -->> $GNVTG,0.00,T,,M,0.00,N,0.00,K,A*23
2017-05-26T11:25:21 -->> $GNGGA,032521.000,3032.9062,N,10403.6814,E,1,7,1.28,469.9,M,-31.9,M,,*6F
2017-05-26T11:25:21 -->> $GPGSA,A,3,16,08,27,23,07,,,,,,,,1.57,1.28,0.92*0D
2017-05-26T11:25:21 -->> $GLGSA,A,3,73,82,,,,,,,,,,,1.57,1.28,0.92*13
2017-05-26T11:25:21 -->> $GPGSV,3,1,10,27,66,124,35,23,65,273,26,16,52,024,35,08,44,184,32*7A
2017-05-26T11:25:21 -->> $GPGSV,3,2,10,07,14,304,26,11,01,188,,39,00,264,,193,,,*79
2017-05-26T11:25:21 -->> $GPGSV,3,3,10,03,,,21,26,,,29*77
2017-05-26T11:25:22 -->> $GLGSV,1,1,02,82,46,105,33,73,23,303,25*69
2017-05-26T11:25:22 -->> $GNRMC,032521.000,A,3032.9062,N,10403.6814,E,0.00,0.00,260517,,,A*72
2017-05-26T11:25:22 -->> $GNVTG,0.00,T,,M,0.00,N,0.00,K,A*23
2017-05-26T11:25:22 -->> $GNGGA,032522.000,3032.9038,N,10403.6873,E,1,7,1.28,480.2,M,-31.9,M,,*6E
2017-05-26T11:25:22 -->> $GPGSA,A,3,16,08,27,23,07,,,,,,,,1.58,1.28,0.92*02
2017-05-26T11:25:22 -->> $GLGSA,A,3,73,82,,,,,,,,,,,1.58,1.28,0.92*1C
2017-05-26T11:25:22 -->> $GPGSV,3,1,10,27,66,124,35,23,65,273,26,16,52,024,35,08,44,184,32*7A
2017-05-26T11:25:22 -->> $GPGSV,3,2,10,07,14,304,26,11,01,188,,39,00,264,28,193,,,*73
2017-05-26T11:25:23 -->> $GPGSV,3,3,10,03,,,21,26,,,29*77
2017-05-26T11:25:23 -->> $GLGSV,1,1,02,82,46,105,33,73,23,303,25*69
2017-05-26T11:25:23 -->> $GNRMC,032522.000,A,3032.9038,N,10403.6873,E,0.23,0.00,260517,,,A*7E
2017-05-26T11:25:23 -->> $GNVTG,0.00,T,,M,0.23,N,0.43,K,A*25
2017-05-26T11:25:23 -->> $GNGGA,032523.000,3032.9029,N,10403.6894,E,1,7,1.28,487.5,M,-31.9,M,,*66
2017-05-26T11:25:23 -->> $GPGSA,A,3,16,08,27,23,07,,,,,,,,1.58,1.28,0.92*02
2017-05-26T11:25:23 -->> $GLGSA,A,3,73,82,,,,,,,,,,,1.58,1.28,0.92*1C
2017-05-26T11:25:23 -->> $GPGSV,3,1,10,27,66,124,35,23,65,273,27,16,52,024,35,08,44,184,32*7B
2017-05-26T11:25:23 -->> $GPGSV,3,2,10,07,14,304,26,11,01,188,,39,00,264,28,193,,,*73
2017-05-26T11:25:24 -->> $GPGSV,3,3,10,03,,,22,26,,,29*74
2017-05-26T11:25:24 -->> $GLGSV,1,1,02,82,46,105,33,73,23,303,25*69
2017-05-26T11:25:24 -->> $GNRMC,032523.000,A,3032.9029,N,10403.6894,E,0.00,0.00,260517,,,A*77
2017-05-26T11:25:24 -->> $GNVTG,0.00,T,,M,0.00,N,0.00,K,A*23
2017-05-26T11:25:24 -->> $GNGGA,032524.000,3032.9027,N,10403.6899,E,1,7,1.28,487.5,M,-31.9,M,,*62
2017-05-26T11:25:24 -->> $GPGSA,A,3,16,08,27,23,07,,,,,,,,1.57,1.28,0.92*0D
2017-05-26T11:25:24 -->> $GLGSA,A,3,73,82,,,,,,,,,,,1.57,1.28,0.92*13
2017-05-26T11:25:24 -->> $GPGSV,3,1,10,27,66,124,35,23,65,273,27,16,52,024,35,08,44,184,32*7B
2017-05-26T11:25:24 -->> $GPGSV,3,2,10,07,14,304,26,11,01,188,,39,00,264,28,193,,,*73
2017-05-26T11:25:25 -->> $GPGSV,3,3,10,03,,,23,26,,,28*74
2017-05-26T11:25:25 -->> $GLGSV,1,1,02,82,46,105,33,73,23,303,24*68
2017-05-26T11:25:25 -->> $GNRMC,032524.000,A,3032.9027,N,10403.6899,E,0.00,0.00,260517,,,A*73
2017-05-26T11:25:25 -->> $GNVTG,0.00,T,,M,0.00,N,0.00,K,A*23
2017-05-26T11:25:25 -->> $GNGGA,032525.000,3032.9018,N,10403.6920,E,1,7,1.28,496.5,M,-31.9,M,,*6C
2017-05-26T11:25:25 -->> $GPGSA,A,3,16,08,27,23,07,,,,,,,,1.58,1.28,0.92*02
2017-05-26T11:25:25 -->> $GLGSA,A,3,73,82,,,,,,,,,,,1.58,1.28,0.92*1C
2017-05-26T11:25:25 -->> $GPGSV,3,1,10,27,66,124,35,23,65,273,28,16,52,024,34,08,44,184,32*75
2017-05-26T11:25:25 -->> $GPGSV,3,2,10,07,14,304,26,11,01,188,,39,00,264,28,193,,,*73
2017-05-26T11:25:26 -->> $GPGSV,3,3,10,03,,,24,26,,,27*7C
2017-05-26T11:25:26 -->> $GLGSV,1,1,02,82,46,105,33,73,23,303,24*68
2017-05-26T11:25:26 -->> $GNRMC,032525.000,A,3032.9018,N,10403.6920,E,0.00,0.00,260517,,,A*7D
2017-05-26T11:25:26 -->> $GNVTG,0.00,T,,M,0.00,N,0.00,K,A*23
2017-05-26T11:25:26 -->> $GNGGA,032526.000,3032.9018,N,10403.6920,E,1,7,1.28,496.5,M,-31.9,M,,*6F
2017-05-26T11:25:26 -->> $GPGSA,A,3,16,08,27,23,07,,,,,,,,1.58,1.28,0.92*02
2017-05-26T11:25:26 -->> $GLGSA,A,3,73,82,,,,,,,,,,,1.58,1.28,0.92*1C
2017-05-26T11:25:26 -->> $GPGSV,3,1,10,27,66,124,35,23,65,273,29,16,52,024,34,08,44,184,32*74
2017-05-26T11:25:26 -->> $GPGSV,3,2,10,07,14,304,27,11,01,188,,39,00,264,28,193,,,*72
2017-05-26T11:25:27 -->> $GPGSV,3,3,10,03,,,25,26,,,26*7C
2017-05-26T11:25:27 -->> $GLGSV,1,1,02,82,46,105,33,73,23,303,24*68
2017-05-26T11:25:27 -->> $GNRMC,032526.000,A,3032.9018,N,10403.6920,E,0.00,0.00,260517,,,A*7E
2017-05-26T11:25:27 -->> $GNVTG,0.00,T,,M,0.00,N,0.00,K,A*23
2017-05-26T11:25:27 -->> $GNGGA,032527.000,3032.9018,N,10403.6920,E,1,7,1.28,496.5,M,-31.9,M,,*6E
2017-05-26T11:25:27 -->> $GPGSA,A,3,16,08,27,23,07,,,,,,,,1.57,1.28,0.92*0D
2017-05-26T11:25:27 -->> $GLGSA,A,3,73,82,,,,,,,,,,,1.57,1.28,0.92*13
2017-05-26T11:25:27 -->> $GPGSV,3,1,11,27,66,124,35,23,65,273,29,16,52,024,34,08,44,184,33*74
2017-05-26T11:25:27 -->> $GPGSV,3,2,11,42,37,124,,07,14,304,28,11,01,188,,193,,,*79
2017-05-26T11:25:27 -->> $GPGSV,3,3,11,03,,,27,26,,,24,09,,,29*7F
2017-05-26T11:25:28 -->> $GLGSV,1,1,02,82,46,105,33,73,23,303,23*6F
2017-05-26T11:25:28 -->> $GNRMC,032527.000,A,3032.9018,N,10403.6920,E,0.00,0.00,260517,,,A*7F
2017-05-26T11:25:28 -->> $GNVTG,0.00,T,,M,0.00,N,0.00,K,A*23
2017-05-26T11:25:28 -->> $GNGGA,032528.000,3032.9018,N,10403.6920,E,1,7,1.28,496.5,M,-31.9,M,,*61
2017-05-26T11:25:28 -->> $GPGSA,A,3,16,08,27,23,07,,,,,,,,1.58,1.28,0.92*02
2017-05-26T11:25:28 -->> $GLGSA,A,3,73,82,,,,,,,,,,,1.58,1.28,0.92*1C
2017-05-26T11:25:28 -->> $GPGSV,3,1,11,27,66,124,35,23,65,273,29,16,52,024,34,08,44,184,33*74
2017-05-26T11:25:28 -->> $GPGSV,3,2,11,42,37,124,,07,14,304,29,11,01,188,,193,,,*78
2017-05-26T11:25:28 -->> $GPGSV,3,3,11,03,,,26,26,,,17,09,,,30*76
2017-05-26T11:25:29 -->> $GLGSV,1,1,02,82,46,105,33,73,23,303,22*6E
2017-05-26T11:25:29 -->> $GNRMC,032528.000,A,3032.9018,N,10403.6920,E,0.00,0.00,260517,,,A*70
2017-05-26T11:25:29 -->> $GNVTG,0.00,T,,M,0.00,N,0.00,K,A*23
2017-05-26T11:25:29 -->> $GNGGA,032529.000,3032.9018,N,10403.6920,E,1,7,1.28,496.5,M,-31.9,M,,*60
2017-05-26T11:25:29 -->> $GPGSA,A,3,16,08,27,23,07,,,,,,,,1.58,1.28,0.92*02
2017-05-26T11:25:29 -->> $GLGSA,A,3,73,82,,,,,,,,,,,1.58,1.28,0.92*1C
2017-05-26T11:25:29 -->> $GPGSV,3,1,11,27,66,124,35,23,65,273,29,16,52,024,34,08,44,184,34*73
2017-05-26T11:25:29 -->> $GPGSV,3,2,11,42,37,124,,07,14,304,30,11,01,188,,193,,,*70
2017-05-26T11:25:29 -->> $GPGSV,3,3,11,03,,,26,26,,,16,09,,,31*76
2017-05-26T11:25:30 -->> $GLGSV,1,1,02,82,46,105,33,73,23,303,21*6D
2017-05-26T11:25:30 -->> $GNRMC,032529.000,A,3032.9018,N,10403.6920,E,0.00,0.00,260517,,,A*71
2017-05-26T11:25:30 -->> $GNVTG,0.00,T,,M,0.00,N,0.00,K,A*23
2017-05-26T11:25:30 -->> $GNGGA,032530.000,3032.9018,N,10403.6920,E,1,7,1.28,496.5,M,-31.9,M,,*68
2017-05-26T11:25:30 -->> $GPGSA,A,3,16,08,27,23,07,,,,,,,,1.58,1.28,0.92*02
2017-05-26T11:25:30 -->> $GLGSA,A,3,73,82,,,,,,,,,,,1.58,1.28,0.92*1C
2017-05-26T11:25:30 -->> $GPGSV,3,1,12,27,66,124,35,23,65,273,29,16,52,024,34,08,44,184,34*70
2017-05-26T11:25:30 -->> $GPGSV,3,2,12,42,37,124,,07,14,304,30,11,01,188,,193,,,*73
2017-05-26T11:25:31 -->> $GPGSV,3,3,12,03,,,26,26,,,15,09,,,30,31,,,27*70
2017-05-26T11:25:31 -->> $GLGSV,1,1,02,82,46,105,33,73,23,303,21*6D
2017-05-26T11:25:31 -->> $GNRMC,032530.000,A,3032.9018,N,10403.6920,E,0.00,0.00,260517,,,A*79
2017-05-26T11:25:31 -->> $GNVTG,0.00,T,,M,0.00,N,0.00,K,A*23
2017-05-26T11:25:31 -->> $GNGGA,032531.000,3032.9018,N,10403.6920,E,1,7,1.28,496.5,M,-31.9,M,,*69
2017-05-26T11:25:31 -->> $GPGSA,A,3,16,08,27,23,07,,,,,,,,1.58,1.28,0.92*02
2017-05-26T11:25:31 -->> $GLGSA,A,3,73,82,,,,,,,,,,,1.58,1.28,0.92*1C
2017-05-26T11:25:31 -->> $GPGSV,3,1,12,27,66,124,35,23,65,273,29,16,52,024,34,08,44,184,34*70
2017-05-26T11:25:31 -->> $GPGSV,3,2,12,42,37,124,,07,14,304,30,11,01,188,,193,,,*73
2017-05-26T11:25:32 -->> $GPGSV,3,3,12,03,,,26,26,,,16,09,,,31,31,,,29*7C
2017-05-26T11:25:32 -->> $GLGSV,1,1,02,82,46,105,33,73,23,303,22*6E
2017-05-26T11:25:32 -->> $GNRMC,032531.000,A,3032.9018,N,10403.6920,E,0.00,0.00,260517,,,A*78
2017-05-26T11:25:32 -->> $GNVTG,0.00,T,,M,0.00,N,0.00,K,A*23
2017-05-26T11:25:32 -->> $GNGGA,032532.000,3032.9018,N,10403.6920,E,1,7,1.28,496.5,M,-31.9,M,,*6A
2017-05-26T11:25:32 -->> $GPGSA,A,3,16,08,27,23,07,,,,,,,,1.58,1.28,0.92*02
2017-05-26T11:25:32 -->> $GLGSA,A,3,73,82,,,,,,,,,,,1.58,1.28,0.92*1C
2017-05-26T11:25:32 -->> $GPGSV,3,1,12,27,66,124,35,23,65,273,29,16,52,024,34,08,44,184,34*70
2017-05-26T11:25:32 -->> $GPGSV,3,2,12,42,37,124,,07,14,304,30,11,01,188,,193,,,*73
2017-05-26T11:25:33 -->> $GPGSV,3,3,12,03,,,26,26,,,17,09,,,31,31,,,27*73
2017-05-26T11:25:33 -->> $GLGSV,1,1,02,82,46,105,33,73,23,303,23*6F
2017-05-26T11:25:33 -->> $GNRMC,032532.000,A,3032.9018,N,10403.6920,E,0.00,0.00,260517,,,A*7B
2017-05-26T11:25:33 -->> $GNVTG,0.00,T,,M,0.00,N,0.00,K,A*23
2017-05-26T11:25:33 -->> $GNGGA,032533.000,3032.9018,N,10403.6920,E,1,7,1.28,496.5,M,-31.9,M,,*6B
2017-05-26T11:25:33 -->> $GPGSA,A,3,16,08,27,23,07,,,,,,,,1.57,1.28,0.92*0D
2017-05-26T11:25:33 -->> $GLGSA,A,3,73,82,,,,,,,,,,,1.57,1.28,0.92*13
2017-05-26T11:25:33 -->> $GPGSV,3,1,12,27,66,124,35,23,65,273,29,16,52,024,34,08,44,184,34*70
2017-05-26T11:25:33 -->> $GPGSV,3,2,12,42,37,124,,07,14,304,29,11,01,188,,193,,,*7B
2017-05-26T11:25:34 -->> $GPGSV,3,3,12,03,,,27,26,,,19,09,,,32,31,,,27*7F
2017-05-26T11:25:34 -->> $GLGSV,1,1,02,82,46,105,33,73,23,303,23*6F
2017-05-26T11:25:34 -->> $GNRMC,032533.000,A,3032.9018,N,10403.6920,E,0.00,0.00,260517,,,A*7A
2017-05-26T11:25:34 -->> $GNVTG,0.00,T,,M,0.00,N,0.00,K,A*23
2017-05-26T11:25:34 -->> $GNGGA,032534.000,3032.9018,N,10403.6920,E,1,7,1.28,496.5,M,-31.9,M,,*6C
2017-05-26T11:25:34 -->> $GPGSA,A,3,16,08,27,23,07,,,,,,,,1.58,1.28,0.92*02
2017-05-26T11:25:34 -->> $GLGSA,A,3,73,82,,,,,,,,,,,1.58,1.28,0.92*1C
2017-05-26T11:25:34 -->> $GPGSV,3,1,12,27,66,124,35,23,65,273,29,16,52,024,34,08,44,184,33*77
2017-05-26T11:25:34 -->> $GPGSV,3,2,12,42,37,124,,07,14,304,24,11,01,188,,193,,,*76
2017-05-26T11:25:35 -->> $GPGSV,3,3,12,03,,,28,26,,,20,09,,,32,31,,,26*7B
2017-05-26T11:25:35 -->> $GLGSV,1,1,02,82,46,105,33,73,23,303,24*68
2017-05-26T11:25:35 -->> $GNRMC,032534.000,A,3032.9018,N,10403.6920,E,0.00,0.00,260517,,,A*7D
2017-05-26T11:25:35 -->> $GNVTG,0.00,T,,M,0.00,N,0.00,K,A*23
2017-05-26T11:25:35 -->> $GNGGA,032535.000,3032.9018,N,10403.6920,E,1,7,1.28,496.5,M,-31.9,M,,*6D
2017-05-26T11:25:35 -->> $GPGSA,A,3,16,08,27,23,07,,,,,,,,1.57,1.28,0.92*0D
2017-05-26T11:25:35 -->> $GLGSA,A,3,73,82,,,,,,,,,,,1.57,1.28,0.92*13
2017-05-26T11:25:35 -->> $GPGSV,3,1,12,27,66,124,35,23,65,273,29,16,52,024,34,08,44,184,33*77
2017-05-26T11:25:35 -->> $GPGSV,3,2,12,42,37,124,,07,14,304,21,11,01,188,,193,,,*73
2017-05-26T11:25:36 -->> $GPGSV,3,3,12,03,,,29,26,,,21,09,,,33,31,,,25*79
2017-05-26T11:25:36 -->> $GLGSV,1,1,02,82,46,105,33,73,23,303,24*68
2017-05-26T11:25:36 -->> $GNRMC,032535.000,A,3032.9018,N,10403.6920,E,0.00,0.00,260517,,,A*7C
2017-05-26T11:25:36 -->> $GNVTG,0.00,T,,M,0.00,N,0.00,K,A*23
2017-05-26T11:25:36 -->> $GNGGA,032536.000,3032.9018,N,10403.6920,E,1,7,1.28,496.5,M,-31.9,M,,*6E
2017-05-26T11:25:36 -->> $GPGSA,A,3,16,08,27,23,07,,,,,,,,1.58,1.28,0.92*02
2017-05-26T11:25:36 -->> $GLGSA,A,3,73,82,,,,,,,,,,,1.58,1.28,0.92*1C
2017-05-26T11:25:36 -->> $GPGSV,3,1,12,27,66,124,35,23,65,273,30,16,52,024,34,08,44,184,32*7E
2017-05-26T11:25:36 -->> $GPGSV,3,2,12,44,35,237,,07,14,304,20,11,01,188,,193,,,*77
2017-05-26T11:25:37 -->> $GPGSV,3,3,12,03,,,29,26,,,22,09,,,33,31,,,26*79
2017-05-26T11:25:37 -->> $GLGSV,1,1,02,82,46,105,33,73,23,303,24*68
2017-05-26T11:25:37 -->> $GNRMC,032536.000,A,3032.9018,N,10403.6920,E,0.00,0.00,260517,,,A*7F
2017-05-26T11:25:37 -->> $GNVTG,0.00,T,,M,0.00,N,0.00,K,A*23
2017-05-26T11:25:37 -->> $GNGGA,032537.000,3032.9018,N,10403.6920,E,1,7,1.28,496.5,M,-31.9,M,,*6F
2017-05-26T11:25:37 -->> $GPGSA,A,3,16,08,27,23,07,,,,,,,,1.57,1.28,0.92*0D
2017-05-26T11:25:37 -->> $GLGSA,A,3,73,82,,,,,,,,,,,1.57,1.28,0.92*13
2017-05-26T11:25:37 -->> $GPGSV,3,1,12,27,66,124,35,23,65,273,30,16,52,024,34,08,44,184,31*7D
2017-05-26T11:25:37 -->> $GPGSV,3,2,12,44,35,237,,07,14,304,21,11,01,188,,193,,,*76
2017-05-26T11:25:38 -->> $GPGSV,3,3,12,03,,,29,26,,,23,09,,,32,31,,,27*78
2017-05-26T11:25:38 -->> $GLGSV,1,1,02,82,46,105,33,73,23,303,24*68
2017-05-26T11:25:38 -->> $GNRMC,032537.000,A,3032.9018,N,10403.6920,E,0.00,0.00,260517,,,A*7E
2017-05-26T11:25:38 -->> $GNVTG,0.00,T,,M,0.00,N,0.00,K,A*23
2017-05-26T11:25:38 -->> $GNGGA,032538.000,3032.9018,N,10403.6920,E,1,7,1.28,496.5,M,-31.9,M,,*60
2017-05-26T11:25:38 -->> $GPGSA,A,3,16,08,27,23,07,,,,,,,,1.58,1.28,0.92*02
2017-05-26T11:25:38 -->> $GLGSA,A,3,73,82,,,,,,,,,,,1.58,1.28,0.92*1C
2017-05-26T11:25:38 -->> $GPGSV,3,1,12,27,66,124,35,23,65,273,30,16,52,024,34,08,44,184,31*7D
2017-05-26T11:25:38 -->> $GPGSV,3,2,12,44,35,237,,07,14,304,24,11,01,188,,193,,,*73
2017-05-26T11:25:39 -->> $GPGSV,3,3,12,03,,,29,26,,,23,09,,,32,31,,,28*77
2017-05-26T11:25:39 -->> $GLGSV,1,1,02,82,46,105,33,73,23,303,24*68
2017-05-26T11:25:39 -->> $GNRMC,032538.000,A,3032.9018,N,10403.6920,E,0.00,0.00,260517,,,A*71
2017-05-26T11:25:39 -->> $GNVTG,0.00,T,,M,0.00,N,0.00,K,A*23
2017-05-26T11:25:39 -->> $GNGGA,032539.000,3032.9018,N,10403.6920,E,1,7,1.28,496.5,M,-31.9,M,,*61
2017-05-26T11:25:39 -->> $GPGSA,A,3,16,08,27,23,07,,,,,,,,1.58,1.28,0.92*02
2017-05-26T11:25:39 -->> $GLGSA,A,3,73,82,,,,,,,,,,,1.58,1.28,0.92*1C
2017-05-26T11:25:39 -->> $GPGSV,3,1,12,27,66,124,35,23,65,273,30,16,52,024,34,08,44,184,31*7D
2017-05-26T11:25:39 -->> $GPGSV,3,2,12,44,35,237,,07,14,304,26,11,01,188,,193,,,*71
2017-05-26T11:25:40 -->> $GPGSV,3,3,12,03,,,29,26,,,23,09,,,32,31,,,28*77
2017-05-26T11:25:40 -->> $GLGSV,1,1,02,82,46,105,33,73,23,303,24*68
2017-05-26T11:25:40 -->> $GNRMC,032539.000,A,3032.9018,N,10403.6920,E,0.00,0.00,260517,,,A*70
2017-05-26T11:25:40 -->> $GNVTG,0.00,T,,M,0.00,N,0.00,K,A*23
2017-05-26T11:25:40 -->> $GNGGA,032540.000,3032.8994,N,10403.6979,E,1,7,1.28,508.8,M,-31.9,M,,*64
2017-05-26T11:25:40 -->> $GPGSA,A,3,16,08,27,23,07,,,,,,,,1.58,1.28,0.92*02
2017-05-26T11:25:40 -->> $GLGSA,A,3,73,82,,,,,,,,,,,1.58,1.28,0.92*1C
2017-05-26T11:25:40 -->> $GPGSV,3,1,12,27,66,124,35,23,65,273,30,16,52,024,34,08,44,184,31*7D
2017-05-26T11:25:40 -->> $GPGSV,3,2,12,44,35,237,,07,14,304,29,11,01,188,,193,,,*7E
2017-05-26T11:25:41 -->> $GPGSV,3,3,12,03,,,28,26,,,23,09,,,32,31,,,29*77
2017-05-26T11:25:41 -->> $GLGSV,1,1,02,82,46,105,33,73,23,303,24*68
2017-05-26T11:25:41 -->> $GNRMC,032540.000,A,3032.8994,N,10403.6979,E,0.14,0.00,260517,,,A*7B
2017-05-26T11:25:41 -->> $GNVTG,0.00,T,,M,0.14,N,0.25,K,A*21
2017-05-26T11:25:41 -->> $GNGGA,032541.000,3032.8992,N,10403.6977,E,1,7,1.28,509.2,M,-31.9,M,,*66
2017-05-26T11:25:41 -->> $GPGSA,A,3,16,08,27,23,07,,,,,,,,1.58,1.28,0.92*02
2017-05-26T11:25:41 -->> $GLGSA,A,3,73,82,,,,,,,,,,,1.58,1.28,0.92*1C
2017-05-26T11:25:41 -->> $GPGSV,3,1,12,27,66,124,35,23,65,273,30,16,52,024,34,08,44,184,32*7E
2017-05-26T11:25:41 -->> $GPGSV,3,2,12,44,35,237,,07,14,304,30,11,01,188,,193,,,*76
2017-05-26T11:25:42 -->> $GPGSV,3,3,12,03,,,28,26,,,23,09,,,32,31,,,29*77
2017-05-26T11:25:42 -->> $GLGSV,1,1,02,82,46,105,33,73,23,303,23*6F
2017-05-26T11:25:42 -->> $GNRMC,032541.000,A,3032.8992,N,10403.6977,E,0.00,0.00,260517,,,A*77
2017-05-26T11:25:42 -->> $GNVTG,0.00,T,,M,0.00,N,0.00,K,A*23
2017-05-26T11:25:42 -->> $GNGGA,032542.000,3032.8992,N,10403.6975,E,1,7,1.28,509.7,M,-31.9,M,,*62
2017-05-26T11:25:42 -->> $GPGSA,A,3,16,08,27,23,07,,,,,,,,1.58,1.28,0.92*02
2017-05-26T11:25:42 -->> $GLGSA,A,3,73,82,,,,,,,,,,,1.58,1.28,0.92*1C
