2017-05-26T11:34:29
2017-05-26T11:35:02 -->> ============================
2017-05-26T11:35:04 -->> $PMTK011,MTKGPS*08
2017-05-26T11:35:04 -->> $PMTK010,001*2E
2017-05-26T11:35:04 -->> $PMTK011,MTKGPS*08
2017-05-26T11:35:04 -->> $PMTK010,002*2D
2017-05-26T11:35:05 -->> $GNGGA,235942.800,,,,,0,0,,,M,,M,,*55
2017-05-26T11:35:05 -->> $GPGSA,A,1,,,,,,,,,,,,,,,*1E
2017-05-26T11:35:05 -->> $GLGSA,A,1,,,,,,,,,,,,,,,*02
2017-05-26T11:35:05 -->> $GPGSV,1,1,00*79
2017-05-26T11:35:05 -->> $GLGSV,1,1,00*65
2017-05-26T11:35:05 -->> $GNRMC,235942.800,V,,,,,0.00,0.00,050180,,,N*5C
2017-05-26T11:35:05 -->> $GNVTG,0.00,T,,M,0.00,N,0.00,K,N*2C
2017-05-26T11:35:06 -->> $GNGGA,235943.800,,,,,0,0,,,M,,M,,*54
2017-05-26T11:35:06 -->> $GPGSA,A,1,,,,,,,,,,,,,,,*1E
2017-05-26T11:35:06 -->> $GLGSA,A,1,,,,,,,,,,,,,,,*02
2017-05-26T11:35:06 -->> $GPGSV,1,1,00*79
2017-05-26T11:35:06 -->> $GLGSV,1,1,00*65
2017-05-26T11:35:06 -->> $GNRMC,235943.800,V,,,,,0.00,0.00,050180,,,N*5D
2017-05-26T11:35:06 -->> $GNVTG,0.00,T,,M,0.00,N,0.00,K,N*2C
2017-05-26T11:35:07 -->> $GNGGA,235944.799,,,,,0,0,,,M,,M,,*5C
2017-05-26T11:35:07 -->> $GPGSA,A,1,,,,,,,,,,,,,,,*1E
2017-05-26T11:35:07 -->> $GLGSA,A,1,,,,,,,,,,,,,,,*02
2017-05-26T11:35:07 -->> $GPGSV,1,1,00*79
2017-05-26T11:35:07 -->> $GLGSV,1,1,00*65
2017-05-26T11:35:07 -->> $GNRMC,235944.799,V,,,,,0.00,0.00,050180,,,N*55
2017-05-26T11:35:07 -->> $GNVTG,0.00,T,,M,0.00,N,0.00,K,N*2C
2017-05-26T11:35:08 -->> $GNGGA,235945.799,,,,,0,0,,,M,,M,,*5D
2017-05-26T11:35:08 -->> $GPGSA,A,1,,,,,,,,,,,,,,,*1E
2017-05-26T11:35:08 -->> $GLGSA,A,1,,,,,,,,,,,,,,,*02
2017-05-26T11:35:08 -->> $GPGSV,1,1,00*79
2017-05-26T11:35:08 -->> $GLGSV,1,1,00*65
2017-05-26T11:35:08 -->> $GNRMC,235945.799,V,,,,,0.00,0.00,050180,,,N*54
2017-05-26T11:35:08 -->> $GNVTG,0.00,T,,M,0.00,N,0.00,K,N*2C
2017-05-26T11:35:09 -->> $GNGGA,235946.799,,,,,0,0,,,M,,M,,*5E
2017-05-26T11:35:09 -->> $GPGSA,A,1,,,,,,,,,,,,,,,*1E
2017-05-26T11:35:09 -->> $GLGSA,A,1,,,,,,,,,,,,,,,*02
2017-05-26T11:35:09 -->> $GPGSV,1,1,00*79
2017-05-26T11:35:09 -->> $GLGSV,1,1,00*65
2017-05-26T11:35:09 -->> $GNRMC,235946.799,V,,,,,0.00,0.00,050180,,,N*57
2017-05-26T11:35:09 -->> $GNVTG,0.00,T,,M,0.00,N,0.00,K,N*2C
2017-05-26T11:35:10 -->> $GNGGA,235947.799,,,,,0,0,,,M,,M,,*5F
2017-05-26T11:35:10 -->> $GPGSA,A,1,,,,,,,,,,,,,,,*1E
2017-05-26T11:35:10 -->> $GLGSA,A,1,,,,,,,,,,,,,,,*02
2017-05-26T11:35:10 -->> $GPGSV,1,1,00*79
2017-05-26T11:35:10 -->> $GLGSV,1,1,00*65
2017-05-26T11:35:10 -->> $GNRMC,235947.799,V,,,,,0.00,0.00,050180,,,N*56
2017-05-26T11:35:10 -->> $GNVTG,0.00,T,,M,0.00,N,0.00,K,N*2C
2017-05-26T11:35:11 -->> $GNGGA,235948.799,,,,,0,0,,,M,,M,,*50
2017-05-26T11:35:11 -->> $GPGSA,A,1,,,,,,,,,,,,,,,*1E
2017-05-26T11:35:11 -->> $GLGSA,A,1,,,,,,,,,,,,,,,*02
2017-05-26T11:35:11 -->> $GPGSV,1,1,00*79
2017-05-26T11:35:11 -->> $GLGSV,1,1,00*65
2017-05-26T11:35:11 -->> $GNRMC,235948.799,V,,,,,0.00,0.00,050180,,,N*59
2017-05-26T11:35:11 -->> $GNVTG,0.00,T,,M,0.00,N,0.00,K,N*2C
2017-05-26T11:35:12 -->> $GNGGA,235949.799,,,,,0,0,,,M,,M,,*51
2017-05-26T11:35:12 -->> $GPGSA,A,1,,,,,,,,,,,,,,,*1E
2017-05-26T11:35:12 -->> $GLGSA,A,1,,,,,,,,,,,,,,,*02
2017-05-26T11:35:12 -->> $GPGSV,1,1,00*79
2017-05-26T11:35:12 -->> $GLGSV,1,1,00*65
2017-05-26T11:35:12 -->> $GNRMC,235949.799,V,,,,,0.00,0.00,050180,,,N*58
2017-05-26T11:35:12 -->> $GNVTG,0.00,T,,M,0.00,N,0.00,K,N*2C
2017-05-26T11:35:13 -->> $GNGGA,235950.800,,,,,0,0,,,M,,M,,*56
2017-05-26T11:35:13 -->> $GPGSA,A,1,,,,,,,,,,,,,,,*1E
2017-05-26T11:35:13 -->> $GLGSA,A,1,,,,,,,,,,,,,,,*02
2017-05-26T11:35:13 -->> $GPGSV,1,1,01,16,,,26*7B
2017-05-26T11:35:13 -->> $GLGSV,1,1,00*65
2017-05-26T11:35:13 -->> $GNRMC,235950.800,V,,,,,0.00,0.00,050180,,,N*5F
2017-05-26T11:35:13 -->> $GNVTG,0.00,T,,M,0.00,N,0.00,K,N*2C
2017-05-26T11:35:14 -->> $GNGGA,235951.800,,,,,0,0,,,M,,M,,*57
2017-05-26T11:35:14 -->> $GPGSA,A,1,,,,,,,,,,,,,,,*1E
2017-05-26T11:35:14 -->> $GLGSA,A,1,,,,,,,,,,,,,,,*02
2017-05-26T11:35:14 -->> $GPGSV,1,1,01,16,,,28*75
2017-05-26T11:35:14 -->> $GLGSV,1,1,00*65
2017-05-26T11:35:14 -->> $GNRMC,235951.800,V,,,,,0.00,0.00,050180,,,N*5E
2017-05-26T11:35:14 -->> $GNVTG,0.00,T,,M,0.00,N,0.00,K,N*2C
2017-05-26T11:35:15 -->> $GNGGA,235952.800,,,,,0,0,,,M,,M,,*54
2017-05-26T11:35:15 -->> $GPGSA,A,1,,,,,,,,,,,,,,,*1E
2017-05-26T11:35:15 -->> $GLGSA,A,1,,,,,,,,,,,,,,,*02
2017-05-26T11:35:15 -->> $GPGSV,1,1,01,16,,,28*75
2017-05-26T11:35:15 -->> $GLGSV,1,1,00*65
2017-05-26T11:35:15 -->> $GNRMC,235952.800,V,,,,,0.00,0.00,050180,,,N*5D
2017-05-26T11:35:15 -->> $GNVTG,0.00,T,,M,0.00,N,0.00,K,N*2C
2017-05-26T11:35:16 -->> $GNGGA,235953.800,,,,,0,0,,,M,,M,,*55
2017-05-26T11:35:16 -->> $GPGSA,A,1,,,,,,,,,,,,,,,*1E
2017-05-26T11:35:16 -->> $GLGSA,A,1,,,,,,,,,,,,,,,*02
2017-05-26T11:35:16 -->> $GPGSV,1,1,01,16,,,28*75
2017-05-26T11:35:16 -->> $GLGSV,1,1,00*65
2017-05-26T11:35:16 -->> $GNRMC,235953.800,V,,,,,0.00,0.00,050180,,,N*5C
2017-05-26T11:35:16 -->> $GNVTG,0.00,T,,M,0.00,N,0.00,K,N*2C
2017-05-26T11:35:17 -->> $GNGGA,235954.800,,,,,0,0,,,M,,M,,*52
2017-05-26T11:35:17 -->> $GPGSA,A,1,,,,,,,,,,,,,,,*1E
2017-05-26T11:35:17 -->> $GLGSA,A,1,,,,,,,,,,,,,,,*02
2017-05-26T11:35:17 -->> $GPGSV,1,1,02,16,,,28,08,,,25*79
2017-05-26T11:35:17 -->> $GLGSV,1,1,00*65
2017-05-26T11:35:17 -->> $GNRMC,235954.800,V,,,,,0.00,0.00,050180,,,N*5B
2017-05-26T11:35:17 -->> $GNVTG,0.00,T,,M,0.00,N,0.00,K,N*2C
2017-05-26T11:35:18 -->> $GNGGA,235955.800,,,,,0,0,,,M,,M,,*53
2017-05-26T11:35:18 -->> $GPGSA,A,1,,,,,,,,,,,,,,,*1E
2017-05-26T11:35:18 -->> $GLGSA,A,1,,,,,,,,,,,,,,,*02
2017-05-26T11:35:18 -->> $GPGSV,1,1,03,16,,,28,08,,,27,27,,,29*74
2017-05-26T11:35:18 -->> $GLGSV,1,1,00*65
2017-05-26T11:35:18 -->> $GNRMC,235955.800,V,,,,,0.00,0.00,050180,,,N*5A
2017-05-26T11:35:18 -->> $GNVTG,0.00,T,,M,0.00,N,0.00,K,N*2C
2017-05-26T11:35:19 -->> $GNGGA,235956.800,,,,,0,0,,,M,,M,,*50
2017-05-26T11:35:19 -->> $GPGSA,A,1,,,,,,,,,,,,,,,*1E
2017-05-26T11:35:19 -->> $GLGSA,A,1,,,,,,,,,,,,,,,*02
2017-05-26T11:35:19 -->> $GPGSV,1,1,03,16,,,28,08,,,28,27,,,31*72
2017-05-26T11:35:19 -->> $GLGSV,1,1,00*65
2017-05-26T11:35:19 -->> $GNRMC,235956.800,V,,,,,0.00,0.00,050180,,,N*59
2017-05-26T11:35:19 -->> $GNVTG,0.00,T,,M,0.00,N,0.00,K,N*2C
2017-05-26T11:35:20 -->> $GNGGA,235957.800,,,,,0,0,,,M,,M,,*51
2017-05-26T11:35:20 -->> $GPGSA,A,1,,,,,,,,,,,,,,,*1E
2017-05-26T11:35:20 -->> $GLGSA,A,1,,,,,,,,,,,,,,,*02
2017-05-26T11:35:20 -->> $GPGSV,1,1,03,16,,,28,08,,,29,27,,,32*70
2017-05-26T11:35:20 -->> $GLGSV,1,1,00*65
2017-05-26T11:35:20 -->> $GNRMC,235957.800,V,,,,,0.00,0.00,050180,,,N*58
2017-05-26T11:35:20 -->> $GNVTG,0.00,T,,M,0.00,N,0.00,K,N*2C
2017-05-26T11:35:21 -->> $GNGGA,235958.800,,,,,0,0,,,M,,M,,*5E
2017-05-26T11:35:21 -->> $GPGSA,A,1,,,,,,,,,,,,,,,*1E
2017-05-26T11:35:21 -->> $GLGSA,A,1,,,,,,,,,,,,,,,*02
2017-05-26T11:35:21 -->> $GPGSV,1,1,03,16,,,28,08,,,30,27,,,30*7A
2017-05-26T11:35:21 -->> $GLGSV,1,1,00*65
2017-05-26T11:35:21 -->> $GNRMC,235958.800,V,,,,,0.00,0.00,050180,,,N*57
2017-05-26T11:35:21 -->> $GNVTG,0.00,T,,M,0.00,N,0.00,K,N*2C
2017-05-26T11:35:22 -->> $GNGGA,235959.800,,,,,0,0,,,M,,M,,*5F
2017-05-26T11:35:22 -->> $GPGSA,A,1,,,,,,,,,,,,,,,*1E
2017-05-26T11:35:22 -->> $GLGSA,A,1,,,,,,,,,,,,,,,*02
2017-05-26T11:35:22 -->> $GPGSV,1,1,03,16,,,28,08,,,30,27,,,31*7B
2017-05-26T11:35:22 -->> $GLGSV,1,1,00*65
2017-05-26T11:35:22 -->> $GNRMC,235959.800,V,,,,,0.00,0.00,050180,,,N*56
2017-05-26T11:35:22 -->> $GNVTG,0.00,T,,M,0.00,N,0.00,K,N*2C
2017-05-26T11:35:23 -->> $GNGGA,000000.800,,,,,0,0,,,M,,M,,*5E
2017-05-26T11:35:23 -->> $GPGSA,A,1,,,,,,,,,,,,,,,*1E
2017-05-26T11:35:23 -->> $GLGSA,A,1,,,,,,,,,,,,,,,*02
2017-05-26T11:35:23 -->> $GPGSV,1,1,03,16,,,28,08,,,30,27,,,32*78
2017-05-26T11:35:23 -->> $GLGSV,1,1,00*65
2017-05-26T11:35:23 -->> $GNRMC,000000.800,V,,,,,0.00,0.00,060180,,,N*54
2017-05-26T11:35:23 -->> $GNVTG,0.00,T,,M,0.00,N,0.00,K,N*2C
2017-05-26T11:35:24 -->> $GNGGA,000001.800,,,,,0,0,,,M,,M,,*5F
2017-05-26T11:35:24 -->> $GPGSA,A,1,,,,,,,,,,,,,,,*1E
2017-05-26T11:35:24 -->> $GLGSA,A,1,,,,,,,,,,,,,,,*02
2017-05-26T11:35:24 -->> $GPGSV,1,1,03,16,,,28,08,,,30,27,,,32*78
2017-05-26T11:35:24 -->> $GLGSV,1,1,00*65
2017-05-26T11:35:24 -->> $GNRMC,000001.800,V,,,,,0.00,0.00,060180,,,N*55
2017-05-26T11:35:24 -->> $GNVTG,0.00,T,,M,0.00,N,0.00,K,N*2C
2017-05-26T11:35:24 -->> $GNGGA,000002.190,,,,,0,0,,,M,,M,,*5C
2017-05-26T11:35:24 -->> $GPGSA,A,1,,,,,,,,,,,,,,,*1E
2017-05-26T11:35:24 -->> $GLGSA,A,1,,,,,,,,,,,,,,,*02
2017-05-26T11:35:24 -->> $GPGSV,1,1,03,16,,,28,08,,,30,27,,,32*78
2017-05-26T11:35:24 -->> $GLGSV,1,1,00*65
2017-05-26T11:35:24 -->> $GNRMC,000002.190,V,,,,,0.00,0.00,060180,,,N*56
2017-05-26T11:35:24 -->> $GNVTG,0.00,T,,M,0.00,N,0.00,K,N*2C
2017-05-26T11:35:25 -->> $GNGGA,000003.190,,,,,0,0,,,M,,M,,*5D
2017-05-26T11:35:25 -->> $GPGSA,A,1,,,,,,,,,,,,,,,*1E
2017-05-26T11:35:25 -->> $GLGSA,A,1,,,,,,,,,,,,,,,*02
2017-05-26T11:35:25 -->> $GPGSV,1,1,03,16,,,28,08,,,30,27,,,31*7B
2017-05-26T11:35:25 -->> $GLGSV,1,1,00*65
2017-05-26T11:35:25 -->> $GNRMC,000003.190,V,,,,,0.00,0.00,060180,,,N*57
2017-05-26T11:35:25 -->> $GNVTG,0.00,T,,M,0.00,N,0.00,K,N*2C
2017-05-26T11:35:26 -->> $GNGGA,033526.101,,,,,0,0,,,M,,M,,*57
2017-05-26T11:35:26 -->> $GPGSA,A,1,,,,,,,,,,,,,,,*1E
2017-05-26T11:35:26 -->> $GLGSA,A,1,,,,,,,,,,,,,,,*02
2017-05-26T11:35:26 -->> $GPGSV,1,1,03,16,,,29,08,,,30,27,,,31*7A
2017-05-26T11:35:26 -->> $GLGSV,1,1,00*65
2017-05-26T11:35:26 -->> $GNRMC,033526.101,V,,,,,0.00,0.00,110180,,,N*5B
2017-05-26T11:35:26 -->> $GNVTG,0.00,T,,M,0.00,N,0.00,K,N*2C
2017-05-26T11:35:27 -->> $GNGGA,033527.101,,,,,0,0,,,M,,M,,*56
2017-05-26T11:35:27 -->> $GPGSA,A,1,,,,,,,,,,,,,,,*1E
2017-05-26T11:35:27 -->> $GLGSA,A,1,,,,,,,,,,,,,,,*02
2017-05-26T11:35:27 -->> $GPGSV,1,1,03,16,,,29,08,,,30,27,,,31*7A
2017-05-26T11:35:27 -->> $GLGSV,1,1,00*65
2017-05-26T11:35:27 -->> $GNRMC,033527.101,V,,,,,0.00,0.00,110180,,,N*5A
2017-05-26T11:35:27 -->> $GNVTG,0.00,T,,M,0.00,N,0.00,K,N*2C
2017-05-26T11:35:28 -->> $GNGGA,033528.101,,,,,0,0,,,M,,M,,*59
2017-05-26T11:35:28 -->> $GPGSA,A,1,,,,,,,,,,,,,,,*1E
2017-05-26T11:35:28 -->> $GLGSA,A,1,,,,,,,,,,,,,,,*02
2017-05-26T11:35:28 -->> $GPGSV,1,1,03,16,,,29,08,,,29,27,,,32*71
2017-05-26T11:35:28 -->> $GLGSV,1,1,00*65
2017-05-26T11:35:28 -->> $GNRMC,033528.101,V,,,,,0.00,0.00,110180,,,N*55
2017-05-26T11:35:28 -->> $GNVTG,0.00,T,,M,0.00,N,0.00,K,N*2C
2017-05-26T11:35:29 -->> $GNGGA,033529.101,,,,,0,0,,,M,,M,,*58
2017-05-26T11:35:29 -->> $GPGSA,A,1,,,,,,,,,,,,,,,*1E
2017-05-26T11:35:29 -->> $GLGSA,A,1,,,,,,,,,,,,,,,*02
2017-05-26T11:35:29 -->> $GPGSV,1,1,04,16,,,29,08,,,28,27,,,32,07,,,29*7B
2017-05-26T11:35:29 -->> $GLGSV,1,1,00*65
2017-05-26T11:35:29 -->> $GNRMC,033529.101,V,,,,,0.00,0.00,110180,,,N*54
2017-05-26T11:35:29 -->> $GNVTG,0.00,T,,M,0.00,N,0.00,K,N*2C
2017-05-26T11:35:30 -->> $GNGGA,033530.091,,,,,0,0,,,M,,M,,*58
2017-05-26T11:35:30 -->> $GPGSA,A,1,,,,,,,,,,,,,,,*1E
2017-05-26T11:35:30 -->> $GLGSA,A,1,,,,,,,,,,,,,,,*02
2017-05-26T11:35:30 -->> $GPGSV,1,1,04,16,,,29,08,,,27,27,,,32,07,,,31*7D
2017-05-26T11:35:30 -->> $GLGSV,1,1,00*65
2017-05-26T11:35:30 -->> $GNRMC,033530.091,V,,,,,0.00,0.00,110180,,,N*54
2017-05-26T11:35:30 -->> $GNVTG,0.00,T,,M,0.00,N,0.00,K,N*2C
2017-05-26T11:35:31 -->> $GNGGA,033531.091,,,,,0,0,,,M,,M,,*59
2017-05-26T11:35:31 -->> $GPGSA,A,1,,,,,,,,,,,,,,,*1E
2017-05-26T11:35:31 -->> $GLGSA,A,1,,,,,,,,,,,,,,,*02
2017-05-26T11:35:31 -->> $GPGSV,1,1,04,16,,,29,08,,,26,27,,,32,07,,,30*7D
2017-05-26T11:35:31 -->> $GLGSV,1,1,00*65
2017-05-26T11:35:31 -->> $GNRMC,033531.091,V,,,,,0.00,0.00,110180,,,N*55
2017-05-26T11:35:31 -->> $GNVTG,0.00,T,,M,0.00,N,0.00,K,N*2C
2017-05-26T11:35:32 -->> $GNGGA,033532.091,,,,,0,0,,,M,,M,,*5A
2017-05-26T11:35:32 -->> $GPGSA,A,1,,,,,,,,,,,,,,,*1E
2017-05-26T11:35:32 -->> $GLGSA,A,1,,,,,,,,,,,,,,,*02
2017-05-26T11:35:32 -->> $GPGSV,1,1,04,16,,,29,08,,,25,27,,,32,07,,,29*76
2017-05-26T11:35:32 -->> $GLGSV,1,1,00*65
2017-05-26T11:35:32 -->> $GNRMC,033532.091,V,,,,,0.00,0.00,110180,,,N*56
2017-05-26T11:35:32 -->> $GNVTG,0.00,T,,M,0.00,N,0.00,K,N*2C
2017-05-26T11:35:33 -->> $GNGGA,033533.091,,,,,0,0,,,M,,M,,*5B
2017-05-26T11:35:33 -->> $GPGSA,A,1,,,,,,,,,,,,,,,*1E
2017-05-26T11:35:33 -->> $GLGSA,A,1,,,,,,,,,,,,,,,*02
2017-05-26T11:35:33 -->> $GPGSV,2,1,05,16,,,29,08,,,25,27,,,31,07,,,29*77
2017-05-26T11:35:33 -->> $GPGSV,2,2,05,31,,,22*7E
2017-05-26T11:35:33 -->> $GLGSV,1,1,00*65
2017-05-26T11:35:33 -->> $GNRMC,033533.091,V,,,,,0.00,0.00,110180,,,N*57
2017-05-26T11:35:33 -->> $GNVTG,0.00,T,,M,0.00,N,0.00,K,N*2C
2017-05-26T11:35:34 -->> $GNGGA,033534.091,,,,,0,0,,,M,,M,,*5C
2017-05-26T11:35:34 -->> $GPGSA,A,1,,,,,,,,,,,,,,,*1E
2017-05-26T11:35:34 -->> $GLGSA,A,1,,,,,,,,,,,,,,,*02
2017-05-26T11:35:34 -->> $GPGSV,2,1,05,16,,,29,08,,,25,27,,,31,07,,,29*77
2017-05-26T11:35:34 -->> $GPGSV,2,2,05,31,,,24*78
2017-05-26T11:35:34 -->> $GLGSV,1,1,00*65
2017-05-26T11:35:34 -->> $GNRMC,033534.091,V,,,,,0.00,0.00,110180,,,N*50
2017-05-26T11:35:34 -->> $GNVTG,0.00,T,,M,0.00,N,0.00,K,N*2C
2017-05-26T11:35:35 -->> $GNGGA,033535.091,,,,,0,0,,,M,,M,,*5D
2017-05-26T11:35:35 -->> $GPGSA,A,1,,,,,,,,,,,,,,,*1E
2017-05-26T11:35:35 -->> $GLGSA,A,1,,,,,,,,,,,,,,,*02
2017-05-26T11:35:35 -->> $GPGSV,2,1,05,16,,,29,08,,,25,27,,,31,07,,,30*7F
2017-05-26T11:35:35 -->> $GPGSV,2,2,05,31,,,28*74
2017-05-26T11:35:35 -->> $GLGSV,1,1,00*65
2017-05-26T11:35:35 -->> $GNRMC,033535.091,V,,,,,0.00,0.00,110180,,,N*51
2017-05-26T11:35:35 -->> $GNVTG,0.00,T,,M,0.00,N,0.00,K,N*2C
2017-05-26T11:35:36 -->> $GNGGA,033536.091,,,,,0,0,,,M,,M,,*5E
2017-05-26T11:35:36 -->> $GPGSA,A,1,,,,,,,,,,,,,,,*1E
2017-05-26T11:35:36 -->> $GLGSA,A,1,,,,,,,,,,,,,,,*02
2017-05-26T11:35:36 -->> $GPGSV,2,1,05,16,,,29,08,,,25,27,,,31,07,,,30*7F
2017-05-26T11:35:36 -->> $GPGSV,2,2,05,31,,,27*7B
2017-05-26T11:35:36 -->> $GLGSV,1,1,00*65
2017-05-26T11:35:36 -->> $GNRMC,033536.091,V,,,,,0.00,0.00,110180,,,N*52
2017-05-26T11:35:36 -->> $GNVTG,0.00,T,,M,0.00,N,0.00,K,N*2C
2017-05-26T11:35:37 -->> $GNGGA,033537.091,,,,,0,0,,,M,,M,,*5F
2017-05-26T11:35:37 -->> $GPGSA,A,1,,,,,,,,,,,,,,,*1E
2017-05-26T11:35:37 -->> $GLGSA,A,1,,,,,,,,,,,,,,,*02
2017-05-26T11:35:37 -->> $GPGSV,2,1,05,16,,,29,08,,,25,27,,,31,07,,,31*7E
2017-05-26T11:35:37 -->> $GPGSV,2,2,05,31,,,27*7B
2017-05-26T11:35:37 -->> $GLGSV,1,1,00*65
2017-05-26T11:35:37 -->> $GNRMC,033537.091,V,,,,,0.00,0.00,110180,,,N*53
2017-05-26T11:35:37 -->> $GNVTG,0.00,T,,M,0.00,N,0.00,K,N*2C
2017-05-26T11:35:38 -->> $GNGGA,033538.091,,,,,0,0,,,M,,M,,*50
2017-05-26T11:35:38 -->> $GPGSA,A,1,,,,,,,,,,,,,,,*1E
2017-05-26T11:35:38 -->> $GLGSA,A,1,,,,,,,,,,,,,,,*02
2017-05-26T11:35:38 -->> $GPGSV,2,1,05,16,,,29,08,,,26,27,,,31,07,,,31*7D
2017-05-26T11:35:38 -->> $GPGSV,2,2,05,31,,,28*74
2017-05-26T11:35:38 -->> $GLGSV,1,1,00*65
2017-05-26T11:35:38 -->> $GNRMC,033538.091,V,,,,,0.00,0.00,110180,,,N*5C
2017-05-26T11:35:38 -->> $GNVTG,0.00,T,,M,0.00,N,0.00,K,N*2C
2017-05-26T11:35:39 -->> $GNGGA,033539.091,,,,,0,0,,,M,,M,,*51
2017-05-26T11:35:39 -->> $GPGSA,A,1,,,,,,,,,,,,,,,*1E
2017-05-26T11:35:39 -->> $GLGSA,A,1,,,,,,,,,,,,,,,*02
2017-05-26T11:35:39 -->> $GPGSV,2,1,05,16,,,29,08,,,26,27,,,31,07,,,31*7D
2017-05-26T11:35:39 -->> $GPGSV,2,2,05,31,,,28*74
2017-05-26T11:35:39 -->> $GLGSV,1,1,00*65
2017-05-26T11:35:39 -->> $GNRMC,033539.091,V,,,,,0.00,0.00,110180,,,N*5D
2017-05-26T11:35:39 -->> $GNVTG,0.00,T,,M,0.00,N,0.00,K,N*2C
2017-05-26T11:35:40 -->> $GNGGA,033540.091,,,,,0,0,,,M,,M,,*5F
2017-05-26T11:35:40 -->> $GPGSA,A,1,,,,,,,,,,,,,,,*1E
2017-05-26T11:35:40 -->> $GLGSA,A,1,,,,,,,,,,,,,,,*02
2017-05-26T11:35:40 -->> $GPGSV,2,1,05,16,,,29,08,,,26,27,,,31,07,,,30*7C
2017-05-26T11:35:40 -->> $GPGSV,2,2,05,31,,,28*74
2017-05-26T11:35:40 -->> $GLGSV,1,1,00*65
2017-05-26T11:35:40 -->> $GNRMC,033540.091,V,,,,,0.00,0.00,110180,,,N*53
2017-05-26T11:35:40 -->> $GNVTG,0.00,T,,M,0.00,N,0.00,K,N*2C
2017-05-26T11:35:41 -->> $GNGGA,033541.091,,,,,0,0,,,M,,M,,*5E
2017-05-26T11:35:41 -->> $GPGSA,A,1,,,,,,,,,,,,,,,*1E
2017-05-26T11:35:41 -->> $GLGSA,A,1,,,,,,,,,,,,,,,*02
2017-05-26T11:35:41 -->> $GPGSV,2,1,05,16,,,30,08,,,26,27,,,31,07,,,30*74
2017-05-26T11:35:41 -->> $GPGSV,2,2,05,31,,,27*7B
2017-05-26T11:35:41 -->> $GLGSV,1,1,00*65
2017-05-26T11:35:41 -->> $GNRMC,033541.091,V,,,,,0.00,0.00,110180,,,N*52
2017-05-26T11:35:41 -->> $GNVTG,0.00,T,,M,0.00,N,0.00,K,N*2C
2017-05-26T11:35:42 -->> $GNGGA,033542.087,,,,,0,0,,,M,,M,,*5A
2017-05-26T11:35:42 -->> $GPGSA,A,1,,,,,,,,,,,,,,,*1E
2017-05-26T11:35:42 -->> $GLGSA,A,1,,,,,,,,,,,,,,,*02
2017-05-26T11:35:42 -->> $GPGSV,2,1,05,16,,,30,08,,,26,27,,,31,07,,,30*74
2017-05-26T11:35:42 -->> $GPGSV,2,2,05,31,,,27*7B
2017-05-26T11:35:42 -->> $GLGSV,1,1,00*65
2017-05-26T11:35:42 -->> $GNRMC,033542.087,V,,,,,0.00,0.00,110180,,,N*56
2017-05-26T11:35:42 -->> $GNVTG,0.00,T,,M,0.00,N,0.00,K,N*2C
2017-05-26T11:35:42 -->> $GNGGA,033542.308,,,,,0,0,,,M,,M,,*5E
2017-05-26T11:35:42 -->> $GPGSA,A,1,,,,,,,,,,,,,,,*1E
2017-05-26T11:35:42 -->> $GLGSA,A,1,,,,,,,,,,,,,,,*02
2017-05-26T11:35:43 -->> $GPGSV,2,1,05,16,,,30,08,,,26,27,,,31,07,,,30*74
2017-05-26T11:35:43 -->> $GPGSV,2,2,05,31,,,27*7B
2017-05-26T11:35:43 -->> $GLGSV,1,1,00*65
2017-05-26T11:35:43 -->> $GNRMC,033542.308,V,,,,,0.00,0.00,110180,,,N*52
2017-05-26T11:35:43 -->> $GNVTG,0.00,T,,M,0.00,N,0.00,K,N*2C
2017-05-26T11:35:43 -->> $GNGGA,033543.308,,,,,0,0,,,M,,M,,*5F
2017-05-26T11:35:43 -->> $GPGSA,A,1,,,,,,,,,,,,,,,*1E
2017-05-26T11:35:43 -->> $GLGSA,A,1,,,,,,,,,,,,,,,*02
2017-05-26T11:35:43 -->> $GPGSV,2,1,05,16,,,30,08,,,25,27,,,31,07,,,30*77
2017-05-26T11:35:44 -->> $GPGSV,2,2,05,31,,,27*7B
2017-05-26T11:35:44 -->> $GLGSV,1,1,00*65
2017-05-26T11:35:44 -->> $GNRMC,033543.308,V,,,,,0.00,0.00,110180,,,N*53
2017-05-26T11:35:44 -->> $GNVTG,0.00,T,,M,0.00,N,0.00,K,N*2C
2017-05-26T11:35:44 -->> $GNGGA,033544.308,,,,,0,0,,,M,,M,,*58
2017-05-26T11:35:44 -->> $GPGSA,A,1,,,,,,,,,,,,,,,*1E
2017-05-26T11:35:44 -->> $GLGSA,A,1,,,,,,,,,,,,,,,*02
2017-05-26T11:35:44 -->> $GPGSV,2,1,05,16,,,30,08,,,25,27,,,31,07,,,30*77
2017-05-26T11:35:44 -->> $GPGSV,2,2,05,31,,,27*7B
2017-05-26T11:35:45 -->> $GLGSV,1,1,00*65
2017-05-26T11:35:45 -->> $GNRMC,033544.308,V,,,,,0.00,0.00,110180,,,N*54
2017-05-26T11:35:45 -->> $GNVTG,0.00,T,,M,0.00,N,0.00,K,N*2C
2017-05-26T11:35:45 -->> $GNGGA,033545.308,,,,,0,0,,,M,,M,,*59
2017-05-26T11:35:45 -->> $GPGSA,A,1,,,,,,,,,,,,,,,*1E
2017-05-26T11:35:45 -->> $GLGSA,A,1,,,,,,,,,,,,,,,*02
2017-05-26T11:35:45 -->> $GPGSV,2,1,05,16,,,30,08,,,25,27,,,31,07,,,30*77
2017-05-26T11:35:46 -->> $GPGSV,2,2,05,31,,,27*7B
2017-05-26T11:35:46 -->> $GLGSV,1,1,00*65
2017-05-26T11:35:46 -->> $GNRMC,033545.308,V,,,,,0.00,0.00,110180,,,N*55
2017-05-26T11:35:46 -->> $GNVTG,0.00,T,,M,0.00,N,0.00,K,N*2C
2017-05-26T11:35:46 -->> $GNGGA,033546.308,,,,,0,0,,,M,,M,,*5A
2017-05-26T11:35:46 -->> $GPGSA,A,1,,,,,,,,,,,,,,,*1E
2017-05-26T11:35:46 -->> $GLGSA,A,1,,,,,,,,,,,,,,,*02
2017-05-26T11:35:46 -->> $GPGSV,2,1,05,16,,,30,08,,,25,27,,,31,07,,,31*76
2017-05-26T11:35:46 -->> $GPGSV,2,2,05,31,,,27*7B
2017-05-26T11:35:47 -->> $GLGSV,1,1,00*65
2017-05-26T11:35:47 -->> $GNRMC,033546.308,V,,,,,0.00,0.00,110180,,,N*56
2017-05-26T11:35:47 -->> $GNVTG,0.00,T,,M,0.00,N,0.00,K,N*2C
2017-05-26T11:35:47 -->> $GNGGA,033547.308,,,,,0,0,,,M,,M,,*5B
2017-05-26T11:35:47 -->> $GPGSA,A,1,,,,,,,,,,,,,,,*1E
2017-05-26T11:35:47 -->> $GLGSA,A,1,,,,,,,,,,,,,,,*02
2017-05-26T11:35:47 -->> $GPGSV,2,1,05,16,,,30,08,,,25,27,,,31,07,,,31*76
2017-05-26T11:35:48 -->> $GPGSV,2,2,05,31,,,26*7A
2017-05-26T11:35:48 -->> $GLGSV,1,1,00*65
2017-05-26T11:35:48 -->> $GNRMC,033547.308,V,,,,,0.00,0.00,110180,,,N*57
2017-05-26T11:35:48 -->> $GNVTG,0.00,T,,M,0.00,N,0.00,K,N*2C
2017-05-26T11:35:48 -->> $GNGGA,033548.091,,,,,0,0,,,M,,M,,*57
2017-05-26T11:35:48 -->> $GPGSA,A,1,,,,,,,,,,,,,,,*1E
2017-05-26T11:35:48 -->> $GLGSA,A,1,,,,,,,,,,,,,,,*02
2017-05-26T11:35:48 -->> $GPGSV,2,1,05,16,,,30,08,,,25,27,,,31,07,,,31*76
2017-05-26T11:35:48 -->> $GPGSV,2,2,05,31,,,26*7A
2017-05-26T11:35:48 -->> $GLGSV,1,1,00*65
2017-05-26T11:35:48 -->> $GNRMC,033548.091,V,,,,,0.21,0.00,260517,,,N*56
2017-05-26T11:35:48 -->> $GNVTG,0.00,T,,M,0.21,N,0.40,K,N*2B
2017-05-26T11:35:49 -->> $GNGGA,033549.091,,,,,0,0,,,M,,M,,*56
2017-05-26T11:35:49 -->> $GPGSA,A,1,,,,,,,,,,,,,,,*1E
2017-05-26T11:35:49 -->> $GLGSA,A,1,,,,,,,,,,,,,,,*02
2017-05-26T11:35:49 -->> $GPGSV,2,1,06,27,69,110,31,08,50,183,24,16,48,029,29,193,,,*75
2017-05-26T11:35:49 -->> $GPGSV,2,2,06,07,,,31,31,,,26*7C
2017-05-26T11:35:49 -->> $GLGSV,1,1,00*65
2017-05-26T11:35:49 -->> $GNRMC,033549.091,V,,,,,0.49,0.00,260517,,,N*59
2017-05-26T11:35:49 -->> $GNVTG,0.00,T,,M,0.49,N,0.91,K,N*29
2017-05-26T11:35:51 -->> $GNGGA,033551.000,,,,,0,0,,,M,,M,,*57
2017-05-26T11:35:51 -->> $GPGSA,A,1,,,,,,,,,,,,,,,*1E
2017-05-26T11:35:51 -->> $GLGSA,A,1,,,,,,,,,,,,,,,*02
2017-05-26T11:35:51 -->> $GPGSV,2,1,06,27,69,110,31,08,50,183,24,16,48,029,29,193,,,*75
2017-05-26T11:35:51 -->> $GPGSV,2,2,06,07,,,31,31,,,26*7C
2017-05-26T11:35:51 -->> $GLGSV,1,1,00*65
2017-05-26T11:35:51 -->> $GNRMC,033551.000,V,,,,,0.70,172.30,260517,,,N*55
2017-05-26T11:35:51 -->> $GNVTG,172.30,T,,M,0.70,N,1.29,K,N*26
2017-05-26T11:35:52 -->> $GNGGA,033552.000,3032.8720,N,10403.8073,E,1,3,5.82,182.0,M,-31.9,M,,*64
2017-05-26T11:35:52 -->> $GPGSA,A,2,16,08,27,,,,,,,,,,5.91,5.82,1.00*0A
2017-05-26T11:35:52 -->> $GLGSA,A,2,,,,,,,,,,,,,5.91,5.82,1.00*1C
2017-05-26T11:35:52 -->> $GPGSV,2,1,06,27,69,110,31,08,50,183,24,16,48,029,29,193,,,*75
2017-05-26T11:35:52 -->> $GPGSV,2,2,06,07,,,31,31,,,26*7C
2017-05-26T11:35:52 -->> $GLGSV,1,1,00*65
2017-05-26T11:35:52 -->> $GNRMC,033552.000,A,3032.8720,N,10403.8073,E,0.64,168.05,260517,,,A*78
2017-05-26T11:35:52 -->> $GNVTG,168.05,T,,M,0.64,N,1.19,K,A*22
2017-05-26T11:35:53 -->> $GNGGA,033553.000,3032.8713,N,10403.8096,E,1,3,5.82,182.0,M,-31.9,M,,*6E
2017-05-26T11:35:53 -->> $GPGSA,A,2,16,08,27,,,,,,,,,,5.91,5.82,1.00*0A
2017-05-26T11:35:53 -->> $GLGSA,A,2,,,,,,,,,,,,,5.91,5.82,1.00*1C
2017-05-26T11:35:53 -->> $GPGSV,2,1,06,27,69,110,31,08,50,183,24,16,48,029,29,193,,,*75
2017-05-26T11:35:53 -->> $GPGSV,2,2,06,07,,,31,31,,,26*7C
2017-05-26T11:35:53 -->> $GLGSV,1,1,00*65
2017-05-26T11:35:53 -->> $GNRMC,033553.000,A,3032.8713,N,10403.8096,E,0.00,168.05,260517,,,A*70
2017-05-26T11:35:53 -->> $GNVTG,168.05,T,,M,0.00,N,0.00,K,A*29
2017-05-26T11:35:54 -->> $GNGGA,033554.000,3032.8711,N,10403.8103,E,1,3,5.82,182.0,M,-31.9,M,,*66
2017-05-26T11:35:54 -->> $GPGSA,A,2,16,08,27,,,,,,,,,,5.91,5.82,1.00*0A
2017-05-26T11:35:54 -->> $GLGSA,A,2,,,,,,,,,,,,,5.91,5.82,1.00*1C
2017-05-26T11:35:54 -->> $GPGSV,2,1,06,27,69,110,31,08,50,183,24,16,48,029,29,193,,,*75
2017-05-26T11:35:54 -->> $GPGSV,2,2,06,07,,,31,31,,,26*7C
2017-05-26T11:35:54 -->> $GLGSV,1,1,00*65
2017-05-26T11:35:54 -->> $GNRMC,033554.000,A,3032.8711,N,10403.8103,E,0.00,168.05,260517,,,A*78
2017-05-26T11:35:54 -->> $GNVTG,168.05,T,,M,0.00,N,0.00,K,A*29
2017-05-26T11:35:55 -->> $GNGGA,033554.202,3032.8706,N,10403.8111,E,1,3,5.82,181.9,M,-31.9,M,,*69
2017-05-26T11:35:55 -->> $GPGSA,A,2,16,08,27,,,,,,,,,,5.91,5.82,1.00*0A
2017-05-26T11:35:55 -->> $GLGSA,A,2,,,,,,,,,,,,,5.91,5.82,1.00*1C
2017-05-26T11:35:55 -->> $GPGSV,2,1,06,27,69,110,31,08,50,183,25,16,48,029,29,193,,,*74
2017-05-26T11:35:55 -->> $GPGSV,2,2,06,07,,,31,31,,,25*7F
2017-05-26T11:35:55 -->> $GLGSV,1,1,00*65
2017-05-26T11:35:55 -->> $GNRMC,033554.202,A,3032.8706,N,10403.8111,E,0.00,168.05,260517,,,A*7D
2017-05-26T11:35:55 -->> $GNVTG,168.05,T,,M,0.00,N,0.00,K,A*29
2017-05-26T11:35:56 -->> $GNGGA,033556.000,3032.8706,N,10403.8111,E,1,3,5.83,181.9,M,-31.9,M,,*6A
2017-05-26T11:35:56 -->> $GPGSA,A,2,16,08,27,,,,,,,,,,5.91,5.83,1.00*0B
2017-05-26T11:35:56 -->> $GLGSA,A,2,,,,,,,,,,,,,5.91,5.83,1.00*1D
2017-05-26T11:35:56 -->> $GPGSV,2,1,06,27,69,110,31,08,50,183,26,16,48,029,29,193,,,*77
2017-05-26T11:35:56 -->> $GPGSV,2,2,06,07,,,31,31,,,25*7F
2017-05-26T11:35:56 -->> $GLGSV,1,1,00*65
2017-05-26T11:35:56 -->> $GNRMC,033556.000,A,3032.8706,N,10403.8111,E,0.00,168.05,260517,,,A*7F
2017-05-26T11:35:56 -->> $GNVTG,168.05,T,,M,0.00,N,0.00,K,A*29
2017-05-26T11:35:57 -->> $GNGGA,033557.000,3032.8706,N,10403.8111,E,1,3,5.83,181.9,M,-31.9,M,,*6B
2017-05-26T11:35:57 -->> $GPGSA,A,2,16,08,27,,,,,,,,,,5.91,5.83,1.00*0B
2017-05-26T11:35:57 -->> $GLGSA,A,2,,,,,,,,,,,,,5.91,5.83,1.00*1D
2017-05-26T11:35:57 -->> $GPGSV,2,1,06,27,69,110,31,08,50,183,26,16,48,029,29,193,,,*77
2017-05-26T11:35:57 -->> $GPGSV,2,2,06,07,,,31,31,,,25*7F
2017-05-26T11:35:57 -->> $GLGSV,1,1,00*65
2017-05-26T11:35:57 -->> $GNRMC,033557.000,A,3032.8706,N,10403.8111,E,0.00,168.05,260517,,,A*7E
2017-05-26T11:35:57 -->> $GNVTG,168.05,T,,M,0.00,N,0.00,K,A*29
2017-05-26T11:35:58 -->> $GNGGA,033558.000,3032.8682,N,10403.8171,E,1,3,5.83,181.9,M,-31.9,M,,*6F
2017-05-26T11:35:58 -->> $GPGSA,A,2,16,08,27,,,,,,,,,,5.92,5.83,1.00*08
2017-05-26T11:35:58 -->> $GLGSA,A,2,,,,,,,,,,,,,5.92,5.83,1.00*1E
2017-05-26T11:35:58 -->> $GPGSV,2,1,06,27,69,110,31,08,50,183,26,16,48,029,29,193,,,*77
2017-05-26T11:35:58 -->> $GPGSV,2,2,06,07,,,30,31,,,25*7E
2017-05-26T11:35:58 -->> $GLGSV,1,1,00*65
2017-05-26T11:35:58 -->> $GNRMC,033558.000,A,3032.8682,N,10403.8171,E,0.26,168.05,260517,,,A*7E
2017-05-26T11:35:58 -->> $GNVTG,168.05,T,,M,0.26,N,0.48,K,A*21
2017-05-26T11:35:59 -->> $GNGGA,033559.000,3032.8677,N,10403.8178,E,1,3,5.83,181.9,M,-31.9,M,,*6D
2017-05-26T11:35:59 -->> $GPGSA,A,2,16,08,27,,,,,,,,,,5.92,5.83,1.00*08
2017-05-26T11:35:59 -->> $GLGSA,A,2,,,,,,,,,,,,,5.92,5.83,1.00*1E
2017-05-26T11:35:59 -->> $GPGSV,2,1,06,27,69,110,31,08,50,183,26,16,48,029,30,193,,,*7F
2017-05-26T11:35:59 -->> $GPGSV,2,2,06,07,,,29,31,,,25*76
2017-05-26T11:35:59 -->> $GLGSV,1,1,00*65
2017-05-26T11:35:59 -->> $GNRMC,033559.000,A,3032.8677,N,10403.8178,E,0.00,168.05,260517,,,A*78
2017-05-26T11:35:59 -->> $GNVTG,168.05,T,,M,0.00,N,0.00,K,A*29
2017-05-26T11:36:00 -->> $GNGGA,033600.000,3032.8673,N,10403.8184,E,1,3,5.84,181.9,M,-31.9,M,,*62
2017-05-26T11:36:00 -->> $GPGSA,A,2,16,08,27,,,,,,,,,,5.92,5.84,1.00*0F
2017-05-26T11:36:00 -->> $GLGSA,A,2,,,,,,,,,,,,,5.92,5.84,1.00*19
2017-05-26T11:36:00 -->> $GPGSV,2,1,06,27,69,110,31,08,50,183,26,16,48,029,30,193,,,*7F
2017-05-26T11:36:00 -->> $GPGSV,2,2,06,07,,,28,31,,,25*77
2017-05-26T11:36:00 -->> $GLGSV,1,1,00*65
2017-05-26T11:36:00 -->> $GNRMC,033600.000,A,3032.8673,N,10403.8184,E,0.00,168.05,260517,,,A*70
2017-05-26T11:36:00 -->> $GNVTG,168.05,T,,M,0.00,N,0.00,K,A*29
2017-05-26T11:36:01 -->> $GNGGA,033600.213,3032.8777,N,10403.7653,E,1,5,1.34,246.5,M,-31.9,M,,*68
2017-05-26T11:36:01 -->> $GPGSA,A,3,16,08,27,07,31,,,,,,,,1.58,1.34,0.84*0B
2017-05-26T11:36:01 -->> $GLGSA,A,3,,,,,,,,,,,,,1.58,1.34,0.84*18
2017-05-26T11:36:01 -->> $GPGSV,2,1,07,27,69,110,31,08,50,183,26,16,48,029,30,42,37,124,*70
2017-05-26T11:36:01 -->> $GPGSV,2,2,07,07,17,307,28,31,10,106,25,193,,,*49
2017-05-26T11:36:01 -->> $GLGSV,1,1,00*65
2017-05-26T11:36:01 -->> $GNRMC,033600.213,A,3032.8777,N,10403.7653,E,0.00,151.04,260517,,,A*7C
2017-05-26T11:36:01 -->> $GNVTG,151.04,T,,M,0.00,N,0.00,K,A*22
2017-05-26T11:36:02 -->> $GNGGA,033602.000,3032.8777,N,10403.7653,E,1,5,1.34,246.5,M,-31.9,M,,*6A
2017-05-26T11:36:02 -->> $GPGSA,A,3,16,08,27,07,31,,,,,,,,1.58,1.34,0.84*0B
2017-05-26T11:36:02 -->> $GLGSA,A,3,,,,,,,,,,,,,1.58,1.34,0.84*18
2017-05-26T11:36:02 -->> $GPGSV,2,1,07,27,69,110,31,08,50,183,26,16,48,029,30,42,37,124,*70
2017-05-26T11:36:02 -->> $GPGSV,2,2,07,07,17,307,29,31,10,106,25,193,,,*48
2017-05-26T11:36:02 -->> $GLGSV,1,1,00*65
2017-05-26T11:36:02 -->> $GNRMC,033602.000,A,3032.8777,N,10403.7653,E,0.00,151.04,260517,,,A*7E
2017-05-26T11:36:02 -->> $GNVTG,151.04,T,,M,0.00,N,0.00,K,A*22
2017-05-26T11:36:03 -->> $GNGGA,033603.000,3032.8765,N,10403.7502,E,1,5,1.34,256.7,M,-31.9,M,,*6C
2017-05-26T11:36:03 -->> $GPGSA,A,3,16,08,27,07,31,,,,,,,,1.58,1.34,0.84*0B
2017-05-26T11:36:03 -->> $GLGSA,A,3,,,,,,,,,,,,,1.58,1.34,0.84*18
2017-05-26T11:36:03 -->> $GPGSV,2,1,07,27,69,110,31,08,50,183,26,16,48,029,30,42,37,124,*70
2017-05-26T11:36:03 -->> $GPGSV,2,2,07,07,17,307,30,31,10,106,26,193,,,*43
2017-05-26T11:36:03 -->> $GLGSV,1,1,00*65
2017-05-26T11:36:03 -->> $GNRMC,033603.000,A,3032.8765,N,10403.7502,E,0.33,151.04,260517,,,A*7B
2017-05-26T11:36:03 -->> $GNVTG,151.04,T,,M,0.33,N,0.61,K,A*25
2017-05-26T11:36:04 -->> $GNGGA,033604.000,3032.8764,N,10403.7513,E,1,5,1.34,259.5,M,-31.9,M,,*67
2017-05-26T11:36:04 -->> $GPGSA,A,3,16,08,27,07,31,,,,,,,,1.58,1.34,0.84*0B
2017-05-26T11:36:04 -->> $GLGSA,A,3,,,,,,,,,,,,,1.58,1.34,0.84*18
2017-05-26T11:36:04 -->> $GPGSV,2,1,07,27,69,110,31,08,50,183,26,16,48,029,30,42,37,124,*70
2017-05-26T11:36:04 -->> $GPGSV,2,2,07,07,17,307,30,31,10,106,26,193,,,*43
2017-05-26T11:36:04 -->> $GLGSV,1,1,00*65
2017-05-26T11:36:04 -->> $GNRMC,033604.000,A,3032.8764,N,10403.7513,E,0.00,151.04,260517,,,A*7D
2017-05-26T11:36:04 -->> $GNVTG,151.04,T,,M,0.00,N,0.00,K,A*22
2017-05-26T11:36:05 -->> $GNGGA,033605.000,3032.8761,N,10403.7487,E,1,5,1.34,263.0,M,-31.9,M,,*63
2017-05-26T11:36:05 -->> $GPGSA,A,3,16,08,27,07,31,,,,,,,,1.58,1.34,0.84*0B
2017-05-26T11:36:05 -->> $GLGSA,A,3,,,,,,,,,,,,,1.58,1.34,0.84*18
2017-05-26T11:36:05 -->> $GPGSV,2,1,07,27,69,110,31,08,50,183,26,16,48,029,30,42,37,124,*70
2017-05-26T11:36:05 -->> $GPGSV,2,2,07,07,17,307,30,31,10,106,26,193,,,*43
2017-05-26T11:36:05 -->> $GLGSV,1,1,00*65
2017-05-26T11:36:05 -->> $GNRMC,033605.000,A,3032.8761,N,10403.7487,E,0.00,151.04,260517,,,A*75
2017-05-26T11:36:05 -->> $GNVTG,151.04,T,,M,0.00,N,0.00,K,A*22
2017-05-26T11:36:06 -->> $GNGGA,033606.000,3032.8757,N,10403.7494,E,1,5,1.34,265.1,M,-31.9,M,,*60
2017-05-26T11:36:06 -->> $GPGSA,A,3,16,08,27,07,31,,,,,,,,1.58,1.34,0.84*0B
2017-05-26T11:36:06 -->> $GLGSA,A,3,,,,,,,,,,,,,1.58,1.34,0.84*18
2017-05-26T11:36:06 -->> $GPGSV,2,1,07,27,69,110,31,08,50,183,27,16,48,029,30,42,37,124,*71
2017-05-26T11:36:06 -->> $GPGSV,2,2,07,07,17,307,30,31,10,106,26,193,,,*43
2017-05-26T11:36:06 -->> $GLGSV,1,1,00*65
2017-05-26T11:36:06 -->> $GNRMC,033606.000,A,3032.8757,N,10403.7494,E,0.00,151.04,260517,,,A*71
2017-05-26T11:36:06 -->> $GNVTG,151.04,T,,M,0.00,N,0.00,K,A*22
2017-05-26T11:36:07 -->> $GNGGA,033607.000,3032.8757,N,10403.7494,E,1,5,1.34,265.1,M,-31.9,M,,*61
2017-05-26T11:36:07 -->> $GPGSA,A,3,16,08,27,07,31,,,,,,,,1.58,1.34,0.84*0B
2017-05-26T11:36:07 -->> $GLGSA,A,3,,,,,,,,,,,,,1.58,1.34,0.84*18
2017-05-26T11:36:07 -->> $GPGSV,2,1,07,27,69,110,31,08,50,183,27,16,48,029,30,42,37,124,*71
2017-05-26T11:36:07 -->> $GPGSV,2,2,07,07,17,307,29,31,10,106,26,193,,,*4B
2017-05-26T11:36:07 -->> $GLGSV,1,1,00*65
2017-05-26T11:36:07 -->> $GNRMC,033607.000,A,3032.8757,N,10403.7494,E,0.00,151.04,260517,,,A*70
2017-05-26T11:36:07 -->> $GNVTG,151.04,T,,M,0.00,N,0.00,K,A*22
2017-05-26T11:36:08 -->> $GNGGA,033608.000,3032.8757,N,10403.7494,E,1,5,1.34,265.1,M,-31.9,M,,*6E
2017-05-26T11:36:08 -->> $GPGSA,A,3,16,08,27,07,31,,,,,,,,1.58,1.34,0.84*0B
2017-05-26T11:36:08 -->> $GLGSA,A,3,,,,,,,,,,,,,1.58,1.34,0.84*18
2017-05-26T11:36:08 -->> $GPGSV,2,1,07,27,69,110,31,08,50,183,27,16,48,029,30,42,37,124,*71
2017-05-26T11:36:08 -->> $GPGSV,2,2,07,07,17,307,27,31,10,106,26,193,,,*45
2017-05-26T11:36:08 -->> $GLGSV,1,1,00*65
2017-05-26T11:36:08 -->> $GNRMC,033608.000,A,3032.8757,N,10403.7494,E,0.00,151.04,260517,,,A*7F
2017-05-26T11:36:08 -->> $GNVTG,151.04,T,,M,0.00,N,0.00,K,A*22
2017-05-26T11:36:09 -->> $GNGGA,033609.000,3032.8757,N,10403.7494,E,1,5,1.34,265.1,M,-31.9,M,,*6F
2017-05-26T11:36:09 -->> $GPGSA,A,3,16,08,27,07,31,,,,,,,,1.58,1.34,0.84*0B
2017-05-26T11:36:09 -->> $GLGSA,A,3,,,,,,,,,,,,,1.58,1.34,0.84*18
2017-05-26T11:36:09 -->> $GPGSV,2,1,07,27,69,110,31,08,50,183,27,16,48,029,30,42,37,124,*71
2017-05-26T11:36:09 -->> $GPGSV,2,2,07,07,17,307,27,31,10,106,26,193,,,*45
2017-05-26T11:36:09 -->> $GLGSV,1,1,00*65
2017-05-26T11:36:09 -->> $GNRMC,033609.000,A,3032.8757,N,10403.7494,E,0.00,151.04,260517,,,A*7E
2017-05-26T11:36:09 -->> $GNVTG,151.04,T,,M,0.00,N,0.00,K,A*22
2017-05-26T11:36:10 -->> $GNGGA,033610.000,3032.8774,N,10403.7404,E,1,5,1.34,272.3,M,-31.9,M,,*6B
2017-05-26T11:36:10 -->> $GPGSA,A,3,16,08,27,07,31,,,,,,,,1.58,1.34,0.84*0B
2017-05-26T11:36:10 -->> $GLGSA,A,3,,,,,,,,,,,,,1.58,1.34,0.84*18
2017-05-26T11:36:10 -->> $GPGSV,2,1,07,27,69,110,31,08,50,183,27,16,48,029,30,44,35,237,*74
2017-05-26T11:36:10 -->> $GPGSV,2,2,07,07,17,307,28,31,10,106,26,193,,,*4A
2017-05-26T11:36:10 -->> $GLGSV,1,1,00*65
2017-05-26T11:36:10 -->> $GNRMC,033610.000,A,3032.8774,N,10403.7404,E,0.30,151.04,260517,,,A*7D
2017-05-26T11:36:10 -->> $GNVTG,151.04,T,,M,0.30,N,0.56,K,A*22
2017-05-26T11:36:11 -->> $GNGGA,033611.000,3032.8776,N,10403.7395,E,1,5,1.34,273.8,M,-31.9,M,,*6D
2017-05-26T11:36:11 -->> $GPGSA,A,3,16,08,27,07,31,,,,,,,,1.58,1.34,0.84*0B
2017-05-26T11:36:11 -->> $GLGSA,A,3,,,,,,,,,,,,,1.58,1.34,0.84*18
2017-05-26T11:36:11 -->> $GPGSV,2,1,07,27,69,110,31,08,50,183,27,16,48,029,30,44,35,237,*74
2017-05-26T11:36:11 -->> $GPGSV,2,2,07,07,17,307,28,31,10,106,26,193,,,*4A
2017-05-26T11:36:11 -->> $GLGSV,1,1,00*65
2017-05-26T11:36:11 -->> $GNRMC,033611.000,A,3032.8776,N,10403.7395,E,0.00,151.04,260517,,,A*72
2017-05-26T11:36:11 -->> $GNVTG,151.04,T,,M,0.00,N,0.00,K,A*22
2017-05-26T11:36:12 -->> $GNGGA,033612.000,3032.8777,N,10403.7384,E,1,5,1.34,276.1,M,-31.9,M,,*63
2017-05-26T11:36:12 -->> $GPGSA,A,3,16,08,27,07,31,,,,,,,,1.58,1.34,0.84*0B
2017-05-26T11:36:12 -->> $GLGSA,A,3,,,,,,,,,,,,,1.58,1.34,0.84*18
2017-05-26T11:36:12 -->> $GPGSV,2,1,07,27,69,110,31,08,50,183,27,16,48,029,30,44,35,237,*74
2017-05-26T11:36:12 -->> $GPGSV,2,2,07,07,17,307,29,31,10,106,26,193,,,*4B
2017-05-26T11:36:12 -->> $GLGSV,1,1,00*65
2017-05-26T11:36:12 -->> $GNRMC,033612.000,A,3032.8777,N,10403.7384,E,0.00,151.04,260517,,,A*70
2017-05-26T11:36:12 -->> $GNVTG,151.04,T,,M,0.00,N,0.00,K,A*22
2017-05-26T11:36:13 -->> $GNGGA,033613.000,3032.8776,N,10403.7379,E,1,5,1.34,278.4,M,-31.9,M,,*6A
2017-05-26T11:36:13 -->> $GPGSA,A,3,16,08,27,07,31,,,,,,,,1.58,1.34,0.84*0B
2017-05-26T11:36:13 -->> $GLGSA,A,3,,,,,,,,,,,,,1.58,1.34,0.84*18
2017-05-26T11:36:13 -->> $GPGSV,2,1,07,27,69,110,31,08,50,183,27,16,48,029,30,44,35,237,*74
2017-05-26T11:36:13 -->> $GPGSV,2,2,07,07,17,307,29,31,10,106,26,193,,,*4B
2017-05-26T11:36:13 -->> $GLGSV,1,1,00*65
2017-05-26T11:36:13 -->> $GNRMC,033613.000,A,3032.8776,N,10403.7379,E,0.00,151.04,260517,,,A*72
2017-05-26T11:36:13 -->> $GNVTG,151.04,T,,M,0.00,N,0.00,K,A*22
2017-05-26T11:36:14 -->> $GNGGA,033614.000,3032.8776,N,10403.7379,E,1,5,1.34,278.4,M,-31.9,M,,*6D
2017-05-26T11:36:14 -->> $GPGSA,A,3,16,08,27,07,31,,,,,,,,1.58,1.34,0.84*0B
2017-05-26T11:36:14 -->> $GLGSA,A,3,,,,,,,,,,,,,1.58,1.34,0.84*18
2017-05-26T11:36:14 -->> $GPGSV,2,1,07,27,69,110,31,08,50,183,27,16,48,029,30,44,35,237,*74
2017-05-26T11:36:14 -->> $GPGSV,2,2,07,07,17,307,29,31,10,106,26,193,,,*4B
2017-05-26T11:36:14 -->> $GLGSV,1,1,00*65
2017-05-26T11:36:14 -->> $GNRMC,033614.000,A,3032.8776,N,10403.7379,E,0.00,151.04,260517,,,A*75
2017-05-26T11:36:14 -->> $GNVTG,151.04,T,,M,0.00,N,0.00,K,A*22
2017-05-26T11:36:15 -->> $GNGGA,033615.000,3032.8776,N,10403.7379,E,1,5,1.34,278.4,M,-31.9,M,,*6C
2017-05-26T11:36:15 -->> $GPGSA,A,3,16,08,27,07,31,,,,,,,,1.58,1.34,0.84*0B
2017-05-26T11:36:15 -->> $GLGSA,A,3,,,,,,,,,,,,,1.58,1.34,0.84*18
2017-05-26T11:36:15 -->> $GPGSV,2,1,07,27,69,110,31,08,50,183,27,16,48,029,30,44,35,237,*74
2017-05-26T11:36:15 -->> $GPGSV,2,2,07,07,17,307,28,31,10,106,26,193,,,*4A
2017-05-26T11:36:15 -->> $GLGSV,1,1,00*65
2017-05-26T11:36:15 -->> $GNRMC,033615.000,A,3032.8776,N,10403.7379,E,0.00,151.04,260517,,,A*74
2017-05-26T11:36:15 -->> $GNVTG,151.04,T,,M,0.00,N,0.00,K,A*22
2017-05-26T11:36:16 -->> $GNGGA,033616.000,3032.8776,N,10403.7379,E,1,5,1.34,278.4,M,-31.9,M,,*6F
2017-05-26T11:36:16 -->> $GPGSA,A,3,16,08,27,07,31,,,,,,,,1.58,1.34,0.84*0B
2017-05-26T11:36:16 -->> $GLGSA,A,3,,,,,,,,,,,,,1.58,1.34,0.84*18
2017-05-26T11:36:16 -->> $GPGSV,2,1,07,27,69,110,31,08,50,183,27,16,48,029,30,44,35,237,*74
2017-05-26T11:36:16 -->> $GPGSV,2,2,07,07,17,307,28,31,10,106,26,193,,,*4A
2017-05-26T11:36:16 -->> $GLGSV,1,1,00*65
2017-05-26T11:36:16 -->> $GNRMC,033616.000,A,3032.8776,N,10403.7379,E,0.00,151.04,260517,,,A*77
2017-05-26T11:36:16 -->> $GNVTG,151.04,T,,M,0.00,N,0.00,K,A*22
2017-05-26T11:36:17 -->> $GNGGA,033617.000,3032.8776,N,10403.7379,E,1,5,1.34,278.4,M,-31.9,M,,*6E
2017-05-26T11:36:17 -->> $GPGSA,A,3,16,08,27,07,31,,,,,,,,1.58,1.34,0.84*0B
2017-05-26T11:36:17 -->> $GLGSA,A,3,,,,,,,,,,,,,1.58,1.34,0.84*18
2017-05-26T11:36:17 -->> $GPGSV,2,1,07,27,69,110,31,08,50,183,27,16,48,029,30,44,35,237,*74
2017-05-26T11:36:17 -->> $GPGSV,2,2,07,07,17,307,27,31,10,106,26,193,,,*45
2017-05-26T11:36:17 -->> $GLGSV,1,1,00*65
2017-05-26T11:36:17 -->> $GNRMC,033617.000,A,3032.8776,N,10403.7379,E,0.00,151.04,260517,,,A*76
2017-05-26T11:36:17 -->> $GNVTG,151.04,T,,M,0.00,N,0.00,K,A*22
2017-05-26T11:36:18 -->> $GNGGA,033618.000,3032.8776,N,10403.7379,E,1,5,1.34,278.4,M,-31.9,M,,*61
2017-05-26T11:36:18 -->> $GPGSA,A,3,16,08,27,07,31,,,,,,,,1.58,1.34,0.84*0B
2017-05-26T11:36:18 -->> $GLGSA,A,3,,,,,,,,,,,,,1.58,1.34,0.84*18
2017-05-26T11:36:18 -->> $GPGSV,2,1,07,27,69,110,31,08,50,183,27,16,48,029,30,44,35,237,*74
2017-05-26T11:36:18 -->> $GPGSV,2,2,07,07,17,307,27,31,10,106,26,193,,,*45
2017-05-26T11:36:18 -->> $GLGSV,1,1,00*65
2017-05-26T11:36:18 -->> $GNRMC,033618.000,A,3032.8776,N,10403.7379,E,0.00,151.04,260517,,,A*79
2017-05-26T11:36:18 -->> $GNVTG,151.04,T,,M,0.00,N,0.00,K,A*22
2017-05-26T11:36:19 -->> $GNGGA,033619.000,3032.8776,N,10403.7379,E,1,5,1.34,278.4,M,-31.9,M,,*60
2017-05-26T11:36:19 -->> $GPGSA,A,3,16,08,27,07,31,,,,,,,,1.58,1.34,0.84*0B
2017-05-26T11:36:19 -->> $GLGSA,A,3,,,,,,,,,,,,,1.58,1.34,0.84*18
2017-05-26T11:36:19 -->> $GPGSV,2,1,07,27,69,109,31,08,50,183,27,16,48,029,30,44,35,237,*7C
2017-05-26T11:36:19 -->> $GPGSV,2,2,07,07,17,307,28,31,10,106,26,193,,,*4A
2017-05-26T11:36:19 -->> $GLGSV,1,1,00*65
2017-05-26T11:36:19 -->> $GNRMC,033619.000,A,3032.8776,N,10403.7379,E,0.00,151.04,260517,,,A*78
2017-05-26T11:36:19 -->> $GNVTG,151.04,T,,M,0.00,N,0.00,K,A*22
2017-05-26T11:36:20 -->> $GNGGA,033620.000,3032.8776,N,10403.7379,E,1,5,1.34,278.4,M,-31.9,M,,*6A
2017-05-26T11:36:20 -->> $GPGSA,A,3,16,08,27,07,31,,,,,,,,1.58,1.34,0.84*0B
2017-05-26T11:36:20 -->> $GLGSA,A,3,,,,,,,,,,,,,1.58,1.34,0.84*18
2017-05-26T11:36:20 -->> $GPGSV,2,1,07,27,69,109,31,08,50,183,27,16,48,029,29,40,34,238,*7E
2017-05-26T11:36:20 -->> $GPGSV,2,2,07,07,17,307,29,31,10,106,26,193,,,*4B
2017-05-26T11:36:20 -->> $GLGSV,1,1,00*65
2017-05-26T11:36:20 -->> $GNRMC,033620.000,A,3032.8776,N,10403.7379,E,0.00,151.04,260517,,,A*72
2017-05-26T11:36:20 -->> $GNVTG,151.04,T,,M,0.00,N,0.00,K,A*22
2017-05-26T11:36:21 -->> $GNGGA,033621.000,3032.8776,N,10403.7379,E,1,5,1.34,278.4,M,-31.9,M,,*6B
2017-05-26T11:36:21 -->> $GPGSA,A,3,16,08,27,07,31,,,,,,,,1.58,1.34,0.84*0B
2017-05-26T11:36:21 -->> $GLGSA,A,3,,,,,,,,,,,,,1.58,1.34,0.84*18
2017-05-26T11:36:21 -->> $GPGSV,2,1,07,27,69,109,31,08,50,183,27,16,48,029,29,40,34,238,*7E
2017-05-26T11:36:21 -->> $GPGSV,2,2,07,07,17,307,29,31,10,106,26,193,,,*4B
2017-05-26T11:36:21 -->> $GLGSV,1,1,00*65
2017-05-26T11:36:21 -->> $GNRMC,033621.000,A,3032.8776,N,10403.7379,E,0.00,151.04,260517,,,A*73
2017-05-26T11:36:21 -->> $GNVTG,151.04,T,,M,0.00,N,0.00,K,A*22
2017-05-26T11:36:22 -->> $GNGGA,033622.000,3032.8776,N,10403.7379,E,1,5,1.34,278.4,M,-31.9,M,,*68
2017-05-26T11:36:22 -->> $GPGSA,A,3,16,08,27,07,31,,,,,,,,1.58,1.34,0.84*0B
2017-05-26T11:36:22 -->> $GLGSA,A,3,,,,,,,,,,,,,1.58,1.34,0.84*18
2017-05-26T11:36:22 -->> $GPGSV,2,1,07,27,69,109,31,08,50,183,27,16,48,029,29,40,34,238,*7E
2017-05-26T11:36:22 -->> $GPGSV,2,2,07,07,17,307,29,31,10,106,26,193,,,*4B
2017-05-26T11:36:22 -->> $GLGSV,1,1,00*65
2017-05-26T11:36:22 -->> $GNRMC,033622.000,A,3032.8776,N,10403.7379,E,0.00,151.04,260517,,,A*70
2017-05-26T11:36:22 -->> $GNVTG,151.04,T,,M,0.00,N,0.00,K,A*22
2017-05-26T11:36:23 -->> $GNGGA,033623.000,3032.8776,N,10403.7379,E,1,5,1.34,278.4,M,-31.9,M,,*69
2017-05-26T11:36:23 -->> $GPGSA,A,3,16,08,27,07,31,,,,,,,,1.58,1.34,0.84*0B
2017-05-26T11:36:23 -->> $GLGSA,A,3,,,,,,,,,,,,,1.58,1.34,0.84*18
2017-05-26T11:36:23 -->> $GPGSV,2,1,07,27,69,109,31,08,50,183,27,16,48,029,29,40,34,238,*7E
2017-05-26T11:36:23 -->> $GPGSV,2,2,07,07,17,307,29,31,10,106,26,193,,,*4B
2017-05-26T11:36:23 -->> $GLGSV,1,1,00*65
2017-05-26T11:36:23 -->> $GNRMC,033623.000,A,3032.8776,N,10403.7379,E,0.00,151.04,260517,,,A*71
2017-05-26T11:36:23 -->> $GNVTG,151.04,T,,M,0.00,N,0.00,K,A*22
2017-05-26T11:36:24 -->> $GNGGA,033624.000,3032.8776,N,10403.7379,E,1,5,1.34,278.4,M,-31.9,M,,*6E
2017-05-26T11:36:24 -->> $GPGSA,A,3,16,08,27,07,31,,,,,,,,1.58,1.34,0.84*0B
2017-05-26T11:36:24 -->> $GLGSA,A,3,,,,,,,,,,,,,1.58,1.34,0.84*18
2017-05-26T11:36:24 -->> $GPGSV,2,1,07,27,69,109,31,08,50,183,27,16,48,029,29,40,34,238,*7E
2017-05-26T11:36:24 -->> $GPGSV,2,2,07,07,17,307,29,31,10,106,26,193,,,*4B
2017-05-26T11:36:24 -->> $GLGSV,1,1,00*65
2017-05-26T11:36:24 -->> $GNRMC,033624.000,A,3032.8776,N,10403.7379,E,0.00,151.04,260517,,,A*76
2017-05-26T11:36:24 -->> $GNVTG,151.04,T,,M,0.00,N,0.00,K,A*22
2017-05-26T11:36:25 -->> $GNGGA,033625.000,3032.8776,N,10403.7379,E,1,5,1.35,278.4,M,-31.9,M,,*6E
2017-05-26T11:36:25 -->> $GPGSA,A,3,16,08,27,07,31,,,,,,,,2.06,1.35,1.56*0C
2017-05-26T11:36:25 -->> $GLGSA,A,3,,,,,,,,,,,,,2.06,1.35,1.56*1F
2017-05-26T11:36:25 -->> $GPGSV,2,1,07,27,69,109,31,08,50,183,26,16,48,029,29,40,34,238,*7F
2017-05-26T11:36:25 -->> $GPGSV,2,2,07,07,17,307,29,31,10,106,26,193,,,*4B
2017-05-26T11:36:25 -->> $GLGSV,1,1,00*65
2017-05-26T11:36:25 -->> $GNRMC,033625.000,A,3032.8776,N,10403.7379,E,0.00,151.04,260517,,,A*77
2017-05-26T11:36:25 -->> $GNVTG,151.04,T,,M,0.00,N,0.00,K,A*22
2017-05-26T11:36:26 -->> $GNGGA,033626.000,3032.8776,N,10403.7379,E,1,5,1.34,278.4,M,-31.9,M,,*6C
2017-05-26T11:36:26 -->> $GPGSA,A,3,16,08,27,07,31,,,,,,,,1.58,1.34,0.84*0B
2017-05-26T11:36:26 -->> $GLGSA,A,3,,,,,,,,,,,,,1.58,1.34,0.84*18
2017-05-26T11:36:26 -->> $GPGSV,2,1,07,27,69,109,31,08,50,183,26,16,48,029,29,40,34,238,*7F
2017-05-26T11:36:26 -->> $GPGSV,2,2,07,07,17,307,29,31,10,106,26,193,,,*4B
2017-05-26T11:36:26 -->> $GLGSV,1,1,00*65
2017-05-26T11:36:26 -->> $GNRMC,033626.000,A,3032.8776,N,10403.7379,E,0.00,151.04,260517,,,A*74
2017-05-26T11:36:26 -->> $GNVTG,151.04,T,,M,0.00,N,0.00,K,A*22
2017-05-26T11:36:27 -->> $GNGGA,033627.000,3032.8776,N,10403.7379,E,1,5,1.34,278.4,M,-31.9,M,,*6D
2017-05-26T11:36:27 -->> $GPGSA,A,3,16,08,27,07,31,,,,,,,,1.58,1.34,0.84*0B
2017-05-26T11:36:27 -->> $GLGSA,A,3,,,,,,,,,,,,,1.58,1.34,0.84*18
2017-05-26T11:36:27 -->> $GPGSV,2,1,07,27,69,109,31,08,50,183,26,16,48,029,29,40,34,238,*7F
2017-05-26T11:36:27 -->> $GPGSV,2,2,07,07,17,307,29,31,10,106,26,193,,,*4B
2017-05-26T11:36:27 -->> $GLGSV,1,1,00*65
2017-05-26T11:36:27 -->> $GNRMC,033627.000,A,3032.8776,N,10403.7379,E,0.00,151.04,260517,,,A*75
2017-05-26T11:36:27 -->> $GNVTG,151.04,T,,M,0.00,N,0.00,K,A*22
2017-05-26T11:36:28 -->> $GNGGA,033628.000,3032.8776,N,10403.7379,E,1,5,1.34,278.4,M,-31.9,M,,*62
2017-05-26T11:36:28 -->> $GPGSA,A,3,16,08,27,07,31,,,,,,,,1.58,1.34,0.84*0B
2017-05-26T11:36:28 -->> $GLGSA,A,3,,,,,,,,,,,,,1.58,1.34,0.84*18
2017-05-26T11:36:28 -->> $GPGSV,2,1,07,27,69,109,31,08,50,183,26,16,48,029,29,40,34,238,*7F
2017-05-26T11:36:28 -->> $GPGSV,2,2,07,07,17,307,29,31,10,106,26,193,,,*4B
2017-05-26T11:36:28 -->> $GLGSV,1,1,00*65
2017-05-26T11:36:28 -->> $GNRMC,033628.000,A,3032.8776,N,10403.7379,E,0.00,151.04,260517,,,A*7A
2017-05-26T11:36:28 -->> $GNVTG,151.04,T,,M,0.00,N,0.00,K,A*22
2017-05-26T11:36:29 -->> $GNGGA,033629.000,3032.8776,N,10403.7379,E,1,5,1.34,278.4,M,-31.9,M,,*63
2017-05-26T11:36:29 -->> $GPGSA,A,3,16,08,27,07,31,,,,,,,,1.58,1.34,0.84*0B
2017-05-26T11:36:29 -->> $GLGSA,A,3,,,,,,,,,,,,,1.58,1.34,0.84*18
2017-05-26T11:36:29 -->> $GPGSV,2,1,07,27,69,109,31,08,50,183,26,16,48,029,30,50,33,120,*7B
2017-05-26T11:36:29 -->> $GPGSV,2,2,07,07,17,307,29,31,10,106,26,193,,,*4B
2017-05-26T11:36:29 -->> $GLGSV,1,1,00*65
2017-05-26T11:36:29 -->> $GNRMC,033629.000,A,3032.8776,N,10403.7379,E,0.00,151.04,260517,,,A*7B
2017-05-26T11:36:29 -->> $GNVTG,151.04,T,,M,0.00,N,0.00,K,A*22
2017-05-26T11:36:30 -->> $GNGGA,033630.000,3032.8776,N,10403.7379,E,1,5,1.34,278.4,M,-31.9,M,,*6B
2017-05-26T11:36:30 -->> $GPGSA,A,3,16,08,27,07,31,,,,,,,,1.58,1.34,0.84*0B
2017-05-26T11:36:30 -->> $GLGSA,A,3,,,,,,,,,,,,,1.58,1.34,0.84*18
2017-05-26T11:36:30 -->> $GPGSV,2,1,07,27,69,109,31,08,50,183,25,16,48,029,30,50,33,120,*78
2017-05-26T11:36:30 -->> $GPGSV,2,2,07,07,17,307,29,31,10,106,26,193,,,*4B
2017-05-26T11:36:30 -->> $GLGSV,1,1,00*65
2017-05-26T11:36:30 -->> $GNRMC,033630.000,A,3032.8776,N,10403.7379,E,0.00,151.04,260517,,,A*73
2017-05-26T11:36:30 -->> $GNVTG,151.04,T,,M,0.00,N,0.00,K,A*22
2017-05-26T11:36:31 -->> $GNGGA,033631.000,3032.8776,N,10403.7379,E,1,5,1.34,278.4,M,-31.9,M,,*6A
2017-05-26T11:36:31 -->> $GPGSA,A,3,16,08,27,07,31,,,,,,,,1.58,1.34,0.84*0B
2017-05-26T11:36:31 -->> $GLGSA,A,3,,,,,,,,,,,,,1.58,1.34,0.84*18
2017-05-26T11:36:31 -->> $GPGSV,2,1,07,27,69,109,31,08,50,183,24,16,48,029,30,50,33,120,*79
2017-05-26T11:36:31 -->> $GPGSV,2,2,07,07,17,307,29,31,10,106,26,193,,,*4B
2017-05-26T11:36:31 -->> $GLGSV,1,1,00*65
2017-05-26T11:36:31 -->> $GNRMC,033631.000,A,3032.8776,N,10403.7379,E,0.00,151.04,260517,,,A*72
2017-05-26T11:36:31 -->> $GNVTG,151.04,T,,M,0.00,N,0.00,K,A*22
2017-05-26T11:36:32 -->> $GNGGA,033632.000,3032.8776,N,10403.7379,E,1,5,1.34,278.4,M,-31.9,M,,*69
2017-05-26T11:36:32 -->> $GPGSA,A,3,16,08,27,07,31,,,,,,,,1.58,1.34,0.84*0B
2017-05-26T11:36:32 -->> $GLGSA,A,3,,,,,,,,,,,,,1.58,1.34,0.84*18
2017-05-26T11:36:32 -->> $GPGSV,2,1,07,27,69,109,31,08,50,183,25,16,48,029,30,50,33,120,*78
2017-05-26T11:36:32 -->> $GPGSV,2,2,07,07,17,307,28,31,10,106,26,193,,,*4A
2017-05-26T11:36:32 -->> $GLGSV,1,1,00*65
2017-05-26T11:36:32 -->> $GNRMC,033632.000,A,3032.8776,N,10403.7379,E,0.00,151.04,260517,,,A*71
2017-05-26T11:36:32 -->> $GNVTG,151.04,T,,M,0.00,N,0.00,K,A*22
2017-05-26T11:36:33 -->> $GNGGA,033633.000,3032.8776,N,10403.7379,E,1,5,1.34,278.4,M,-31.9,M,,*68
2017-05-26T11:36:33 -->> $GPGSA,A,3,16,08,27,07,31,,,,,,,,1.58,1.34,0.84*0B
2017-05-26T11:36:33 -->> $GLGSA,A,3,,,,,,,,,,,,,1.58,1.34,0.84*18
2017-05-26T11:36:33 -->> $GPGSV,2,1,07,27,69,109,31,08,50,183,26,16,48,029,30,50,33,120,*7B
2017-05-26T11:36:33 -->> $GPGSV,2,2,07,07,17,307,27,31,10,106,26,193,,,*45
2017-05-26T11:36:33 -->> $GLGSV,1,1,00*65
2017-05-26T11:36:33 -->> $GNRMC,033633.000,A,3032.8776,N,10403.7379,E,0.00,151.04,260517,,,A*70
2017-05-26T11:36:33 -->> $GNVTG,151.04,T,,M,0.00,N,0.00,K,A*22
2017-05-26T11:36:34 -->> $GNGGA,033634.000,3032.8776,N,10403.7379,E,1,5,1.34,278.4,M,-31.9,M,,*6F
2017-05-26T11:36:34 -->> $GPGSA,A,3,16,08,27,07,31,,,,,,,,1.58,1.34,0.84*0B
2017-05-26T11:36:34 -->> $GLGSA,A,3,,,,,,,,,,,,,1.58,1.34,0.84*18
2017-05-26T11:36:34 -->> $GPGSV,2,1,07,27,69,109,31,08,50,183,27,16,48,029,30,50,33,120,*7A
2017-05-26T11:36:34 -->> $GPGSV,2,2,07,07,17,307,27,31,10,106,26,193,,,*45
2017-05-26T11:36:34 -->> $GLGSV,1,1,00*65
2017-05-26T11:36:34 -->> $GNRMC,033634.000,A,3032.8776,N,10403.7379,E,0.00,151.04,260517,,,A*77
2017-05-26T11:36:34 -->> $GNVTG,151.04,T,,M,0.00,N,0.00,K,A*22
2017-05-26T11:36:35 -->> $GNGGA,033635.000,3032.8776,N,10403.7379,E,1,5,1.34,278.4,M,-31.9,M,,*6E
2017-05-26T11:36:35 -->> $GPGSA,A,3,16,08,27,07,31,,,,,,,,1.58,1.34,0.84*0B
2017-05-26T11:36:35 -->> $GLGSA,A,3,,,,,,,,,,,,,1.58,1.34,0.84*18
2017-05-26T11:36:35 -->> $GPGSV,2,1,07,27,69,109,31,08,50,183,25,16,48,029,30,50,33,120,*78
2017-05-26T11:36:35 -->> $GPGSV,2,2,07,07,17,307,27,31,10,106,26,193,,,*45
2017-05-26T11:36:35 -->> $GLGSV,1,1,00*65
2017-05-26T11:36:35 -->> $GNRMC,033635.000,A,3032.8776,N,10403.7379,E,0.00,151.04,260517,,,A*76
2017-05-26T11:36:35 -->> $GNVTG,151.04,T,,M,0.00,N,0.00,K,A*22
2017-05-26T11:36:36 -->> $GNGGA,033636.000,3032.8776,N,10403.7379,E,1,5,1.34,278.4,M,-31.9,M,,*6D
2017-05-26T11:36:36 -->> $GPGSA,A,3,16,08,27,07,31,,,,,,,,1.58,1.34,0.84*0B
2017-05-26T11:36:36 -->> $GLGSA,A,3,,,,,,,,,,,,,1.58,1.34,0.84*18
2017-05-26T11:36:36 -->> $GPGSV,2,1,07,27,69,109,31,08,50,183,25,16,48,029,30,50,33,120,*78
2017-05-26T11:36:36 -->> $GPGSV,2,2,07,07,17,307,28,31,10,106,26,193,,,*4A
2017-05-26T11:36:36 -->> $GLGSV,1,1,00*65
2017-05-26T11:36:36 -->> $GNRMC,033636.000,A,3032.8776,N,10403.7379,E,0.00,151.04,260517,,,A*75
2017-05-26T11:36:36 -->> $GNVTG,151.04,T,,M,0.00,N,0.00,K,A*22
2017-05-26T11:36:37 -->> $GNGGA,033637.000,3032.8776,N,10403.7379,E,1,5,1.34,278.4,M,-31.9,M,,*6C
2017-05-26T11:36:37 -->> $GPGSA,A,3,16,08,27,07,31,,,,,,,,1.58,1.34,0.84*0B
2017-05-26T11:36:37 -->> $GLGSA,A,3,,,,,,,,,,,,,1.58,1.34,0.84*18
2017-05-26T11:36:37 -->> $GPGSV,2,1,07,27,69,109,32,08,50,183,26,16,48,029,29,50,33,120,*70
2017-05-26T11:36:37 -->> $GPGSV,2,2,07,07,17,307,29,31,10,106,26,193,,,*4B
2017-05-26T11:36:37 -->> $GLGSV,1,1,00*65
2017-05-26T11:36:37 -->> $GNRMC,033637.000,A,3032.8776,N,10403.7379,E,0.00,151.04,260517,,,A*74
2017-05-26T11:36:37 -->> $GNVTG,151.04,T,,M,0.00,N,0.00,K,A*22
2017-05-26T11:36:38 -->> $GNGGA,033638.000,3032.8776,N,10403.7379,E,1,5,1.34,278.4,M,-31.9,M,,*63
2017-05-26T11:36:38 -->> $GPGSA,A,3,16,08,27,07,31,,,,,,,,1.58,1.34,0.84*0B
2017-05-26T11:36:38 -->> $GLGSA,A,3,,,,,,,,,,,,,1.58,1.34,0.84*18
2017-05-26T11:36:38 -->> $GPGSV,2,1,07,27,69,109,32,08,50,183,26,16,48,029,28,50,33,120,*71
2017-05-26T11:36:38 -->> $GPGSV,2,2,07,07,17,307,30,31,10,106,26,193,,,*43
2017-05-26T11:36:38 -->> $GLGSV,1,1,00*65
2017-05-26T11:36:38 -->> $GNRMC,033638.000,A,3032.8776,N,10403.7379,E,0.00,151.04,260517,,,A*7B
2017-05-26T11:36:38 -->> $GNVTG,151.04,T,,M,0.00,N,0.00,K,A*22
2017-05-26T11:36:39 -->> $GNGGA,033639.000,3032.8776,N,10403.7379,E,1,5,1.34,278.4,M,-31.9,M,,*62
2017-05-26T11:36:39 -->> $GPGSA,A,3,16,08,27,07,31,,,,,,,,1.58,1.34,0.84*0B
2017-05-26T11:36:39 -->> $GLGSA,A,3,,,,,,,,,,,,,1.58,1.34,0.84*18
2017-05-26T11:36:39 -->> $GPGSV,2,1,07,27,69,109,32,08,50,183,26,16,48,029,28,07,17,307,30*71
2017-05-26T11:36:39 -->> $GPGSV,2,2,07,31,10,106,26,39,00,264,,193,,,*4F
2017-05-26T11:36:39 -->> $GLGSV,1,1,00*65
2017-05-26T11:36:39 -->> $GNRMC,033639.000,A,3032.8776,N,10403.7379,E,0.00,151.04,260517,,,A*7A
2017-05-26T11:36:39 -->> $GNVTG,151.04,T,,M,0.00,N,0.00,K,A*22
2017-05-26T11:36:40 -->> $GNGGA,033640.000,3032.8776,N,10403.7379,E,1,5,1.34,278.4,M,-31.9,M,,*6C
2017-05-26T11:36:40 -->> $GPGSA,A,3,16,08,27,07,31,,,,,,,,1.58,1.34,0.84*0B
2017-05-26T11:36:40 -->> $GLGSA,A,3,,,,,,,,,,,,,1.58,1.34,0.84*18
2017-05-26T11:36:40 -->> $GPGSV,2,1,07,27,69,109,32,08,50,183,26,16,48,029,28,07,17,307,29*79
2017-05-26T11:36:40 -->> $GPGSV,2,2,07,31,10,106,26,39,00,264,,193,,,*4F
2017-05-26T11:36:40 -->> $GLGSV,1,1,00*65
2017-05-26T11:36:40 -->> $GNRMC,033640.000,A,3032.8776,N,10403.7379,E,0.00,151.04,260517,,,A*74
2017-05-26T11:36:40 -->> $GNVTG,151.04,T,,M,0.00,N,0.00,K,A*22
2017-05-26T11:36:41 -->> $GNGGA,033641.000,3032.8776,N,10403.7379,E,1,5,1.34,278.4,M,-31.9,M,,*6D
2017-05-26T11:36:41 -->> $GPGSA,A,3,16,08,27,07,31,,,,,,,,1.58,1.34,0.84*0B
2017-05-26T11:36:41 -->> $GLGSA,A,3,,,,,,,,,,,,,1.58,1.34,0.84*18
2017-05-26T11:36:41 -->> $GPGSV,2,1,07,27,69,109,32,08,50,183,26,16,48,029,27,07,17,307,29*76
2017-05-26T11:36:41 -->> $GPGSV,2,2,07,31,10,106,26,39,00,264,,193,,,*4F
2017-05-26T11:36:41 -->> $GLGSV,1,1,00*65
2017-05-26T11:36:41 -->> $GNRMC,033641.000,A,3032.8776,N,10403.7379,E,0.00,151.04,260517,,,A*75
2017-05-26T11:36:41 -->> $GNVTG,151.04,T,,M,0.00,N,0.00,K,A*22
2017-05-26T11:36:42 -->> $GNGGA,033642.000,3032.8776,N,10403.7379,E,1,5,1.34,278.4,M,-31.9,M,,*6E
2017-05-26T11:36:42 -->> $GPGSA,A,3,16,08,27,07,31,,,,,,,,1.58,1.34,0.84*0B
2017-05-26T11:36:42 -->> $GLGSA,A,3,,,,,,,,,,,,,1.58,1.34,0.84*18
2017-05-26T11:36:42 -->> $GPGSV,2,1,07,27,69,109,32,08,50,183,26,16,48,029,27,07,17,307,29*76
2017-05-26T11:36:42 -->> $GPGSV,2,2,07,31,10,106,25,39,00,264,,193,,,*4C
2017-05-26T11:36:42 -->> $GLGSV,1,1,00*65
2017-05-26T11:36:42 -->> $GNRMC,033642.000,A,3032.8776,N,10403.7379,E,0.00,151.04,260517,,,A*76
2017-05-26T11:36:42 -->> $GNVTG,151.04,T,,M,0.00,N,0.00,K,A*22
2017-05-26T11:36:43 -->> $GNGGA,033643.000,3032.8776,N,10403.7379,E,1,5,1.34,278.4,M,-31.9,M,,*6F
2017-05-26T11:36:43 -->> $GPGSA,A,3,16,08,27,07,31,,,,,,,,1.58,1.34,0.84*0B
2017-05-26T11:36:43 -->> $GLGSA,A,3,,,,,,,,,,,,,1.58,1.34,0.84*18
2017-05-26T11:36:43 -->> $GPGSV,2,1,08,27,69,109,32,08,50,183,26,16,48,029,27,09,41,305,*7D
2017-05-26T11:36:43 -->> $GPGSV,2,2,08,07,17,307,29,31,10,106,25,39,00,264,,193,,,*7D
2017-05-26T11:36:43 -->> $GLGSV,1,1,00*65
2017-05-26T11:36:43 -->> $GNRMC,033643.000,A,3032.8776,N,10403.7379,E,0.00,151.04,260517,,,A*77
2017-05-26T11:36:43 -->> $GNVTG,151.04,T,,M,0.00,N,0.00,K,A*22
2017-05-26T11:36:44 -->> $GNGGA,033644.000,3032.8776,N,10403.7379,E,1,5,1.34,278.4,M,-31.9,M,,*68
2017-05-26T11:36:44 -->> $GPGSA,A,3,16,08,27,07,31,,,,,,,,1.58,1.34,0.84*0B
2017-05-26T11:36:44 -->> $GLGSA,A,3,,,,,,,,,,,,,1.58,1.34,0.84*18
2017-05-26T11:36:44 -->> $GPGSV,2,1,08,27,69,109,32,08,50,183,26,16,48,029,27,09,41,305,*7D
2017-05-26T11:36:44 -->> $GPGSV,2,2,08,07,17,307,29,31,10,106,25,39,00,264,,193,,,*7D
2017-05-26T11:36:44 -->> $GLGSV,1,1,00*65
2017-05-26T11:36:44 -->> $GNRMC,033644.000,A,3032.8776,N,10403.7379,E,0.00,151.04,260517,,,A*70
2017-05-26T11:36:45 -->> $GNVTG,151.04,T,,M,0.00,N,0.00,K,A*22
2017-05-26T11:36:45 -->> $GNGGA,033645.000,3032.8776,N,10403.7379,E,1,5,1.35,278.4,M,-31.9,M,,*68
2017-05-26T11:36:45 -->> $GPGSA,A,3,16,08,27,07,31,,,,,,,,2.06,1.35,1.56*0C
2017-05-26T11:36:45 -->> $GLGSA,A,3,,,,,,,,,,,,,2.06,1.35,1.56*1F
2017-05-26T11:36:45 -->> $GPGSV,2,1,08,27,69,109,32,08,50,183,26,16,48,029,27,09,41,305,*7D
2017-05-26T11:36:45 -->> $GPGSV,2,2,08,07,17,307,30,31,10,106,25,39,00,264,,193,,,*75
2017-05-26T11:36:45 -->> $GLGSV,1,1,00*65
2017-05-26T11:36:45 -->> $GNRMC,033645.000,A,3032.8776,N,10403.7379,E,0.00,151.04,260517,,,A*71
2017-05-26T11:36:45 -->> $GNVTG,151.04,T,,M,0.00,N,0.00,K,A*22
2017-05-26T11:36:46 -->> $GNGGA,033646.000,3032.8776,N,10403.7379,E,1,5,1.34,278.4,M,-31.9,M,,*6A
2017-05-26T11:36:46 -->> $GPGSA,A,3,16,08,27,07,31,,,,,,,,1.58,1.34,0.84*0B
2017-05-26T11:36:46 -->> $GLGSA,A,3,,,,,,,,,,,,,1.58,1.34,0.84*18
2017-05-26T11:36:46 -->> $GPGSV,2,1,08,27,69,109,31,08,50,183,26,16,48,029,27,09,41,305,*7E
2017-05-26T11:36:46 -->> $GPGSV,2,2,08,07,17,307,30,31,10,106,25,39,00,264,,193,,,*75
2017-05-26T11:36:46 -->> $GLGSV,1,1,00*65
2017-05-26T11:36:46 -->> $GNRMC,033646.000,A,3032.8776,N,10403.7379,E,0.00,151.04,260517,,,A*72
2017-05-26T11:36:46 -->> $GNVTG,151.04,T,,M,0.00,N,0.00,K,A*22
2017-05-26T11:36:47 -->> $GNGGA,033647.000,3032.8776,N,10403.7379,E,1,5,1.34,278.4,M,-31.9,M,,*6B
2017-05-26T11:36:47 -->> $GPGSA,A,3,16,08,27,07,31,,,,,,,,1.58,1.34,0.84*0B
2017-05-26T11:36:47 -->> $GLGSA,A,3,,,,,,,,,,,,,1.58,1.34,0.84*18
2017-05-26T11:36:47 -->> $GPGSV,2,1,08,27,69,109,31,08,50,183,27,16,48,029,27,09,41,305,*7F
2017-05-26T11:36:47 -->> $GPGSV,2,2,08,07,17,307,30,31,10,106,25,39,00,264,,193,,,*75
2017-05-26T11:36:47 -->> $GLGSV,1,1,00*65
2017-05-26T11:36:47 -->> $GNRMC,033647.000,A,3032.8776,N,10403.7379,E,0.00,151.04,260517,,,A*73
2017-05-26T11:36:47 -->> $GNVTG,151.04,T,,M,0.00,N,0.00,K,A*22
2017-05-26T11:36:48 -->> $GNGGA,033648.000,3032.8776,N,10403.7379,E,1,5,1.34,278.4,M,-31.9,M,,*64
2017-05-26T11:36:48 -->> $GPGSA,A,3,16,08,27,07,31,,,,,,,,1.58,1.34,0.84*0B
2017-05-26T11:36:48 -->> $GLGSA,A,3,,,,,,,,,,,,,1.58,1.34,0.84*18
2017-05-26T11:36:48 -->> $GPGSV,2,1,08,27,69,109,31,08,50,183,27,16,48,029,27,09,41,305,17*79
2017-05-26T11:36:48 -->> $GPGSV,2,2,08,42,37,124,,07,17,307,30,31,10,106,25,193,,,*7A
2017-05-26T11:36:48 -->> $GLGSV,1,1,00*65
2017-05-26T11:36:48 -->> $GNRMC,033648.000,A,3032.8776,N,10403.7379,E,0.00,151.04,260517,,,A*7C
2017-05-26T11:36:48 -->> $GNVTG,151.04,T,,M,0.00,N,0.00,K,A*22
2017-05-26T11:36:49 -->> $GNGGA,033649.000,3032.8827,N,10403.7403,E,1,5,1.34,328.3,M,-31.9,M,,*67
2017-05-26T11:36:49 -->> $GPGSA,A,3,16,08,27,07,31,,,,,,,,1.58,1.34,0.84*0B
2017-05-26T11:36:49 -->> $GLGSA,A,3,,,,,,,,,,,,,1.58,1.34,0.84*18
2017-05-26T11:36:49 -->> $GPGSV,2,1,08,27,69,109,31,08,50,183,27,16,48,029,27,09,41,305,17*79
2017-05-26T11:36:49 -->> $GPGSV,2,2,08,42,37,124,,07,17,307,29,31,10,106,24,193,,,*73
2017-05-26T11:36:49 -->> $GLGSV,1,1,00*65
2017-05-26T11:36:49 -->> $GNRMC,033649.000,A,3032.8827,N,10403.7403,E,0.28,151.04,260517,,,A*76
2017-05-26T11:36:50 -->> $GNVTG,151.04,T,,M,0.28,N,0.52,K,A*2F
2017-05-26T11:36:50 -->> $GNGGA,033650.000,3032.8827,N,10403.7404,E,1,5,1.34,329.3,M,-31.9,M,,*69
2017-05-26T11:36:50 -->> $GPGSA,A,3,16,08,27,07,31,,,,,,,,1.58,1.34,0.84*0B
2017-05-26T11:36:50 -->> $GLGSA,A,3,,,,,,,,,,,,,1.58,1.34,0.84*18
2017-05-26T11:36:50 -->> $GPGSV,2,1,08,27,69,109,31,08,50,183,27,16,48,029,28,09,41,305,17*76
2017-05-26T11:36:50 -->> $GPGSV,2,2,08,42,37,124,,07,17,307,28,31,10,106,24,193,,,*72
2017-05-26T11:36:50 -->> $GLGSV,1,1,00*65
2017-05-26T11:36:50 -->> $GNRMC,033650.000,A,3032.8827,N,10403.7404,E,0.00,151.04,260517,,,A*73
2017-05-26T11:36:51 -->> $GNVTG,151.04,T,,M,0.00,N,0.00,K,A*22
2017-05-26T11:36:51 -->> $GNGGA,033651.000,3032.8829,N,10403.7403,E,1,5,1.34,330.3,M,-31.9,M,,*69
2017-05-26T11:36:51 -->> $GPGSA,A,3,16,08,27,07,31,,,,,,,,1.58,1.34,0.84*0B
2017-05-26T11:36:51 -->> $GLGSA,A,3,,,,,,,,,,,,,1.58,1.34,0.84*18
2017-05-26T11:36:51 -->> $GPGSV,2,1,08,27,69,109,31,08,50,183,26,16,48,029,28,09,41,305,17*77
2017-05-26T11:36:51 -->> $GPGSV,2,2,08,42,37,124,,07,17,307,28,31,10,106,24,193,,,*72
2017-05-26T11:36:51 -->> $GLGSV,1,1,00*65
2017-05-26T11:36:51 -->> $GNRMC,033651.000,A,3032.8829,N,10403.7403,E,0.00,151.04,260517,,,A*7B
2017-05-26T11:36:51 -->> $GNVTG,151.04,T,,M,0.00,N,0.00,K,A*22
2017-05-26T11:36:52 -->> $GNGGA,033652.000,3032.8829,N,10403.7402,E,1,5,1.34,331.3,M,-31.9,M,,*6A
2017-05-26T11:36:52 -->> $GPGSA,A,3,16,08,27,07,31,,,,,,,,1.58,1.34,0.84*0B
2017-05-26T11:36:52 -->> $GLGSA,A,3,,,,,,,,,,,,,1.58,1.34,0.84*18
2017-05-26T11:36:52 -->> $GPGSV,2,1,08,27,69,109,31,08,50,183,26,16,48,029,28,09,41,305,17*77
2017-05-26T11:36:52 -->> $GPGSV,2,2,08,42,37,124,,07,17,307,29,31,10,106,24,193,,,*73
2017-05-26T11:36:52 -->> $GLGSV,1,1,00*65
2017-05-26T11:36:52 -->> $GNRMC,033652.000,A,3032.8829,N,10403.7402,E,0.00,151.04,260517,,,A*79
2017-05-26T11:36:52 -->> $GNVTG,151.04,T,,M,0.00,N,0.00,K,A*22
2017-05-26T11:36:53 -->> $GNGGA,033653.000,3032.8829,N,10403.7402,E,1,5,1.34,331.3,M,-31.9,M,,*6B
2017-05-26T11:36:53 -->> $GPGSA,A,3,16,08,27,07,31,,,,,,,,1.58,1.34,0.84*0B
2017-05-26T11:36:53 -->> $GLGSA,A,3,,,,,,,,,,,,,1.58,1.34,0.84*18
2017-05-26T11:36:53 -->> $GPGSV,2,1,08,27,69,109,31,08,50,183,27,16,48,029,28,09,41,305,16*77
2017-05-26T11:36:53 -->> $GPGSV,2,2,08,42,37,124,,07,17,307,30,31,10,106,24,193,,,*7B
2017-05-26T11:36:53 -->> $GLGSV,1,1,00*65
2017-05-26T11:36:53 -->> $GNRMC,033653.000,A,3032.8829,N,10403.7402,E,0.00,151.04,260517,,,A*78
2017-05-26T11:36:53 -->> $GNVTG,151.04,T,,M,0.00,N,0.00,K,A*22
2017-05-26T11:36:54 -->> $GNGGA,033654.000,3032.8829,N,10403.7402,E,1,5,1.34,331.3,M,-31.9,M,,*6C
2017-05-26T11:36:54 -->> $GPGSA,A,3,16,08,27,07,31,,,,,,,,1.58,1.34,0.84*0B
2017-05-26T11:36:54 -->> $GLGSA,A,3,,,,,,,,,,,,,1.58,1.34,0.84*18
2017-05-26T11:36:54 -->> $GPGSV,2,1,08,27,69,109,31,08,50,183,27,16,48,029,28,09,41,305,16*77
2017-05-26T11:36:54 -->> $GPGSV,2,2,08,42,37,124,,07,17,307,30,31,10,106,24,193,,,*7B
2017-05-26T11:36:54 -->> $GLGSV,1,1,00*65
2017-05-26T11:36:54 -->> $GNRMC,033654.000,A,3032.8829,N,10403.7402,E,0.00,151.04,260517,,,A*7F
2017-05-26T11:36:54 -->> $GNVTG,151.04,T,,M,0.00,N,0.00,K,A*22
2017-05-26T11:36:55 -->> $GNGGA,033655.000,3032.8829,N,10403.7402,E,1,5,1.34,331.3,M,-31.9,M,,*6D
2017-05-26T11:36:55 -->> $GPGSA,A,3,16,08,27,07,31,,,,,,,,1.58,1.34,0.84*0B
2017-05-26T11:36:55 -->> $GLGSA,A,3,,,,,,,,,,,,,1.58,1.34,0.84*18
2017-05-26T11:36:55 -->> $GPGSV,2,1,08,27,69,109,30,08,50,183,27,16,48,029,28,09,41,305,16*76
2017-05-26T11:36:55 -->> $GPGSV,2,2,08,42,37,124,,07,17,307,30,31,10,106,24,193,,,*7B
2017-05-26T11:36:55 -->> $GLGSV,1,1,00*65
2017-05-26T11:36:55 -->> $GNRMC,033655.000,A,3032.8829,N,10403.7402,E,0.00,151.04,260517,,,A*7E
2017-05-26T11:36:55 -->> $GNVTG,151.04,T,,M,0.00,N,0.00,K,A*22
2017-05-26T11:36:56 -->> $GNGGA,033656.000,3032.8829,N,10403.7402,E,1,5,1.34,331.3,M,-31.9,M,,*6E
