2017-05-25T16:04:40
2017-05-25T16:05:16 -->> ============================
2017-05-25T16:05:16 -->> $PMTK011,MTKGPS*08
2017-05-25T16:05:16 -->> $PMTK010,001*2E
2017-05-25T16:05:16 -->> $PMTK011,MTKGPS*08
2017-05-25T16:05:16 -->> $PMTK010,002*2D
2017-05-25T16:05:17 -->> $GNGGA,080519.188,,,,,0,0,,,M,,M,,*52
2017-05-25T16:05:17 -->> $GPGSA,A,1,,,,,,,,,,,,,,,*1E
2017-05-25T16:05:17 -->> $GLGSA,A,1,,,,,,,,,,,,,,,*02
2017-05-25T16:05:17 -->> $GPGSV,4,1,13,30,64,233,,01,60,063,,28,55,341,,11,46,045,*70
2017-05-25T16:05:17 -->> $GPGSV,4,2,13,17,41,277,,07,38,178,,19,21,259,,22,20,100,*78
2017-05-25T16:05:17 -->> $GPGSV,4,3,13,03,16,129,,08,12,060,,13,07,289,,06,06,209,*72
2017-05-25T16:05:17 -->> $GPGSV,4,4,13,193,,,*40
2017-05-25T16:05:17 -->> $GLGSV,2,1,07,73,82,140,,84,56,267,,83,47,014,,74,35,332,*6C
2017-05-25T16:05:18 -->> $GLGSV,2,2,07,80,30,150,,85,10,235,,82,01,040,*5A
2017-05-25T16:05:18 -->> $GNRMC,080519.188,V,,,,,0.00,0.00,250517,,,N*53
2017-05-25T16:05:18 -->> $GNVTG,0.00,T,,M,0.00,N,0.00,K,N*2C
2017-05-25T16:05:18 -->> $GNGGA,080519.333,,,,,0,0,,,M,,M,,*50
2017-05-25T16:05:18 -->> $GPGSA,A,1,,,,,,,,,,,,,,,*1E
2017-05-25T16:05:18 -->> $GLGSA,A,1,,,,,,,,,,,,,,,*02
2017-05-25T16:05:18 -->> $GPGSV,4,1,13,30,64,233,,01,60,063,,28,55,341,,11,46,045,*70
2017-05-25T16:05:18 -->> $GPGSV,4,2,13,17,41,277,,07,38,178,,19,21,259,,22,20,100,*78
2017-05-25T16:05:18 -->> $GPGSV,4,3,13,03,16,129,,08,12,060,,13,07,289,,06,06,209,*72
2017-05-25T16:05:18 -->> $GPGSV,4,4,13,193,,,*40
2017-05-25T16:05:18 -->> $GLGSV,2,1,07,73,82,140,,84,56,267,,83,47,014,,74,35,332,*6C
2017-05-25T16:05:18 -->> $GLGSV,2,2,07,80,30,150,,85,10,235,,82,01,040,*5A
2017-05-25T16:05:18 -->> $GNRMC,080519.333,V,,,,,0.00,0.00,250517,,,N*51
2017-05-25T16:05:18 -->> $GNVTG,0.00,T,,M,0.00,N,0.00,K,N*2C
2017-05-25T16:05:18 -->> $GNGGA,080520.333,,,,,0,0,,,M,,M,,*5A
2017-05-25T16:05:18 -->> $GPGSA,A,1,,,,,,,,,,,,,,,*1E
2017-05-25T16:05:18 -->> $GLGSA,A,1,,,,,,,,,,,,,,,*02
2017-05-25T16:05:18 -->> $GPGSV,4,1,13,30,64,233,37,01,60,063,,28,55,341,,11,46,045,*74
2017-05-25T16:05:18 -->> $GPGSV,4,2,13,17,41,277,,07,38,178,,19,21,259,,22,20,100,*78
2017-05-25T16:05:19 -->> $GPGSV,4,3,13,03,16,129,,08,12,060,,13,07,289,,06,06,209,*72
2017-05-25T16:05:19 -->> $GPGSV,4,4,13,193,,,*40
2017-05-25T16:05:19 -->> $GLGSV,2,1,07,73,82,140,,84,56,267,,83,47,014,,74,35,332,*6C
2017-05-25T16:05:19 -->> $GLGSV,2,2,07,80,30,150,,85,10,235,,82,01,040,*5A
2017-05-25T16:05:19 -->> $GNRMC,080520.333,V,,,,,0.15,0.00,250517,,,N*5F
2017-05-25T16:05:19 -->> $GNVTG,0.00,T,,M,0.15,N,0.27,K,N*2D
2017-05-25T16:05:19 -->> $GNGGA,080521.333,,,,,0,0,,,M,,M,,*5B
2017-05-25T16:05:19 -->> $GPGSA,A,1,,,,,,,,,,,,,,,*1E
2017-05-25T16:05:19 -->> $GLGSA,A,1,,,,,,,,,,,,,,,*02
2017-05-25T16:05:19 -->> $GPGSV,4,1,13,30,64,233,38,01,60,063,,28,55,341,,11,46,045,*7B
2017-05-25T16:05:19 -->> $GPGSV,4,2,13,17,41,277,37,07,38,178,26,19,21,259,,22,20,100,*78
2017-05-25T16:05:20 -->> $GPGSV,4,3,13,03,16,129,,08,12,060,,13,07,289,,06,06,209,*72
2017-05-25T16:05:20 -->> $GPGSV,4,4,13,193,,,*40
2017-05-25T16:05:20 -->> $GLGSV,2,1,07,73,82,140,,84,56,267,,83,47,014,,74,35,332,*6C
2017-05-25T16:05:20 -->> $GLGSV,2,2,07,80,30,150,,85,10,235,,82,01,040,*5A
2017-05-25T16:05:20 -->> $GNRMC,080521.333,V,,,,,0.56,0.00,250517,,,N*59
2017-05-25T16:05:20 -->> $GNVTG,0.00,T,,M,0.56,N,1.03,K,N*2D
2017-05-25T16:05:20 -->> $GNGGA,080522.348,3032.8971,N,10403.6194,E,1,8,1.13,537.1,M,-31.9,M,,*64
2017-05-25T16:05:20 -->> $GPGSA,A,3,28,19,30,08,01,11,07,17,,,,,1.40,1.13,0.84*01
2017-05-25T16:05:21 -->> $GLGSA,A,3,,,,,,,,,,,,,1.40,1.13,0.84*14
2017-05-25T16:05:21 -->> $GPGSV,4,1,13,30,64,233,38,01,60,063,34,28,55,341,26,11,46,045,35*7E
2017-05-25T16:05:21 -->> $GPGSV,4,2,13,17,41,277,37,07,38,178,26,19,21,259,30,22,20,100,*7B
2017-05-25T16:05:21 -->> $GPGSV,4,3,13,03,16,129,,08,12,060,29,13,07,289,,06,06,209,*79
2017-05-25T16:05:21 -->> $GPGSV,4,4,13,193,,,*40
2017-05-25T16:05:21 -->> $GLGSV,2,1,07,73,82,140,,84,56,267,,83,47,014,,74,35,332,*6C
2017-05-25T16:05:21 -->> $GLGSV,2,2,07,80,30,150,,85,10,235,,82,01,040,*5A
2017-05-25T16:05:21 -->> $GNRMC,080522.348,A,3032.8971,N,10403.6194,E,1.84,249.87,250517,,,A*72
2017-05-25T16:05:21 -->> $GNVTG,249.87,T,,M,1.84,N,3.40,K,A*29
2017-05-25T16:05:21 -->> $GNGGA,080523.349,3032.8978,N,10403.6181,E,1,9,1.11,537.1,M,-31.9,M,,*6A
2017-05-25T16:05:21 -->> $GPGSA,A,3,28,19,30,08,01,11,07,17,,,,,1.37,1.11,0.81*06
2017-05-25T16:05:22 -->> $GLGSA,A,3,73,,,,,,,,,,,,1.37,1.11,0.81*17
2017-05-25T16:05:22 -->> $GPGSV,4,1,14,30,64,233,37,01,60,063,34,28,55,341,28,11,46,045,34*79
2017-05-25T16:05:22 -->> $GPGSV,4,2,14,17,41,277,37,07,38,178,26,42,37,124,,19,21,259,31*7B
2017-05-25T16:05:22 -->> $GPGSV,4,3,14,22,20,100,36,03,16,129,,08,12,060,28,13,07,289,*72
2017-05-25T16:05:22 -->> $GPGSV,4,4,14,06,06,209,,193,,,*7C
2017-05-25T16:05:22 -->> $GLGSV,2,1,07,73,82,140,25,84,56,267,,83,47,014,,74,35,332,*6B
2017-05-25T16:05:22 -->> $GLGSV,2,2,07,80,30,150,,85,10,235,,82,01,040,*5A
2017-05-25T16:05:22 -->> $GNRMC,080523.349,A,3032.8978,N,10403.6181,E,1.00,275.85,250517,,,A*7E
2017-05-25T16:05:22 -->> $GNVTG,275.85,T,,M,1.00,N,1.86,K,A*20
2017-05-25T16:05:22 -->> $GNGGA,080524.348,3032.8989,N,10403.6161,E,1,9,1.11,536.9,M,-31.9,M,,*65
2017-05-25T16:05:22 -->> $GPGSA,A,3,28,19,30,08,01,11,07,17,,,,,1.37,1.11,0.81*06
2017-05-25T16:05:23 -->> $GLGSA,A,3,73,,,,,,,,,,,,1.37,1.11,0.81*17
2017-05-25T16:05:23 -->> $GPGSV,4,1,14,30,64,233,38,01,60,063,33,28,55,341,28,11,46,045,35*70
2017-05-25T16:05:23 -->> $GPGSV,4,2,14,17,41,277,37,07,38,178,25,42,37,124,,19,21,259,31*78
2017-05-25T16:05:23 -->> $GPGSV,4,3,14,22,20,100,36,03,16,129,27,08,12,060,28,13,07,289,*77
2017-05-25T16:05:23 -->> $GPGSV,4,4,14,06,06,209,,193,,,*7C
2017-05-25T16:05:23 -->> $GLGSV,2,1,07,73,82,140,26,84,56,267,,83,47,014,,74,35,332,*68
2017-05-25T16:05:23 -->> $GLGSV,2,2,07,80,30,150,,85,10,235,,82,01,040,*5A
2017-05-25T16:05:23 -->> $GNRMC,080524.348,A,3032.8989,N,10403.6161,E,0.85,328.55,250517,,,A*70
2017-05-25T16:05:23 -->> $GNVTG,328.55,T,,M,0.85,N,1.57,K,A*24
2017-05-25T16:05:23 -->> $GNGGA,080525.346,3032.8990,N,10403.6156,E,1,10,1.05,536.8,M,-31.9,M,,*5A
2017-05-25T16:05:24 -->> $GPGSA,A,3,28,19,30,08,01,11,07,17,,,,,1.32,1.05,0.81*06
2017-05-25T16:05:24 -->> $GLGSA,A,3,83,73,,,,,,,,,,,1.32,1.05,0.81*1C
2017-05-25T16:05:24 -->> $GPGSV,4,1,14,30,64,233,38,01,60,063,34,28,55,341,26,11,46,045,35*79
2017-05-25T16:05:24 -->> $GPGSV,4,2,14,17,41,277,36,07,38,178,27,42,37,124,,19,21,259,30*7A
2017-05-25T16:05:24 -->> $GPGSV,4,3,14,22,20,100,35,03,16,129,28,08,12,060,28,13,07,289,25*7C
2017-05-25T16:05:24 -->> $GPGSV,4,4,14,06,06,209,,193,,,*7C
2017-05-25T16:05:24 -->> $GLGSV,2,1,07,73,82,140,26,84,56,267,,83,47,014,23,74,35,332,*69
2017-05-25T16:05:24 -->> $GLGSV,2,2,07,80,30,150,,85,10,235,,82,01,040,*5A
2017-05-25T16:05:24 -->> $GNRMC,080525.346,A,3032.8990,N,10403.6156,E,0.85,344.64,250517,,,A*7B
2017-05-25T16:05:24 -->> $GNVTG,344.64,T,,M,0.85,N,1.58,K,A*23
2017-05-25T16:05:24 -->> $GNGGA,080526.345,3032.8989,N,10403.6149,E,1,10,1.05,536.9,M,-31.9,M,,*5D
2017-05-25T16:05:24 -->> $GPGSA,A,3,28,19,30,08,01,11,07,17,,,,,1.32,1.05,0.81*06
2017-05-25T16:05:25 -->> $GLGSA,A,3,83,73,,,,,,,,,,,1.32,1.05,0.81*1C
2017-05-25T16:05:25 -->> $GPGSV,4,1,14,30,64,233,38,01,60,063,33,28,55,341,27,11,46,045,34*7E
2017-05-25T16:05:25 -->> $GPGSV,4,2,14,17,41,277,36,07,38,178,26,42,37,124,,19,21,259,32*79
2017-05-25T16:05:25 -->> $GPGSV,4,3,14,22,20,100,35,03,16,129,28,08,12,060,27,13,07,289,24*72
2017-05-25T16:05:25 -->> $GPGSV,4,4,14,06,06,209,,193,,,29*77
2017-05-25T16:05:25 -->> $GLGSV,2,1,07,73,82,140,27,84,56,267,,83,47,014,24,74,35,332,*6F
2017-05-25T16:05:25 -->> $GLGSV,2,2,07,80,30,150,,85,10,235,,82,01,040,*5A
2017-05-25T16:05:25 -->> $GNRMC,080526.345,A,3032.8989,N,10403.6149,E,0.70,345.30,250517,,,A*77
2017-05-25T16:05:25 -->> $GNVTG,345.30,T,,M,0.70,N,1.29,K,A*2F
2017-05-25T16:05:25 -->> $GNGGA,080527.344,3032.8991,N,10403.6140,E,1,10,1.05,537.1,M,-31.9,M,,*54
2017-05-25T16:05:26 -->> $GPGSA,A,3,28,19,30,08,01,11,07,17,,,,,1.32,1.05,0.81*06
2017-05-25T16:05:26 -->> $GLGSA,A,3,83,73,,,,,,,,,,,1.32,1.05,0.81*1C
2017-05-25T16:05:26 -->> $GPGSV,4,1,14,30,64,233,38,01,60,063,33,28,55,341,27,11,46,045,34*7E
2017-05-25T16:05:26 -->> $GPGSV,4,2,14,17,41,277,37,07,38,178,26,42,37,124,,19,21,259,32*78
2017-05-25T16:05:26 -->> $GPGSV,4,3,14,22,20,100,35,03,16,129,28,08,12,060,28,13,07,289,23*7A
2017-05-25T16:05:26 -->> $GPGSV,4,4,14,06,06,209,,193,,,30*7F
2017-05-25T16:05:26 -->> $GLGSV,2,1,07,73,82,140,25,84,56,267,,83,47,014,24,74,35,332,*6D
2017-05-25T16:05:26 -->> $GLGSV,2,2,07,80,30,150,,85,10,235,,82,01,040,*5A
2017-05-25T16:05:26 -->> $GNRMC,080527.344,A,3032.8991,N,10403.6140,E,0.00,345.30,250517,,,A*70
2017-05-25T16:05:26 -->> $GNVTG,345.30,T,,M,0.00,N,0.00,K,A*22
2017-05-25T16:05:26 -->> $GNGGA,080528.343,3032.8995,N,10403.6134,E,1,11,0.94,537.1,M,-31.9,M,,*53
2017-05-25T16:05:27 -->> $GPGSA,A,3,28,19,30,08,01,11,07,17,,,,,1.24,0.94,0.81*08
2017-05-25T16:05:27 -->> $GLGSA,A,3,83,73,74,,,,,,,,,,1.24,0.94,0.81*11
2017-05-25T16:05:27 -->> $GPGSV,4,1,14,30,64,233,37,01,60,063,33,28,55,341,27,11,46,045,36*73
2017-05-25T16:05:27 -->> $GPGSV,4,2,14,17,41,277,36,07,38,178,26,42,37,124,,19,21,259,31*7A
2017-05-25T16:05:27 -->> $GPGSV,4,3,14,22,20,100,35,03,16,129,28,08,12,060,28,13,07,289,22*7B
2017-05-25T16:05:27 -->> $GPGSV,4,4,14,06,06,209,,193,,,31*7E
2017-05-25T16:05:27 -->> $GLGSV,2,1,07,73,82,140,25,84,56,267,,83,47,014,21,74,35,332,21*6B
2017-05-25T16:05:27 -->> $GLGSV,2,2,07,80,30,150,,85,10,235,,82,01,040,*5A
2017-05-25T16:05:27 -->> $GNRMC,080528.343,A,3032.8995,N,10403.6134,E,0.00,345.30,250517,,,A*7F
2017-05-25T16:05:27 -->> $GNVTG,345.30,T,,M,0.00,N,0.00,K,A*22
2017-05-25T16:05:27 -->> $GNGGA,080529.343,3032.8995,N,10403.6131,E,1,11,0.94,537.1,M,-31.9,M,,*57
2017-05-25T16:05:28 -->> $GPGSA,A,3,28,19,30,08,01,11,07,17,,,,,1.24,0.94,0.81*08
2017-05-25T16:05:28 -->> $GLGSA,A,3,83,73,74,,,,,,,,,,1.24,0.94,0.81*11
2017-05-25T16:05:28 -->> $GPGSV,4,1,14,30,64,233,37,01,60,063,33,28,55,341,27,11,46,045,36*73
2017-05-25T16:05:28 -->> $GPGSV,4,2,14,17,41,277,36,07,38,178,26,42,37,124,,19,21,259,31*7A
2017-05-25T16:05:28 -->> $GPGSV,4,3,14,22,20,100,35,03,16,129,28,08,12,060,28,13,07,289,24*7D
2017-05-25T16:05:28 -->> $GPGSV,4,4,14,06,06,209,,193,,,30*7F
2017-05-25T16:05:28 -->> $GLGSV,2,1,07,73,82,140,25,84,56,267,,83,47,014,24,74,35,332,22*6D
2017-05-25T16:05:28 -->> $GLGSV,2,2,07,80,30,150,,85,10,235,,82,01,040,*5A
2017-05-25T16:05:28 -->> $GNRMC,080529.343,A,3032.8995,N,10403.6131,E,0.00,345.30,250517,,,A*7B
2017-05-25T16:05:28 -->> $GNVTG,345.30,T,,M,0.00,N,0.00,K,A*22
2017-05-25T16:05:28 -->> $GNGGA,080530.341,3032.8995,N,10403.6131,E,1,11,0.94,537.1,M,-31.9,M,,*5D
2017-05-25T16:05:29 -->> $GPGSA,A,3,28,19,30,08,01,11,07,17,,,,,1.24,0.94,0.81*08
2017-05-25T16:05:29 -->> $GLGSA,A,3,83,73,74,,,,,,,,,,1.24,0.94,0.81*11
2017-05-25T16:05:29 -->> $GPGSV,4,1,14,30,64,233,37,01,60,063,33,28,55,341,27,11,46,045,36*73
2017-05-25T16:05:29 -->> $GPGSV,4,2,14,17,41,277,36,07,38,178,26,42,37,124,,19,21,259,31*7A
2017-05-25T16:05:29 -->> $GPGSV,4,3,14,22,20,100,35,03,16,129,27,08,12,060,28,13,07,289,24*72
2017-05-25T16:05:29 -->> $GPGSV,4,4,14,06,06,209,,193,,,30*7F
2017-05-25T16:05:29 -->> $GLGSV,2,1,07,73,82,140,26,84,56,267,,83,47,014,24,74,35,332,23*6F
2017-05-25T16:05:29 -->> $GLGSV,2,2,07,80,30,150,,85,10,235,,82,01,040,*5A
2017-05-25T16:05:29 -->> $GNRMC,080530.341,A,3032.8995,N,10403.6131,E,0.00,345.30,250517,,,A*71
2017-05-25T16:05:29 -->> $GNVTG,345.30,T,,M,0.00,N,0.00,K,A*22
2017-05-25T16:05:29 -->> $GNGGA,080531.333,3032.8995,N,10403.6131,E,1,11,0.94,537.1,M,-31.9,M,,*59
2017-05-25T16:05:30 -->> $GPGSA,A,3,19,30,08,01,11,07,17,28,,,,,1.24,0.94,0.81*08
2017-05-25T16:05:30 -->> $GLGSA,A,3,83,73,74,,,,,,,,,,1.24,0.94,0.81*11
2017-05-25T16:05:30 -->> $GPGSV,4,1,14,30,64,233,37,01,60,063,33,28,55,341,26,11,46,045,35*71
2017-05-25T16:05:30 -->> $GPGSV,4,2,14,17,41,277,36,07,38,178,26,42,37,124,,19,21,259,31*7A
2017-05-25T16:05:30 -->> $GPGSV,4,3,14,22,20,100,35,03,16,129,27,08,12,060,28,13,07,289,24*72
2017-05-25T16:05:30 -->> $GPGSV,4,4,14,06,06,209,,193,,,32*7D
2017-05-25T16:05:30 -->> $GLGSV,2,1,07,73,82,140,26,84,56,267,,83,47,014,24,74,35,332,21*6D
2017-05-25T16:05:30 -->> $GLGSV,2,2,07,80,30,150,,85,10,235,,82,01,040,*5A
2017-05-25T16:05:30 -->> $GNRMC,080531.333,A,3032.8995,N,10403.6131,E,0.00,345.30,250517,,,A*75
2017-05-25T16:05:30 -->> $GNVTG,345.30,T,,M,0.00,N,0.00,K,A*22
2017-05-25T16:05:31 -->> $GNGGA,080533.000,3032.8995,N,10403.6131,E,1,11,0.94,537.1,M,-31.9,M,,*58
2017-05-25T16:05:31 -->> $GPGSA,A,3,19,30,08,01,11,07,17,28,,,,,1.24,0.94,0.81*08
2017-05-25T16:05:31 -->> $GLGSA,A,3,83,73,74,,,,,,,,,,1.24,0.94,0.81*11
2017-05-25T16:05:31 -->> $GPGSV,4,1,14,30,64,233,37,01,60,063,33,28,55,341,27,11,46,045,34*71
2017-05-25T16:05:31 -->> $GPGSV,4,2,14,17,41,277,36,07,38,178,26,44,35,237,,19,21,259,31*7F
2017-05-25T16:05:31 -->> $GPGSV,4,3,14,22,20,100,35,03,16,129,27,08,12,060,28,13,07,289,24*72
2017-05-25T16:05:32 -->> $GPGSV,4,4,14,06,06,209,,193,,,32*7D
2017-05-25T16:05:32 -->> $GLGSV,2,1,07,73,82,140,25,84,56,267,,83,47,014,23,74,35,332,21*69
2017-05-25T16:05:32 -->> $GLGSV,2,2,07,80,30,150,,85,10,235,,82,01,040,*5A
2017-05-25T16:05:32 -->> $GNRMC,080533.000,A,3032.8995,N,10403.6131,E,0.00,345.30,250517,,,A*74
2017-05-25T16:05:32 -->> $GNVTG,345.30,T,,M,0.00,N,0.00,K,A*22
2017-05-25T16:05:32 -->> $GNGGA,080534.000,3032.8995,N,10403.6131,E,1,11,0.94,537.1,M,-31.9,M,,*5F
2017-05-25T16:05:32 -->> $GPGSA,A,3,19,30,08,01,11,07,17,28,,,,,1.24,0.94,0.81*08
2017-05-25T16:05:32 -->> $GLGSA,A,3,83,73,74,,,,,,,,,,1.24,0.94,0.81*11
2017-05-25T16:05:32 -->> $GPGSV,4,1,14,30,64,233,37,01,60,063,33,28,55,341,28,11,46,045,35*7F
2017-05-25T16:05:32 -->> $GPGSV,4,2,14,17,41,277,36,07,38,178,26,44,35,237,,19,21,259,31*7F
2017-05-25T16:05:32 -->> $GPGSV,4,3,14,22,20,100,35,03,16,129,27,08,12,060,28,13,07,289,25*73
2017-05-25T16:05:33 -->> $GPGSV,4,4,14,06,06,209,,193,,,33*7C
2017-05-25T16:05:33 -->> $GLGSV,2,1,07,73,82,140,25,84,56,267,,83,47,014,24,74,35,332,21*6E
2017-05-25T16:05:33 -->> $GLGSV,2,2,07,80,30,150,,85,10,235,,82,01,040,*5A
2017-05-25T16:05:33 -->> $GNRMC,080534.000,A,3032.8995,N,10403.6131,E,0.00,345.30,250517,,,A*73
2017-05-25T16:05:33 -->> $GNVTG,345.30,T,,M,0.00,N,0.00,K,A*22
2017-05-25T16:05:33 -->> $GNGGA,080535.000,3032.8995,N,10403.6131,E,1,11,0.94,537.1,M,-31.9,M,,*5E
2017-05-25T16:05:33 -->> $GPGSA,A,3,19,30,08,01,11,07,17,28,,,,,1.24,0.94,0.81*08
2017-05-25T16:05:33 -->> $GLGSA,A,3,83,73,74,,,,,,,,,,1.24,0.94,0.81*11
2017-05-25T16:05:33 -->> $GPGSV,4,1,14,30,64,233,37,01,60,063,34,28,55,341,28,11,46,045,35*78
2017-05-25T16:05:33 -->> $GPGSV,4,2,14,17,41,277,36,07,38,178,27,44,35,237,,19,21,259,31*7E
2017-05-25T16:05:33 -->> $GPGSV,4,3,14,22,20,100,35,03,16,129,28,08,12,060,27,13,07,289,25*73
2017-05-25T16:05:33 -->> $GPGSV,4,4,14,06,06,209,,193,,,33*7C
2017-05-25T16:05:34 -->> $GLGSV,2,1,07,73,82,140,26,84,56,267,,83,47,014,24,74,35,332,21*6D
2017-05-25T16:05:34 -->> $GLGSV,2,2,07,80,30,150,,85,10,235,,82,01,040,*5A
2017-05-25T16:05:34 -->> $GNRMC,080535.000,A,3032.8995,N,10403.6131,E,0.00,345.30,250517,,,A*72
2017-05-25T16:05:34 -->> $GNVTG,345.30,T,,M,0.00,N,0.00,K,A*22
2017-05-25T16:05:34 -->> $GNGGA,080536.000,3032.8995,N,10403.6131,E,1,11,0.94,537.1,M,-31.9,M,,*5D
2017-05-25T16:05:34 -->> $GPGSA,A,3,19,30,08,01,11,07,17,28,,,,,1.24,0.94,0.81*08
2017-05-25T16:05:34 -->> $GLGSA,A,3,83,73,74,,,,,,,,,,1.24,0.94,0.81*11
2017-05-25T16:05:34 -->> $GPGSV,4,1,14,30,64,233,37,01,60,063,34,28,55,341,29,11,46,045,35*79
2017-05-25T16:05:34 -->> $GPGSV,4,2,14,17,41,277,36,07,38,178,27,44,35,237,,19,21,259,31*7E
2017-05-25T16:05:34 -->> $GPGSV,4,3,14,22,20,100,35,03,16,129,28,08,12,060,27,13,07,289,25*73
2017-05-25T16:05:34 -->> $GPGSV,4,4,14,06,06,209,,193,,,33*7C
2017-05-25T16:05:35 -->> $GLGSV,2,1,07,73,82,140,26,84,56,267,,83,47,014,24,74,35,332,21*6D
2017-05-25T16:05:35 -->> $GLGSV,2,2,07,80,30,150,,85,10,235,,82,01,040,*5A
2017-05-25T16:05:35 -->> $GNRMC,080536.000,A,3032.8995,N,10403.6131,E,0.00,345.30,250517,,,A*71
2017-05-25T16:05:35 -->> $GNVTG,345.30,T,,M,0.00,N,0.00,K,A*22
2017-05-25T16:05:35 -->> $GNGGA,080537.000,3032.8995,N,10403.6131,E,1,11,0.94,537.1,M,-31.9,M,,*5C
2017-05-25T16:05:35 -->> $GPGSA,A,3,19,30,08,01,11,07,17,28,,,,,1.24,0.94,0.81*08
2017-05-25T16:05:35 -->> $GLGSA,A,3,83,73,74,,,,,,,,,,1.24,0.94,0.81*11
2017-05-25T16:05:35 -->> $GPGSV,4,1,14,30,64,233,37,01,60,063,34,28,55,341,29,11,46,045,35*79
2017-05-25T16:05:35 -->> $GPGSV,4,2,14,17,41,277,36,07,38,178,27,44,35,237,,19,21,260,31*74
2017-05-25T16:05:35 -->> $GPGSV,4,3,14,22,20,100,35,03,16,129,28,08,12,060,26,13,07,289,25*72
2017-05-25T16:05:35 -->> $GPGSV,4,4,14,06,06,209,,193,,,33*7C
2017-05-25T16:05:36 -->> $GLGSV,2,1,07,73,82,140,26,84,56,267,,83,47,014,25,74,35,332,21*6C
2017-05-25T16:05:36 -->> $GLGSV,2,2,07,80,30,150,,85,10,235,,82,01,040,*5A
2017-05-25T16:05:36 -->> $GNRMC,080537.000,A,3032.8995,N,10403.6131,E,0.00,345.30,250517,,,A*70
2017-05-25T16:05:36 -->> $GNVTG,345.30,T,,M,0.00,N,0.00,K,A*22
2017-05-25T16:05:36 -->> $GNGGA,080538.000,3032.8995,N,10403.6131,E,1,11,0.94,537.1,M,-31.9,M,,*53
2017-05-25T16:05:36 -->> $GPGSA,A,3,19,30,08,01,11,07,17,28,,,,,1.24,0.94,0.81*08
2017-05-25T16:05:36 -->> $GLGSA,A,3,83,73,74,,,,,,,,,,1.24,0.94,0.81*11
2017-05-25T16:05:36 -->> $GPGSV,4,1,14,30,64,233,37,01,60,063,34,28,55,341,28,11,46,045,35*78
2017-05-25T16:05:36 -->> $GPGSV,4,2,14,17,41,277,36,07,38,178,27,44,35,237,,19,21,260,31*74
2017-05-25T16:05:36 -->> $GPGSV,4,3,14,22,20,100,35,03,16,129,27,08,12,060,26,13,07,289,25*7D
2017-05-25T16:05:36 -->> $GPGSV,4,4,14,06,06,209,,193,,,32*7D
2017-05-25T16:05:37 -->> $GLGSV,2,1,07,73,82,140,25,84,56,267,,83,47,014,25,74,35,332,21*6F
2017-05-25T16:05:37 -->> $GLGSV,2,2,07,80,30,150,,85,10,235,,82,01,040,*5A
2017-05-25T16:05:37 -->> $GNRMC,080538.000,A,3032.8995,N,10403.6131,E,0.00,345.30,250517,,,A*7F
2017-05-25T16:05:37 -->> $GNVTG,345.30,T,,M,0.00,N,0.00,K,A*22
2017-05-25T16:05:37 -->> $GNGGA,080539.000,3032.8995,N,10403.6131,E,1,11,0.94,537.1,M,-31.9,M,,*52
2017-05-25T16:05:37 -->> $GPGSA,A,3,19,30,08,01,11,07,17,28,,,,,1.24,0.94,0.81*08
2017-05-25T16:05:37 -->> $GLGSA,A,3,83,73,74,,,,,,,,,,1.24,0.94,0.81*11
2017-05-25T16:05:37 -->> $GPGSV,4,1,14,30,64,233,37,01,60,063,34,28,55,341,27,11,46,045,35*77
2017-05-25T16:05:37 -->> $GPGSV,4,2,14,17,41,277,36,07,38,178,27,44,35,237,,19,21,260,31*74
2017-05-25T16:05:37 -->> $GPGSV,4,3,14,22,20,100,35,03,16,129,27,08,12,060,26,13,07,289,25*7D
2017-05-25T16:05:38 -->> $GPGSV,4,4,14,06,06,209,,193,,,32*7D
2017-05-25T16:05:38 -->> $GLGSV,2,1,07,73,82,140,25,84,56,267,,83,47,014,25,74,35,332,21*6F
2017-05-25T16:05:38 -->> $GLGSV,2,2,07,80,30,150,,85,10,235,,82,01,040,*5A
2017-05-25T16:05:38 -->> $GNRMC,080539.000,A,3032.8995,N,10403.6131,E,0.00,345.30,250517,,,A*7E
2017-05-25T16:05:38 -->> $GNVTG,345.30,T,,M,0.00,N,0.00,K,A*22
2017-05-25T16:05:38 -->> $GNGGA,080540.000,3032.8995,N,10403.6131,E,1,11,0.94,537.1,M,-31.9,M,,*5C
2017-05-25T16:05:38 -->> $GPGSA,A,3,19,30,08,01,11,07,17,28,,,,,1.24,0.94,0.81*08
2017-05-25T16:05:38 -->> $GLGSA,A,3,83,73,74,,,,,,,,,,1.24,0.94,0.81*11
2017-05-25T16:05:38 -->> $GPGSV,4,1,14,30,64,233,37,01,60,063,34,28,55,341,27,11,46,045,35*77
2017-05-25T16:05:38 -->> $GPGSV,4,2,14,17,41,277,36,07,38,178,29,44,35,237,,19,21,260,31*7A
2017-05-25T16:05:38 -->> $GPGSV,4,3,14,22,20,100,35,03,16,129,27,08,12,060,26,13,07,289,25*7D
2017-05-25T16:05:38 -->> $GPGSV,4,4,14,06,06,209,,193,,,32*7D
2017-05-25T16:05:39 -->> $GLGSV,2,1,07,73,82,140,25,84,56,267,,83,47,014,25,74,35,332,21*6F
2017-05-25T16:05:39 -->> $GLGSV,2,2,07,80,30,150,,85,10,235,,82,01,040,*5A
2017-05-25T16:05:39 -->> $GNRMC,080540.000,A,3032.8995,N,10403.6131,E,0.00,345.30,250517,,,A*70
2017-05-25T16:05:39 -->> $GNVTG,345.30,T,,M,0.00,N,0.00,K,A*22
2017-05-25T16:05:39 -->> $GNGGA,080541.000,3032.8995,N,10403.6131,E,1,11,0.94,537.1,M,-31.9,M,,*5D
2017-05-25T16:05:39 -->> $GPGSA,A,3,19,30,08,01,11,07,17,28,,,,,1.24,0.94,0.81*08
2017-05-25T16:05:39 -->> $GLGSA,A,3,83,73,74,,,,,,,,,,1.24,0.94,0.81*11
2017-05-25T16:05:39 -->> $GPGSV,4,1,14,30,64,233,37,01,60,063,34,28,55,341,27,11,46,045,36*74
2017-05-25T16:05:39 -->> $GPGSV,4,2,14,17,41,277,36,07,38,178,28,44,35,237,,19,21,260,31*7B
2017-05-25T16:05:39 -->> $GPGSV,4,3,14,22,20,100,35,03,16,129,27,08,12,060,26,13,07,289,25*7D
2017-05-25T16:05:39 -->> $GPGSV,4,4,14,06,06,209,,193,,,31*7E
2017-05-25T16:05:40 -->> $GLGSV,2,1,07,73,82,140,25,84,56,267,,83,47,014,25,74,35,332,21*6F
2017-05-25T16:05:40 -->> $GLGSV,2,2,07,80,30,150,,85,10,235,,82,01,040,*5A
2017-05-25T16:05:40 -->> $GNRMC,080541.000,A,3032.8995,N,10403.6131,E,0.00,345.30,250517,,,A*71
2017-05-25T16:05:40 -->> $GNVTG,345.30,T,,M,0.00,N,0.00,K,A*22
2017-05-25T16:05:40 -->> $GNGGA,080542.000,3032.8995,N,10403.6131,E,1,11,0.94,537.1,M,-31.9,M,,*5E
2017-05-25T16:05:40 -->> $GPGSA,A,3,19,30,08,01,11,07,17,28,,,,,1.24,0.94,0.81*08
2017-05-25T16:05:40 -->> $GLGSA,A,3,83,73,74,,,,,,,,,,1.24,0.94,0.81*11
2017-05-25T16:05:40 -->> $GPGSV,4,1,14,30,64,233,37,01,60,063,34,28,55,341,27,11,46,045,36*74
2017-05-25T16:05:40 -->> $GPGSV,4,2,14,17,41,277,36,07,38,178,28,44,35,237,,19,21,260,31*7B
2017-05-25T16:05:40 -->> $GPGSV,4,3,14,22,20,100,35,03,16,129,27,08,12,060,26,13,07,289,25*7D
2017-05-25T16:05:40 -->> $GPGSV,4,4,14,06,06,209,,193,,,31*7E
2017-05-25T16:05:41 -->> $GLGSV,2,1,07,73,82,140,25,84,56,267,,83,47,014,25,74,35,332,21*6F
2017-05-25T16:05:41 -->> $GLGSV,2,2,07,80,30,150,,85,10,235,,82,01,040,*5A
2017-05-25T16:05:41 -->> $GNRMC,080542.000,A,3032.8995,N,10403.6131,E,0.00,345.30,250517,,,A*72
2017-05-25T16:05:41 -->> $GNVTG,345.30,T,,M,0.00,N,0.00,K,A*22
2017-05-25T16:05:41 -->> $GNGGA,080543.000,3032.8995,N,10403.6131,E,1,11,0.94,537.1,M,-31.9,M,,*5F
2017-05-25T16:05:41 -->> $GPGSA,A,3,19,30,08,01,11,07,17,28,,,,,1.24,0.94,0.81*08
2017-05-25T16:05:41 -->> $GLGSA,A,3,83,73,74,,,,,,,,,,1.24,0.94,0.81*11
2017-05-25T16:05:41 -->> $GPGSV,4,1,14,30,64,233,37,01,60,063,34,28,55,341,27,11,46,045,36*74
2017-05-25T16:05:41 -->> $GPGSV,4,2,14,17,41,277,36,07,38,178,28,40,34,238,,19,21,260,31*71
2017-05-25T16:05:41 -->> $GPGSV,4,3,14,22,20,100,35,03,16,129,27,08,12,060,26,13,07,289,25*7D
2017-05-25T16:05:42 -->> $GPGSV,4,4,14,06,06,209,,193,,,31*7E
2017-05-25T16:05:42 -->> $GLGSV,2,1,07,73,82,140,25,84,56,267,,83,47,014,25,74,35,332,21*6F
2017-05-25T16:05:42 -->> $GLGSV,2,2,07,80,30,150,,85,10,235,,82,01,040,*5A
2017-05-25T16:05:42 -->> $GNRMC,080543.000,A,3032.8995,N,10403.6131,E,0.00,345.30,250517,,,A*73
2017-05-25T16:05:42 -->> $GNVTG,345.30,T,,M,0.00,N,0.00,K,A*22
2017-05-25T16:05:42 -->> $GNGGA,080544.000,3032.8995,N,10403.6131,E,1,11,0.94,537.1,M,-31.9,M,,*58
2017-05-25T16:05:42 -->> $GPGSA,A,3,19,30,08,01,11,07,17,28,,,,,1.24,0.94,0.81*08
2017-05-25T16:05:42 -->> $GLGSA,A,3,83,73,74,,,,,,,,,,1.24,0.94,0.81*11
2017-05-25T16:05:42 -->> $GPGSV,4,1,14,30,64,233,37,01,60,063,33,28,55,341,27,11,46,045,36*73
2017-05-25T16:05:42 -->> $GPGSV,4,2,14,17,41,277,36,07,38,178,27,40,34,238,,19,21,260,31*7E
2017-05-25T16:05:42 -->> $GPGSV,4,3,14,22,20,100,35,03,16,129,27,08,12,060,26,13,07,289,25*7D
2017-05-25T16:05:42 -->> $GPGSV,4,4,14,06,06,209,,193,,,31*7E
2017-05-25T16:05:43 -->> $GLGSV,2,1,07,73,82,140,25,84,56,267,,83,47,014,25,74,35,332,21*6F
2017-05-25T16:05:43 -->> $GLGSV,2,2,07,80,30,150,,85,10,235,,82,01,040,*5A
2017-05-25T16:05:43 -->> $GNRMC,080544.000,A,3032.8995,N,10403.6131,E,0.00,345.30,250517,,,A*74
2017-05-25T16:05:43 -->> $GNVTG,345.30,T,,M,0.00,N,0.00,K,A*22
2017-05-25T16:05:43 -->> $GNGGA,080545.000,3032.8995,N,10403.6131,E,1,11,0.94,537.1,M,-31.9,M,,*59
2017-05-25T16:05:43 -->> $GPGSA,A,3,19,30,08,01,11,07,17,28,,,,,1.24,0.94,0.81*08
2017-05-25T16:05:43 -->> $GLGSA,A,3,83,73,74,,,,,,,,,,1.24,0.94,0.81*11
2017-05-25T16:05:43 -->> $GPGSV,4,1,14,30,64,233,37,01,60,063,33,28,55,341,27,11,46,045,34*71
2017-05-25T16:05:43 -->> $GPGSV,4,2,14,17,41,277,36,07,38,178,27,40,34,238,,19,21,260,31*7E
2017-05-25T16:05:43 -->> $GPGSV,4,3,14,22,20,100,35,03,16,129,26,08,12,060,26,13,07,289,25*7C
2017-05-25T16:05:43 -->> $GPGSV,4,4,14,06,06,209,,193,,,31*7E
2017-05-25T16:05:44 -->> $GLGSV,2,1,07,73,82,140,25,84,56,267,,83,47,014,25,74,35,332,21*6F
2017-05-25T16:05:44 -->> $GLGSV,2,2,07,80,30,150,,85,10,235,,82,01,040,*5A
2017-05-25T16:05:44 -->> $GNRMC,080545.000,A,3032.8995,N,10403.6131,E,0.00,345.30,250517,,,A*75
2017-05-25T16:05:44 -->> $GNVTG,345.30,T,,M,0.00,N,0.00,K,A*22
2017-05-25T16:05:44 -->> $GNGGA,080546.000,3032.8995,N,10403.6131,E,1,11,0.94,537.1,M,-31.9,M,,*5A
2017-05-25T16:05:44 -->> $GPGSA,A,3,19,30,08,01,11,07,17,28,,,,,1.24,0.94,0.81*08
2017-05-25T16:05:44 -->> $GLGSA,A,3,83,73,74,,,,,,,,,,1.24,0.94,0.81*11
2017-05-25T16:05:44 -->> $GPGSV,4,1,14,30,64,233,37,01,60,063,34,28,56,342,27,11,46,045,34*76
2017-05-25T16:05:44 -->> $GPGSV,4,2,14,17,41,277,36,07,38,178,27,40,34,238,,19,21,260,31*7E
2017-05-25T16:05:44 -->> $GPGSV,4,3,14,22,20,100,35,03,16,129,26,08,12,060,26,13,07,289,24*7D
2017-05-25T16:05:44 -->> $GPGSV,4,4,14,06,06,209,,193,,,31*7E
2017-05-25T16:05:45 -->> $GLGSV,2,1,07,73,82,140,25,84,56,267,,83,47,014,26,74,35,332,21*6C
2017-05-25T16:05:45 -->> $GLGSV,2,2,07,80,30,150,,85,10,235,,82,01,040,*5A
2017-05-25T16:05:45 -->> $GNRMC,080546.000,A,3032.8995,N,10403.6131,E,0.00,345.30,250517,,,A*76
2017-05-25T16:05:45 -->> $GNVTG,345.30,T,,M,0.00,N,0.00,K,A*22
2017-05-25T16:05:45 -->> $GNGGA,080547.000,3032.8995,N,10403.6131,E,1,11,0.94,537.1,M,-31.9,M,,*5B
2017-05-25T16:05:45 -->> $GPGSA,A,3,19,30,08,01,11,07,17,28,,,,,1.24,0.94,0.81*08
2017-05-25T16:05:45 -->> $GLGSA,A,3,83,73,74,,,,,,,,,,1.24,0.94,0.81*11
2017-05-25T16:05:45 -->> $GPGSV,4,1,14,30,64,233,37,01,60,063,34,28,56,342,27,11,46,045,34*76
2017-05-25T16:05:45 -->> $GPGSV,4,2,14,17,41,277,36,07,38,178,27,40,34,238,,19,21,260,31*7E
2017-05-25T16:05:45 -->> $GPGSV,4,3,14,22,20,100,35,03,16,129,26,08,12,060,25,13,07,289,24*7E
2017-05-25T16:05:45 -->> $GPGSV,4,4,14,06,06,209,,193,,,31*7E
2017-05-25T16:05:46 -->> $GLGSV,2,1,07,73,82,140,26,84,56,267,,83,47,014,26,74,35,332,21*6F
2017-05-25T16:05:46 -->> $GLGSV,2,2,07,80,30,150,,85,10,235,,82,01,040,*5A
2017-05-25T16:05:46 -->> $GNRMC,080547.000,A,3032.8995,N,10403.6131,E,0.00,345.30,250517,,,A*77
2017-05-25T16:05:46 -->> $GNVTG,345.30,T,,M,0.00,N,0.00,K,A*22
2017-05-25T16:05:46 -->> $GNGGA,080548.000,3032.8995,N,10403.6131,E,1,11,0.94,537.1,M,-31.9,M,,*54
2017-05-25T16:05:46 -->> $GPGSA,A,3,19,30,08,01,11,07,17,28,,,,,1.24,0.94,0.81*08
2017-05-25T16:05:46 -->> $GLGSA,A,3,83,73,74,,,,,,,,,,1.24,0.94,0.81*11
2017-05-25T16:05:46 -->> $GPGSV,4,1,14,30,64,232,37,01,60,063,34,28,56,342,27,11,46,045,34*77
2017-05-25T16:05:46 -->> $GPGSV,4,2,14,17,41,277,36,07,38,178,27,40,34,238,30,19,21,260,31*7D
2017-05-25T16:05:46 -->> $GPGSV,4,3,14,22,20,100,35,03,16,129,27,08,12,060,25,13,07,289,24*7F
2017-05-25T16:05:46 -->> $GPGSV,4,4,14,06,06,209,,193,,,31*7E
2017-05-25T16:05:47 -->> $GLGSV,2,1,07,73,82,140,26,84,56,267,,83,47,014,26,74,35,332,21*6F
2017-05-25T16:05:47 -->> $GLGSV,2,2,07,80,30,150,,85,10,235,,82,01,040,*5A
2017-05-25T16:05:47 -->> $GNRMC,080548.000,A,3032.8995,N,10403.6131,E,0.00,345.30,250517,,,A*78
2017-05-25T16:05:47 -->> $GNVTG,345.30,T,,M,0.00,N,0.00,K,A*22
2017-05-25T16:05:47 -->> $GNGGA,080549.000,3032.8995,N,10403.6131,E,1,11,0.94,537.1,M,-31.9,M,,*55
2017-05-25T16:05:47 -->> $GPGSA,A,3,19,30,08,01,11,07,17,28,,,,,1.24,0.94,0.81*08
2017-05-25T16:05:47 -->> $GLGSA,A,3,83,73,74,,,,,,,,,,1.24,0.94,0.81*11
2017-05-25T16:05:47 -->> $GPGSV,4,1,14,30,64,232,37,01,60,063,34,28,56,342,27,11,46,045,35*76
2017-05-25T16:05:47 -->> $GPGSV,4,2,14,17,41,277,36,07,38,178,27,40,34,238,30,19,21,260,31*7D
2017-05-25T16:05:47 -->> $GPGSV,4,3,14,22,20,100,35,03,16,129,27,08,12,060,25,13,07,289,24*7F
2017-05-25T16:05:48 -->> $GPGSV,4,4,14,06,06,209,,193,,,31*7E
2017-05-25T16:05:48 -->> $GLGSV,2,1,07,73,82,140,26,84,56,267,,83,47,014,26,74,35,332,21*6F
2017-05-25T16:05:48 -->> $GLGSV,2,2,07,80,30,150,,85,10,235,,82,01,040,*5A
2017-05-25T16:05:48 -->> $GNRMC,080549.000,A,3032.8995,N,10403.6131,E,0.00,345.30,250517,,,A*79
2017-05-25T16:05:48 -->> $GNVTG,345.30,T,,M,0.00,N,0.00,K,A*22
2017-05-25T16:05:48 -->> $GNGGA,080550.000,3032.8995,N,10403.6131,E,1,11,0.94,537.1,M,-31.9,M,,*5D
2017-05-25T16:05:48 -->> $GPGSA,A,3,19,30,08,01,11,07,17,28,,,,,1.24,0.94,0.81*08
2017-05-25T16:05:48 -->> $GLGSA,A,3,83,73,74,,,,,,,,,,1.24,0.94,0.81*11
2017-05-25T16:05:48 -->> $GPGSV,4,1,14,30,64,232,37,01,60,063,34,28,56,342,27,11,46,045,35*76
2017-05-25T16:05:48 -->> $GPGSV,4,2,14,17,41,277,36,07,38,178,27,40,34,238,30,19,21,260,31*7D
2017-05-25T16:05:48 -->> $GPGSV,4,3,14,22,20,100,34,03,16,129,27,08,12,060,25,13,07,289,24*7E
2017-05-25T16:05:49 -->> $GPGSV,4,4,14,06,06,209,,193,,,31*7E
2017-05-25T16:05:49 -->> $GLGSV,2,1,07,73,82,140,26,84,56,267,,83,47,014,26,74,35,332,21*6F
2017-05-25T16:05:49 -->> $GLGSV,2,2,07,80,30,150,,85,10,235,,82,01,040,*5A
2017-05-25T16:05:49 -->> $GNRMC,080550.000,A,3032.8995,N,10403.6131,E,0.00,345.30,250517,,,A*71
2017-05-25T16:05:49 -->> $GNVTG,345.30,T,,M,0.00,N,0.00,K,A*22
2017-05-25T16:05:49 -->> $GNGGA,080551.000,3032.8995,N,10403.6131,E,1,11,0.94,537.1,M,-31.9,M,,*5C
2017-05-25T16:05:49 -->> $GPGSA,A,3,19,30,08,01,11,07,17,28,,,,,1.24,0.94,0.81*08
2017-05-25T16:05:49 -->> $GLGSA,A,3,83,73,74,,,,,,,,,,1.24,0.94,0.81*11
2017-05-25T16:05:49 -->> $GPGSV,4,1,14,30,64,232,37,01,60,063,34,28,56,342,27,11,46,045,35*76
2017-05-25T16:05:49 -->> $GPGSV,4,2,14,17,41,277,36,07,38,178,26,40,34,238,29,19,21,260,31*74
2017-05-25T16:05:49 -->> $GPGSV,4,3,14,22,20,100,33,03,16,129,26,08,12,060,25,13,07,289,24*78
2017-05-25T16:05:50 -->> $GPGSV,4,4,14,06,06,209,,193,,,31*7E
2017-05-25T16:05:50 -->> $GLGSV,2,1,07,73,82,140,26,84,56,267,,83,47,014,26,74,35,332,21*6F
2017-05-25T16:05:50 -->> $GLGSV,2,2,07,80,30,150,,85,10,235,,82,01,040,*5A
2017-05-25T16:05:50 -->> $GNRMC,080551.000,A,3032.8995,N,10403.6131,E,0.00,345.30,250517,,,A*70
2017-05-25T16:05:50 -->> $GNVTG,345.30,T,,M,0.00,N,0.00,K,A*22
2017-05-25T16:05:50 -->> $GNGGA,080552.000,3032.8995,N,10403.6131,E,1,11,0.94,537.1,M,-31.9,M,,*5F
2017-05-25T16:05:50 -->> $GPGSA,A,3,19,30,08,01,11,07,17,28,,,,,1.24,0.94,0.81*08
2017-05-25T16:05:50 -->> $GLGSA,A,3,83,73,74,,,,,,,,,,1.24,0.94,0.81*11
2017-05-25T16:05:50 -->> $GPGSV,4,1,14,30,64,232,37,01,60,063,34,28,56,342,28,11,46,045,35*79
2017-05-25T16:05:50 -->> $GPGSV,4,2,14,17,41,277,36,07,38,178,27,40,34,238,29,19,21,260,31*75
2017-05-25T16:05:50 -->> $GPGSV,4,3,14,22,20,100,33,03,16,129,26,08,12,060,25,13,07,289,24*78
2017-05-25T16:05:51 -->> $GPGSV,4,4,14,06,06,209,,193,,,31*7E
2017-05-25T16:05:51 -->> $GLGSV,2,1,07,73,82,140,26,84,56,267,,83,47,014,26,74,35,332,20*6E
2017-05-25T16:05:51 -->> $GLGSV,2,2,07,80,30,150,,85,10,235,,82,01,040,*5A
2017-05-25T16:05:51 -->> $GNRMC,080552.000,A,3032.8995,N,10403.6131,E,0.00,345.30,250517,,,A*73
2017-05-25T16:05:51 -->> $GNVTG,345.30,T,,M,0.00,N,0.00,K,A*22
2017-05-25T16:05:51 -->> $GNGGA,080553.000,3032.8995,N,10403.6131,E,1,11,0.94,537.1,M,-31.9,M,,*5E
2017-05-25T16:05:51 -->> $GPGSA,A,3,19,30,08,01,11,07,17,28,,,,,1.24,0.94,0.81*08
2017-05-25T16:05:51 -->> $GLGSA,A,3,83,73,74,,,,,,,,,,1.24,0.94,0.81*11
2017-05-25T16:05:51 -->> $GPGSV,4,1,14,30,64,232,37,01,60,063,34,28,56,342,28,11,46,045,35*79
2017-05-25T16:05:51 -->> $GPGSV,4,2,14,17,41,277,36,07,38,178,27,40,34,238,29,19,21,260,31*75
2017-05-25T16:05:51 -->> $GPGSV,4,3,14,22,20,100,33,03,16,129,26,08,12,060,25,13,07,289,25*79
2017-05-25T16:05:52 -->> $GPGSV,4,4,14,06,06,209,,193,,,32*7D
2017-05-25T16:05:52 -->> $GLGSV,2,1,07,73,82,140,26,84,56,267,,83,47,014,26,74,35,332,20*6E
2017-05-25T16:05:52 -->> $GLGSV,2,2,07,80,30,150,,85,10,235,,82,01,040,*5A
2017-05-25T16:05:52 -->> $GNRMC,080553.000,A,3032.8995,N,10403.6131,E,0.00,345.30,250517,,,A*72
2017-05-25T16:05:52 -->> $GNVTG,345.30,T,,M,0.00,N,0.00,K,A*22
2017-05-25T16:05:52 -->> $GNGGA,080554.000,3032.8995,N,10403.6131,E,1,11,0.94,537.1,M,-31.9,M,,*59
2017-05-25T16:05:52 -->> $GPGSA,A,3,19,30,08,01,11,07,17,28,,,,,1.24,0.94,0.81*08
2017-05-25T16:05:52 -->> $GLGSA,A,3,83,73,74,,,,,,,,,,1.24,0.94,0.81*11
2017-05-25T16:05:52 -->> $GPGSV,4,1,14,30,64,232,37,01,60,063,34,28,56,342,29,11,46,045,35*78
2017-05-25T16:05:52 -->> $GPGSV,4,2,14,17,41,277,36,07,38,178,27,40,34,238,29,19,21,260,31*75
2017-05-25T16:05:52 -->> $GPGSV,4,3,14,22,20,100,33,03,16,129,26,08,12,060,25,13,07,289,25*79
2017-05-25T16:05:53 -->> $GPGSV,4,4,14,06,06,209,,193,,,31*7E
2017-05-25T16:05:53 -->> $GLGSV,2,1,07,73,82,140,26,84,56,267,,83,47,014,26,74,35,332,19*64
2017-05-25T16:05:53 -->> $GLGSV,2,2,07,80,30,150,,85,10,235,,82,01,040,*5A
2017-05-25T16:05:53 -->> $GNRMC,080554.000,A,3032.8995,N,10403.6131,E,0.00,345.30,250517,,,A*75
2017-05-25T16:05:53 -->> $GNVTG,345.30,T,,M,0.00,N,0.00,K,A*22
2017-05-25T16:05:53 -->> $GNGGA,080555.000,3032.8995,N,10403.6131,E,1,13,0.78,537.1,M,-31.9,M,,*58
2017-05-25T16:05:53 -->> $GPGSA,A,3,19,30,08,01,11,22,03,07,17,28,,,1.10,0.78,0.77*07
2017-05-25T16:05:53 -->> $GLGSA,A,3,83,73,74,,,,,,,,,,1.10,0.78,0.77*1D
2017-05-25T16:05:53 -->> $GPGSV,4,1,14,30,64,232,37,01,60,063,34,28,56,342,29,11,46,045,35*78
2017-05-25T16:05:53 -->> $GPGSV,4,2,14,17,41,277,36,07,38,178,27,40,34,238,29,19,21,260,31*75
2017-05-25T16:05:54 -->> $GPGSV,4,3,14,22,20,100,33,03,16,129,26,08,12,060,25,13,07,289,25*79
2017-05-25T16:05:54 -->> $GPGSV,4,4,14,06,06,209,,193,,,31*7E
2017-05-25T16:05:54 -->> $GLGSV,2,1,07,73,82,140,26,84,56,267,,83,47,014,26,74,35,332,19*64
2017-05-25T16:05:54 -->> $GLGSV,2,2,07,80,30,150,,85,10,235,,82,01,040,*5A
2017-05-25T16:05:54 -->> $GNRMC,080555.000,A,3032.8995,N,10403.6131,E,0.00,345.30,250517,,,A*74
2017-05-25T16:05:54 -->> $GNVTG,345.30,T,,M,0.00,N,0.00,K,A*22
2017-05-25T16:05:54 -->> $GNGGA,080556.000,3032.8995,N,10403.6131,E,1,13,0.78,537.1,M,-31.9,M,,*5B
2017-05-25T16:05:54 -->> $GPGSA,A,3,19,30,01,11,22,03,07,17,08,28,,,1.10,0.78,0.77*07
2017-05-25T16:05:54 -->> $GLGSA,A,3,83,73,74,,,,,,,,,,1.10,0.78,0.77*1D
2017-05-25T16:05:54 -->> $GPGSV,4,1,14,30,64,232,37,01,60,063,34,28,56,342,29,11,46,045,35*78
2017-05-25T16:05:54 -->> $GPGSV,4,2,14,17,41,277,37,07,38,178,27,40,34,238,29,19,21,260,31*74
2017-05-25T16:05:54 -->> $GPGSV,4,3,14,22,20,100,33,03,16,129,26,08,12,060,25,13,07,289,26*7A
2017-05-25T16:05:54 -->> $GPGSV,4,4,14,06,06,209,,193,,,31*7E
2017-05-25T16:05:55 -->> $GLGSV,2,1,07,73,82,140,26,84,56,267,,83,47,014,26,74,35,332,18*65
2017-05-25T16:05:55 -->> $GLGSV,2,2,07,80,30,150,,85,10,235,,82,01,040,*5A
2017-05-25T16:05:55 -->> $GNRMC,080556.000,A,3032.8995,N,10403.6131,E,0.00,345.30,250517,,,A*77
2017-05-25T16:05:55 -->> $GNVTG,345.30,T,,M,0.00,N,0.00,K,A*22
2017-05-25T16:05:55 -->> $GNGGA,080557.000,3032.8995,N,10403.6131,E,1,13,0.78,537.1,M,-31.9,M,,*5A
2017-05-25T16:05:55 -->> $GPGSA,A,3,19,30,01,11,22,03,07,17,08,28,,,1.10,0.78,0.77*07
2017-05-25T16:05:55 -->> $GLGSA,A,3,83,73,74,,,,,,,,,,1.10,0.78,0.77*1D
2017-05-25T16:05:55 -->> $GPGSV,4,1,14,30,64,232,37,01,60,063,35,28,56,342,29,11,46,045,34*78
2017-05-25T16:05:55 -->> $GPGSV,4,2,14,17,41,277,37,07,38,178,27,40,34,238,28,19,21,260,31*75
2017-05-25T16:05:55 -->> $GPGSV,4,3,14,22,20,100,33,03,16,129,26,08,12,060,24,13,07,289,29*74
2017-05-25T16:05:56 -->> $GPGSV,4,4,14,06,06,209,,193,,,31*7E
2017-05-25T16:05:56 -->> $GLGSV,2,1,07,73,82,140,25,84,56,267,,83,47,014,26,74,35,332,18*66
2017-05-25T16:05:56 -->> $GLGSV,2,2,07,80,30,150,,85,10,235,,82,01,040,*5A
2017-05-25T16:05:56 -->> $GNRMC,080557.000,A,3032.8995,N,10403.6131,E,0.00,345.30,250517,,,A*76
2017-05-25T16:05:56 -->> $GNVTG,345.30,T,,M,0.00,N,0.00,K,A*22
2017-05-25T16:05:56 -->> $GNGGA,080558.000,3032.8995,N,10403.6131,E,1,13,0.78,537.1,M,-31.9,M,,*55
2017-05-25T16:05:56 -->> $GPGSA,A,3,19,30,01,11,22,03,07,17,08,28,,,1.10,0.78,0.77*07
2017-05-25T16:05:56 -->> $GLGSA,A,3,83,73,74,,,,,,,,,,1.10,0.78,0.77*1D
2017-05-25T16:05:56 -->> $GPGSV,4,1,14,30,64,232,37,01,60,063,35,28,56,342,29,11,46,045,34*78
2017-05-25T16:05:56 -->> $GPGSV,4,2,14,17,41,277,37,07,38,178,27,40,34,238,28,19,21,260,31*75
2017-05-25T16:05:56 -->> $GPGSV,4,3,14,22,20,100,33,03,16,129,26,08,12,060,25,13,07,289,28*74
2017-05-25T16:05:57 -->> $GPGSV,4,4,14,06,06,209,,193,,,31*7E
2017-05-25T16:05:57 -->> $GLGSV,2,1,07,73,82,140,25,84,56,267,,83,47,014,26,74,35,332,18*66
2017-05-25T16:05:57 -->> $GLGSV,2,2,07,80,30,150,,85,10,235,,82,01,040,*5A
2017-05-25T16:05:57 -->> $GNRMC,080558.000,A,3032.8995,N,10403.6131,E,0.00,345.30,250517,,,A*79
2017-05-25T16:05:57 -->> $GNVTG,345.30,T,,M,0.00,N,0.00,K,A*22
2017-05-25T16:05:57 -->> $GNGGA,080559.000,3032.8995,N,10403.6131,E,1,13,0.78,537.1,M,-31.9,M,,*54
2017-05-25T16:05:57 -->> $GPGSA,A,3,19,30,01,11,22,03,07,17,08,28,,,1.10,0.78,0.77*07
2017-05-25T16:05:57 -->> $GLGSA,A,3,83,73,74,,,,,,,,,,1.10,0.78,0.77*1D
2017-05-25T16:05:57 -->> $GPGSV,4,1,14,30,64,232,37,01,60,063,35,28,56,342,29,11,46,045,34*78
2017-05-25T16:05:57 -->> $GPGSV,4,2,14,17,41,277,37,07,38,178,27,40,34,238,28,19,21,260,31*75
2017-05-25T16:05:57 -->> $GPGSV,4,3,14,22,20,100,33,03,16,129,25,08,12,060,25,13,07,289,29*76
2017-05-25T16:05:58 -->> $GPGSV,4,4,14,06,06,209,,193,,,31*7E
2017-05-25T16:05:58 -->> $GLGSV,2,1,07,73,82,140,26,84,56,267,,83,47,014,26,74,35,332,18*65
2017-05-25T16:05:58 -->> $GLGSV,2,2,07,80,30,150,,85,10,235,,82,01,040,*5A
2017-05-25T16:05:58 -->> $GNRMC,080559.000,A,3032.8995,N,10403.6131,E,0.00,345.30,250517,,,A*78
2017-05-25T16:05:58 -->> $GNVTG,345.30,T,,M,0.00,N,0.00,K,A*22
2017-05-25T16:05:58 -->> $GNGGA,080600.000,3032.8995,N,10403.6131,E,1,13,0.78,537.1,M,-31.9,M,,*5B
2017-05-25T16:05:58 -->> $GPGSA,A,3,19,30,01,11,22,03,07,17,08,28,,,1.10,0.78,0.77*07
2017-05-25T16:05:58 -->> $GLGSA,A,3,83,73,74,,,,,,,,,,1.10,0.78,0.77*1D
2017-05-25T16:05:58 -->> $GPGSV,4,1,14,30,64,232,37,01,60,063,35,28,56,342,29,11,46,045,34*78
2017-05-25T16:05:58 -->> $GPGSV,4,2,14,17,41,277,37,07,38,178,27,40,34,238,28,19,21,260,31*75
2017-05-25T16:05:58 -->> $GPGSV,4,3,14,22,20,100,33,03,16,129,23,08,12,060,26,13,07,289,27*7D
2017-05-25T16:05:58 -->> $GPGSV,4,4,14,06,06,209,,193,,,31*7E
2017-05-25T16:05:59 -->> $GLGSV,2,1,07,73,82,140,26,84,56,267,,83,47,014,26,74,35,332,18*65
2017-05-25T16:05:59 -->> $GLGSV,2,2,07,80,30,150,,85,10,235,,82,01,040,*5A
2017-05-25T16:05:59 -->> $GNRMC,080600.000,A,3032.8995,N,10403.6131,E,0.00,345.30,250517,,,A*77
2017-05-25T16:05:59 -->> $GNVTG,345.30,T,,M,0.00,N,0.00,K,A*22
2017-05-25T16:05:59 -->> $GNGGA,080601.000,3032.8995,N,10403.6131,E,1,14,0.75,537.1,M,-31.9,M,,*50
2017-05-25T16:05:59 -->> $GPGSA,A,3,193,19,30,01,11,22,03,07,17,08,28,,1.07,0.75,0.77*37
2017-05-25T16:05:59 -->> $GLGSA,A,3,83,73,74,,,,,,,,,,1.07,0.75,0.77*16
2017-05-25T16:05:59 -->> $GPGSV,4,1,14,30,64,232,37,01,60,063,35,28,56,342,29,11,46,045,35*79
2017-05-25T16:05:59 -->> $GPGSV,4,2,14,17,41,277,37,07,38,178,27,40,34,238,28,19,21,260,32*76
2017-05-25T16:06:00 -->> $GPGSV,4,3,14,22,20,100,33,03,16,129,24,08,12,060,25,13,07,289,28*76
2017-05-25T16:06:00 -->> $GPGSV,4,4,14,06,06,209,,193,,,31*7E
2017-05-25T16:06:00 -->> $GLGSV,2,1,07,73,82,140,26,84,56,267,,83,47,014,26,74,35,332,18*65
2017-05-25T16:06:00 -->> $GLGSV,2,2,07,80,30,150,,85,10,235,,82,01,040,*5A
2017-05-25T16:06:00 -->> $GNRMC,080601.000,A,3032.8995,N,10403.6131,E,0.00,345.30,250517,,,A*76
2017-05-25T16:06:00 -->> $GNVTG,345.30,T,,M,0.00,N,0.00,K,A*22
2017-05-25T16:06:00 -->> $GNGGA,080602.000,3032.8995,N,10403.6131,E,1,14,0.75,537.1,M,-31.9,M,,*53
2017-05-25T16:06:00 -->> $GPGSA,A,3,193,19,30,01,11,22,03,07,17,08,28,,1.07,0.75,0.77*37
2017-05-25T16:06:00 -->> $GLGSA,A,3,83,73,74,,,,,,,,,,1.07,0.75,0.77*16
2017-05-25T16:06:00 -->> $GPGSV,4,1,14,30,64,232,37,01,60,063,35,28,56,342,29,11,46,045,35*79
2017-05-25T16:06:00 -->> $GPGSV,4,2,14,17,41,277,37,07,38,178,27,40,34,238,28,19,21,260,32*76
2017-05-25T16:06:01 -->> $GPGSV,4,3,14,22,20,100,33,03,16,129,25,08,12,060,25,13,07,289,28*77
2017-05-25T16:06:01 -->> $GPGSV,4,4,14,06,06,209,,193,,,31*7E
2017-05-25T16:06:01 -->> $GLGSV,2,1,07,73,82,140,26,84,56,267,,83,47,014,26,74,35,332,18*65
2017-05-25T16:06:01 -->> $GLGSV,2,2,07,80,30,150,,85,10,235,,82,01,040,*5A
2017-05-25T16:06:01 -->> $GNRMC,080602.000,A,3032.8995,N,10403.6131,E,0.00,345.30,250517,,,A*75
2017-05-25T16:06:01 -->> $GNVTG,345.30,T,,M,0.00,N,0.00,K,A*22
2017-05-25T16:06:01 -->> $GNGGA,080603.000,3032.8995,N,10403.6131,E,1,14,0.75,537.1,M,-31.9,M,,*52
2017-05-25T16:06:01 -->> $GPGSA,A,3,193,19,30,01,11,22,03,07,17,08,28,,1.07,0.75,0.77*37
2017-05-25T16:06:01 -->> $GLGSA,A,3,83,73,74,,,,,,,,,,1.07,0.75,0.77*16
2017-05-25T16:06:01 -->> $GPGSV,4,1,14,30,64,232,37,01,60,063,35,28,56,342,29,11,46,045,36*7A
2017-05-25T16:06:01 -->> $GPGSV,4,2,14,17,41,277,37,07,38,178,27,40,34,238,28,19,21,260,32*76
2017-05-25T16:06:02 -->> $GPGSV,4,3,14,22,20,100,33,03,16,129,25,08,12,060,25,13,07,289,28*77
2017-05-25T16:06:02 -->> $GPGSV,4,4,14,06,06,209,,193,,,31*7E
2017-05-25T16:06:02 -->> $GLGSV,2,1,07,73,82,140,26,84,56,267,,83,47,014,26,74,35,332,18*65
2017-05-25T16:06:02 -->> $GLGSV,2,2,07,80,30,150,,85,10,235,,82,01,040,*5A
2017-05-25T16:06:02 -->> $GNRMC,080603.000,A,3032.8995,N,10403.6131,E,0.00,345.30,250517,,,A*74
2017-05-25T16:06:02 -->> $GNVTG,345.30,T,,M,0.00,N,0.00,K,A*22
2017-05-25T16:06:02 -->> $GNGGA,080604.000,3032.8995,N,10403.6131,E,1,14,0.75,537.1,M,-31.9,M,,*55
2017-05-25T16:06:02 -->> $GPGSA,A,3,193,19,30,01,11,22,03,07,17,08,28,,1.07,0.75,0.77*37
2017-05-25T16:06:02 -->> $GLGSA,A,3,83,73,74,,,,,,,,,,1.07,0.75,0.77*16
2017-05-25T16:06:02 -->> $GPGSV,4,1,14,30,64,232,37,01,60,063,35,28,56,342,29,11,46,045,36*7A
2017-05-25T16:06:02 -->> $GPGSV,4,2,14,17,41,277,37,07,38,178,27,40,34,238,28,19,21,260,32*76
2017-05-25T16:06:02 -->> $GPGSV,4,3,14,22,20,100,33,03,16,129,25,08,12,060,25,13,07,289,28*77
2017-05-25T16:06:03 -->> $GPGSV,4,4,14,06,06,209,,193,,,31*7E
2017-05-25T16:06:03 -->> $GLGSV,2,1,07,73,82,140,27,84,56,267,,83,47,014,26,74,35,332,18*64
2017-05-25T16:06:03 -->> $GLGSV,2,2,07,80,30,150,,85,10,235,,82,01,040,*5A
2017-05-25T16:06:03 -->> $GNRMC,080604.000,A,3032.8995,N,10403.6131,E,0.00,345.30,250517,,,A*73
2017-05-25T16:06:03 -->> $GNVTG,345.30,T,,M,0.00,N,0.00,K,A*22
2017-05-25T16:06:03 -->> $GNGGA,080605.000,3032.8995,N,10403.6131,E,1,14,0.75,537.1,M,-31.9,M,,*54
2017-05-25T16:06:03 -->> $GPGSA,A,3,193,19,30,01,11,22,03,07,17,08,28,,1.07,0.75,0.77*37
2017-05-25T16:06:03 -->> $GLGSA,A,3,83,73,74,,,,,,,,,,1.07,0.75,0.77*16
2017-05-25T16:06:03 -->> $GPGSV,4,1,14,30,64,232,37,01,60,063,35,28,56,342,29,11,46,045,36*7A
2017-05-25T16:06:03 -->> $GPGSV,4,2,14,17,41,277,37,07,38,178,27,40,34,238,28,19,21,260,32*76
2017-05-25T16:06:03 -->> $GPGSV,4,3,14,22,20,100,33,03,16,129,24,08,12,060,25,13,07,289,28*76
2017-05-25T16:06:04 -->> $GPGSV,4,4,14,06,06,209,,193,,,31*7E
2017-05-25T16:06:04 -->> $GLGSV,2,1,07,73,82,140,27,84,56,267,,83,47,014,26,74,35,332,18*64
2017-05-25T16:06:04 -->> $GLGSV,2,2,07,80,30,150,,85,10,235,,82,01,040,*5A
2017-05-25T16:06:04 -->> $GNRMC,080605.000,A,3032.8995,N,10403.6131,E,0.00,345.30,250517,,,A*72
2017-05-25T16:06:04 -->> $GNVTG,345.30,T,,M,0.00,N,0.00,K,A*22
2017-05-25T16:06:04 -->> $GNGGA,080606.000,3032.8995,N,10403.6131,E,1,14,0.75,537.1,M,-31.9,M,,*57
2017-05-25T16:06:04 -->> $GPGSA,A,3,193,19,30,01,11,22,03,07,17,08,28,,1.07,0.75,0.77*37
2017-05-25T16:06:04 -->> $GLGSA,A,3,83,73,74,,,,,,,,,,1.07,0.75,0.77*16
2017-05-25T16:06:04 -->> $GPGSV,4,1,14,30,64,232,37,01,60,063,35,28,56,342,28,11,46,045,36*7B
2017-05-25T16:06:04 -->> $GPGSV,4,2,14,17,41,277,37,07,38,178,27,40,34,238,28,19,21,260,32*76
2017-05-25T16:06:04 -->> $GPGSV,4,3,14,22,20,100,32,03,16,129,22,08,12,060,25,13,07,289,28*71
2017-05-25T16:06:05 -->> $GPGSV,4,4,14,06,06,209,,193,,,32*7D
2017-05-25T16:06:05 -->> $GLGSV,2,1,07,73,82,140,27,84,56,267,,83,47,014,26,74,35,332,18*64
2017-05-25T16:06:05 -->> $GLGSV,2,2,07,80,30,150,,85,10,235,,82,01,040,*5A
2017-05-25T16:06:05 -->> $GNRMC,080606.000,A,3032.8995,N,10403.6131,E,0.00,345.30,250517,,,A*71
2017-05-25T16:06:05 -->> $GNVTG,345.30,T,,M,0.00,N,0.00,K,A*22
2017-05-25T16:06:05 -->> $GNGGA,080607.000,3032.8995,N,10403.6131,E,1,14,0.75,537.1,M,-31.9,M,,*56
2017-05-25T16:06:05 -->> $GPGSA,A,3,193,19,30,01,11,22,03,07,17,08,28,,1.07,0.75,0.77*37
2017-05-25T16:06:05 -->> $GLGSA,A,3,83,73,74,,,,,,,,,,1.07,0.75,0.77*16
2017-05-25T16:06:05 -->> $GPGSV,4,1,14,30,64,232,37,01,60,063,35,28,56,342,28,11,46,045,35*78
2017-05-25T16:06:05 -->> $GPGSV,4,2,14,17,41,277,37,07,38,178,27,40,34,238,28,19,21,260,32*76
2017-05-25T16:06:05 -->> $GPGSV,4,3,14,22,20,100,32,03,16,129,22,08,12,060,25,13,07,289,28*71
2017-05-25T16:06:06 -->> $GPGSV,4,4,14,06,06,209,,193,,,32*7D
2017-05-25T16:06:06 -->> $GLGSV,2,1,07,73,82,140,27,84,56,267,,83,47,014,26,74,35,332,18*64
2017-05-25T16:06:06 -->> $GLGSV,2,2,07,80,30,150,,85,10,235,,82,01,040,*5A
2017-05-25T16:06:06 -->> $GNRMC,080607.000,A,3032.8995,N,10403.6131,E,0.00,345.30,250517,,,A*70
2017-05-25T16:06:06 -->> $GNVTG,345.30,T,,M,0.00,N,0.00,K,A*22
2017-05-25T16:06:06 -->> $GNGGA,080608.000,3032.8995,N,10403.6131,E,1,14,0.75,537.1,M,-31.9,M,,*59
2017-05-25T16:06:06 -->> $GPGSA,A,3,193,19,30,01,11,22,03,07,17,08,28,,1.07,0.75,0.77*37
2017-05-25T16:06:06 -->> $GLGSA,A,3,83,73,74,,,,,,,,,,1.07,0.75,0.77*16
2017-05-25T16:06:06 -->> $GPGSV,4,1,14,30,64,232,37,01,60,063,34,28,56,342,28,11,46,045,35*79
2017-05-25T16:06:06 -->> $GPGSV,4,2,14,17,41,277,37,07,38,178,27,40,34,238,28,19,21,260,32*76
2017-05-25T16:06:07 -->> $GPGSV,4,3,14,22,20,100,32,03,16,129,23,08,12,060,25,13,07,289,28*70
2017-05-25T16:06:07 -->> $GPGSV,4,4,14,06,06,209,,193,,,32*7D
2017-05-25T16:06:07 -->> $GLGSV,2,1,07,73,82,140,27,84,56,267,,83,47,014,26,74,35,332,18*64
2017-05-25T16:06:07 -->> $GLGSV,2,2,07,80,30,150,,85,10,235,,82,01,040,*5A
2017-05-25T16:06:07 -->> $GNRMC,080608.000,A,3032.8995,N,10403.6131,E,0.00,345.30,250517,,,A*7F
2017-05-25T16:06:07 -->> $GNVTG,345.30,T,,M,0.00,N,0.00,K,A*22
2017-05-25T16:06:07 -->> $GNGGA,080609.000,3032.8995,N,10403.6131,E,1,14,0.76,537.1,M,-31.9,M,,*5B
2017-05-25T16:06:07 -->> $GPGSA,A,3,193,19,30,01,11,22,03,07,17,08,28,,1.43,0.76,1.21*36
2017-05-25T16:06:07 -->> $GLGSA,A,3,83,73,74,,,,,,,,,,1.43,0.76,1.21*17
2017-05-25T16:06:07 -->> $GPGSV,4,1,14,30,64,232,37,01,60,063,34,28,56,342,28,11,46,045,35*79
2017-05-25T16:06:07 -->> $GPGSV,4,2,14,17,41,277,37,07,38,178,27,40,34,238,28,19,21,260,32*76
2017-05-25T16:06:07 -->> $GPGSV,4,3,14,22,20,100,32,03,16,129,23,08,12,060,25,13,07,289,27*7F
2017-05-25T16:06:08 -->> $GPGSV,4,4,14,06,06,209,,193,,,32*7D
2017-05-25T16:06:08 -->> $GLGSV,2,1,07,73,82,140,27,84,56,267,,83,47,014,26,74,35,332,17*6B
2017-05-25T16:06:08 -->> $GLGSV,2,2,07,80,30,150,,85,10,235,,82,01,040,*5A
2017-05-25T16:06:08 -->> $GNRMC,080609.000,A,3032.8995,N,10403.6131,E,0.00,345.30,250517,,,A*7E
2017-05-25T16:06:08 -->> $GNVTG,345.30,T,,M,0.00,N,0.00,K,A*22
2017-05-25T16:06:08 -->> $GNGGA,080610.000,3032.8995,N,10403.6131,E,1,14,0.76,537.1,M,-31.9,M,,*53
2017-05-25T16:06:08 -->> $GPGSA,A,3,193,19,30,01,11,22,03,07,17,08,28,,1.43,0.76,1.21*36
2017-05-25T16:06:08 -->> $GLGSA,A,3,83,73,74,,,,,,,,,,1.43,0.76,1.21*17
2017-05-25T16:06:08 -->> $GPGSV,4,1,14,30,64,232,37,01,60,063,34,28,56,342,28,11,46,045,35*79
2017-05-25T16:06:08 -->> $GPGSV,4,2,14,17,41,277,37,07,38,178,27,40,34,238,28,19,21,260,32*76
2017-05-25T16:06:08 -->> $GPGSV,4,3,14,22,20,100,32,03,16,129,23,08,12,060,25,13,07,289,27*7F
2017-05-25T16:06:09 -->> $GPGSV,4,4,14,06,06,209,,193,,,32*7D
2017-05-25T16:06:09 -->> $GLGSV,2,1,07,73,82,140,27,84,56,267,,83,47,014,26,74,35,332,17*6B
2017-05-25T16:06:09 -->> $GLGSV,2,2,07,80,30,150,,85,10,235,,82,01,040,*5A
2017-05-25T16:06:09 -->> $GNRMC,080610.000,A,3032.8995,N,10403.6131,E,0.00,345.30,250517,,,A*76
2017-05-25T16:06:09 -->> $GNVTG,345.30,T,,M,0.00,N,0.00,K,A*22
2017-05-25T16:06:09 -->> $GNGGA,080611.000,3032.8995,N,10403.6131,E,1,14,0.76,537.1,M,-31.9,M,,*52
2017-05-25T16:06:09 -->> $GPGSA,A,3,193,19,30,01,11,22,03,07,17,08,28,,1.43,0.76,1.21*36
2017-05-25T16:06:09 -->> $GLGSA,A,3,83,73,74,,,,,,,,,,1.43,0.76,1.21*17
2017-05-25T16:06:09 -->> $GPGSV,4,1,14,30,64,232,37,01,60,063,35,28,56,342,28,11,46,045,35*78
2017-05-25T16:06:09 -->> $GPGSV,4,2,14,17,41,277,37,07,38,178,27,40,34,238,28,19,21,260,32*76
2017-05-25T16:06:09 -->> $GPGSV,4,3,14,22,20,100,32,03,16,129,23,08,12,060,24,13,07,289,27*7E
2017-05-25T16:06:10 -->> $GPGSV,4,4,14,06,06,209,,193,,,32*7D
2017-05-25T16:06:10 -->> $GLGSV,2,1,07,73,82,140,27,84,56,267,,83,47,014,26,74,35,332,17*6B
2017-05-25T16:06:10 -->> $GLGSV,2,2,07,80,30,150,,85,10,235,,82,01,040,*5A
2017-05-25T16:06:10 -->> $GNRMC,080611.000,A,3032.8995,N,10403.6131,E,0.00,345.30,250517,,,A*77
2017-05-25T16:06:10 -->> $GNVTG,345.30,T,,M,0.00,N,0.00,K,A*22
2017-05-25T16:06:10 -->> $GNGGA,080612.000,3032.8995,N,10403.6131,E,1,14,0.76,537.1,M,-31.9,M,,*51
2017-05-25T16:06:10 -->> $GPGSA,A,3,193,19,30,01,11,22,03,07,17,08,28,,1.43,0.76,1.21*36
2017-05-25T16:06:10 -->> $GLGSA,A,3,83,73,74,,,,,,,,,,1.43,0.76,1.21*17
2017-05-25T16:06:10 -->> $GPGSV,4,1,14,30,64,232,37,01,60,063,35,28,56,342,28,11,46,045,35*78
2017-05-25T16:06:10 -->> $GPGSV,4,2,14,17,41,277,37,07,38,178,27,40,34,238,28,19,21,260,32*76
2017-05-25T16:06:10 -->> $GPGSV,4,3,14,22,20,100,32,03,16,129,22,08,12,060,24,13,07,289,27*7F
2017-05-25T16:06:11 -->> $GPGSV,4,4,14,06,06,209,,193,,,32*7D
2017-05-25T16:06:11 -->> $GLGSV,2,1,07,73,82,140,27,84,56,267,,83,47,014,26,74,35,332,16*6A
2017-05-25T16:06:11 -->> $GLGSV,2,2,07,80,30,150,,85,10,235,,82,01,040,*5A
2017-05-25T16:06:11 -->> $GNRMC,080612.000,A,3032.8995,N,10403.6131,E,0.00,345.30,250517,,,A*74
2017-05-25T16:06:11 -->> $GNVTG,345.30,T,,M,0.00,N,0.00,K,A*22
2017-05-25T16:06:11 -->> $GNGGA,080613.000,3032.8995,N,10403.6131,E,1,14,0.76,537.1,M,-31.9,M,,*50
2017-05-25T16:06:11 -->> $GPGSA,A,3,193,19,30,01,11,22,03,07,17,08,28,,1.43,0.76,1.21*36
2017-05-25T16:06:11 -->> $GLGSA,A,3,83,73,74,,,,,,,,,,1.43,0.76,1.21*17
2017-05-25T16:06:11 -->> $GPGSV,4,1,14,30,64,232,37,01,60,063,35,28,56,342,28,11,46,045,35*78
2017-05-25T16:06:11 -->> $GPGSV,4,2,14,17,41,277,37,07,38,178,27,40,34,238,28,19,21,260,32*76
2017-05-25T16:06:12 -->> $GPGSV,4,3,14,22,20,100,32,03,16,129,21,08,12,060,24,13,07,289,27*7C
2017-05-25T16:06:12 -->> $GPGSV,4,4,14,06,06,209,,193,,,32*7D
2017-05-25T16:06:12 -->> $GLGSV,2,1,07,73,82,140,27,84,56,267,,83,47,014,26,74,35,332,15*69
2017-05-25T16:06:12 -->> $GLGSV,2,2,07,80,30,150,,85,10,235,,82,01,040,*5A
2017-05-25T16:06:12 -->> $GNRMC,080613.000,A,3032.8995,N,10403.6131,E,0.00,345.30,250517,,,A*75
2017-05-25T16:06:12 -->> $GNVTG,345.30,T,,M,0.00,N,0.00,K,A*22
2017-05-25T16:06:12 -->> $GNGGA,080614.000,3032.8995,N,10403.6131,E,1,14,0.76,537.1,M,-31.9,M,,*57
2017-05-25T16:06:12 -->> $GPGSA,A,3,193,19,30,01,11,22,03,07,17,08,28,,1.43,0.76,1.21*36
2017-05-25T16:06:12 -->> $GLGSA,A,3,83,73,74,,,,,,,,,,1.43,0.76,1.21*17
2017-05-25T16:06:12 -->> $GPGSV,4,1,14,30,64,232,37,01,60,063,35,28,56,342,28,11,46,045,34*79
2017-05-25T16:06:12 -->> $GPGSV,4,2,14,17,41,277,37,07,38,178,27,40,34,238,28,19,21,260,32*76
2017-05-25T16:06:12 -->> $GPGSV,4,3,14,22,20,100,32,03,16,129,21,08,12,060,24,13,07,289,26*7D
2017-05-25T16:06:13 -->> $GPGSV,4,4,14,06,06,209,,193,,,32*7D
2017-05-25T16:06:13 -->> $GLGSV,2,1,07,73,82,140,27,84,56,267,,83,47,014,26,74,35,332,16*6A
2017-05-25T16:06:13 -->> $GLGSV,2,2,07,80,30,150,,85,10,235,,82,01,040,*5A
2017-05-25T16:06:13 -->> $GNRMC,080614.000,A,3032.8995,N,10403.6131,E,0.00,345.30,250517,,,A*72
2017-05-25T16:06:13 -->> $GNVTG,345.30,T,,M,0.00,N,0.00,K,A*22
2017-05-25T16:06:13 -->> $GNGGA,080615.000,3032.8995,N,10403.6131,E,1,14,0.76,537.1,M,-31.9,M,,*56
2017-05-25T16:06:13 -->> $GPGSA,A,3,193,19,30,01,11,22,03,07,17,08,28,,1.43,0.76,1.21*36
2017-05-25T16:06:13 -->> $GLGSA,A,3,83,73,74,,,,,,,,,,1.43,0.76,1.21*17
2017-05-25T16:06:13 -->> $GPGSV,4,1,14,30,64,232,37,01,60,063,36,28,56,342,28,11,46,045,34*7A
2017-05-25T16:06:13 -->> $GPGSV,4,2,14,17,41,277,37,07,38,178,27,40,34,238,28,19,21,260,32*76
2017-05-25T16:06:13 -->> $GPGSV,4,3,14,22,20,100,32,03,16,129,20,08,12,060,24,13,07,289,26*7C
2017-05-25T16:06:14 -->> $GPGSV,4,4,14,06,06,209,,193,,,32*7D
2017-05-25T16:06:14 -->> $GLGSV,2,1,07,73,82,140,27,84,56,267,,83,47,014,26,74,35,332,16*6A
2017-05-25T16:06:14 -->> $GLGSV,2,2,07,80,30,150,,85,10,235,,82,01,040,*5A
2017-05-25T16:06:14 -->> $GNRMC,080615.000,A,3032.8995,N,10403.6131,E,0.00,345.30,250517,,,A*73
2017-05-25T16:06:14 -->> $GNVTG,345.30,T,,M,0.00,N,0.00,K,A*22
2017-05-25T16:06:14 -->> $GNGGA,080616.000,3032.8995,N,10403.6131,E,1,14,0.76,537.1,M,-31.9,M,,*55
2017-05-25T16:06:14 -->> $GPGSA,A,3,193,19,30,01,11,22,03,07,17,08,28,,1.43,0.76,1.21*36
2017-05-25T16:06:14 -->> $GLGSA,A,3,83,73,74,,,,,,,,,,1.43,0.76,1.21*17
2017-05-25T16:06:14 -->> $GPGSV,4,1,14,30,64,232,37,01,60,063,36,28,56,342,28,11,46,045,34*7A
2017-05-25T16:06:14 -->> $GPGSV,4,2,14,17,41,277,37,07,38,178,27,40,34,238,28,19,21,260,32*76
2017-05-25T16:06:14 -->> $GPGSV,4,3,14,22,20,100,32,03,16,129,20,08,12,060,24,13,07,289,26*7C
2017-05-25T16:06:15 -->> $GPGSV,4,4,14,06,06,209,,193,,,32*7D
2017-05-25T16:06:15 -->> $GLGSV,2,1,07,73,82,140,27,84,56,267,,83,47,014,26,74,35,332,16*6A
2017-05-25T16:06:15 -->> $GLGSV,2,2,07,80,30,150,,85,10,235,,82,01,040,*5A
2017-05-25T16:06:15 -->> $GNRMC,080616.000,A,3032.8995,N,10403.6131,E,0.00,345.30,250517,,,A*70
2017-05-25T16:06:15 -->> $GNVTG,345.30,T,,M,0.00,N,0.00,K,A*22
2017-05-25T16:06:15 -->> $GNGGA,080617.000,3032.8995,N,10403.6131,E,1,14,0.76,537.1,M,-31.9,M,,*54
2017-05-25T16:06:15 -->> $GPGSA,A,3,193,19,30,01,11,22,03,07,17,08,28,,1.43,0.76,1.21*36
2017-05-25T16:06:15 -->> $GLGSA,A,3,83,73,74,,,,,,,,,,1.43,0.76,1.21*17
2017-05-25T16:06:15 -->> $GPGSV,4,1,14,30,64,232,37,01,60,063,36,28,56,342,28,11,46,045,34*7A
2017-05-25T16:06:15 -->> $GPGSV,4,2,14,17,41,277,37,07,38,178,27,40,34,238,28,19,21,260,32*76
2017-05-25T16:06:15 -->> $GPGSV,4,3,14,22,20,100,32,03,16,129,20,08,12,060,24,13,07,289,26*7C
2017-05-25T16:06:15 -->> $GPGSV,4,4,14,06,06,209,,193,,,32*7D
2017-05-25T16:06:16 -->> $GLGSV,2,1,07,73,82,140,27,84,56,267,,83,47,014,26,74,35,332,15*69
2017-05-25T16:06:16 -->> $GLGSV,2,2,07,80,30,150,,85,10,235,,82,01,040,*5A
2017-05-25T16:06:16 -->> $GNRMC,080617.000,A,3032.8995,N,10403.6131,E,0.00,345.30,250517,,,A*71
2017-05-25T16:06:16 -->> $GNVTG,345.30,T,,M,0.00,N,0.00,K,A*22
2017-05-25T16:06:16 -->> $GNGGA,080618.000,3032.8995,N,10403.6131,E,1,14,0.76,537.1,M,-31.9,M,,*5B
2017-05-25T16:06:16 -->> $GPGSA,A,3,193,19,30,01,11,22,03,07,17,08,28,,1.43,0.76,1.21*36
2017-05-25T16:06:16 -->> $GLGSA,A,3,83,73,74,,,,,,,,,,1.43,0.76,1.21*17
2017-05-25T16:06:16 -->> $GPGSV,4,1,14,30,64,232,37,01,60,063,36,28,56,342,28,11,46,045,34*7A
2017-05-25T16:06:16 -->> $GPGSV,4,2,14,17,41,277,37,07,38,178,27,40,34,238,28,19,21,260,33*77
2017-05-25T16:06:17 -->> $GPGSV,4,3,14,22,20,100,31,03,16,129,20,08,12,060,23,13,07,289,25*7B
2017-05-25T16:06:17 -->> $GPGSV,4,4,14,06,06,209,,193,,,32*7D
2017-05-25T16:06:17 -->> $GLGSV,2,1,07,73,82,140,26,84,56,267,,83,47,014,26,74,35,332,15*68
2017-05-25T16:06:17 -->> $GLGSV,2,2,07,80,30,150,,85,10,235,,82,01,040,*5A
2017-05-25T16:06:17 -->> $GNRMC,080618.000,A,3032.8995,N,10403.6131,E,0.00,345.30,250517,,,A*7E
2017-05-25T16:06:17 -->> $GNVTG,345.30,T,,M,0.00,N,0.00,K,A*22
2017-05-25T16:06:17 -->> $GNGGA,080619.000,3032.8995,N,10403.6131,E,1,14,0.76,537.1,M,-31.9,M,,*5A
2017-05-25T16:06:17 -->> $GPGSA,A,3,193,19,30,01,11,22,03,07,17,08,28,,1.43,0.76,1.21*36
2017-05-25T16:06:17 -->> $GLGSA,A,3,83,73,74,,,,,,,,,,1.43,0.76,1.21*17
2017-05-25T16:06:17 -->> $GPGSV,4,1,14,30,64,232,37,01,60,063,36,28,56,342,28,11,46,045,34*7A
2017-05-25T16:06:17 -->> $GPGSV,4,2,14,17,41,277,37,07,38,178,27,40,34,238,29,19,21,260,33*76
2017-05-25T16:06:17 -->> $GPGSV,4,3,14,22,20,100,31,03,16,129,19,08,12,060,23,13,07,289,25*71
2017-05-25T16:06:18 -->> $GPGSV,4,4,14,06,06,209,,193,,,32*7D
2017-05-25T16:06:18 -->> $GLGSV,2,1,07,73,82,140,26,84,56,267,,83,47,014,27,74,35,332,12*6E
2017-05-25T16:06:18 -->> $GLGSV,2,2,07,80,30,150,,85,10,235,,82,01,040,*5A
2017-05-25T16:06:18 -->> $GNRMC,080619.000,A,3032.8995,N,10403.6131,E,0.00,345.30,250517,,,A*7F
2017-05-25T16:06:18 -->> $GNVTG,345.30,T,,M,0.00,N,0.00,K,A*22
2017-05-25T16:06:18 -->> $GNGGA,080620.000,3032.8995,N,10403.6131,E,1,14,0.76,537.1,M,-31.9,M,,*50
2017-05-25T16:06:18 -->> $GPGSA,A,3,193,19,30,01,11,22,03,07,17,08,28,,1.43,0.76,1.21*36
2017-05-25T16:06:18 -->> $GLGSA,A,3,83,73,74,,,,,,,,,,1.43,0.76,1.21*17
2017-05-25T16:06:18 -->> $GPGSV,4,1,14,30,64,232,37,01,60,063,36,28,56,342,28,11,46,045,34*7A
2017-05-25T16:06:18 -->> $GPGSV,4,2,14,17,41,277,37,07,38,178,27,40,34,238,29,19,21,260,33*76
2017-05-25T16:06:18 -->> $GPGSV,4,3,14,22,20,100,31,03,16,129,18,08,12,060,23,13,07,289,25*70
2017-05-25T16:06:18 -->> $GPGSV,4,4,14,06,06,209,,193,,,32*7D
2017-05-25T16:06:19 -->> $GLGSV,2,1,07,73,82,142,26,84,56,267,,83,47,014,27,74,35,332,10*6E
2017-05-25T16:06:19 -->> $GLGSV,2,2,07,80,30,150,,85,10,235,,82,01,040,*5A
2017-05-25T16:06:19 -->> $GNRMC,080620.000,A,3032.8995,N,10403.6131,E,0.00,345.30,250517,,,A*75
2017-05-25T16:06:19 -->> $GNVTG,345.30,T,,M,0.00,N,0.00,K,A*22
2017-05-25T16:06:19 -->> $GNGGA,080621.000,3032.8995,N,10403.6131,E,1,14,0.76,537.1,M,-31.9,M,,*51
2017-05-25T16:06:19 -->> $GPGSA,A,3,193,19,30,01,11,22,03,07,17,08,28,,1.43,0.76,1.21*36
2017-05-25T16:06:19 -->> $GLGSA,A,3,83,73,74,,,,,,,,,,1.43,0.76,1.21*17
2017-05-25T16:06:19 -->> $GPGSV,4,1,14,30,64,232,37,01,60,063,36,28,56,342,28,11,46,045,34*7A
2017-05-25T16:06:19 -->> $GPGSV,4,2,14,17,41,277,37,07,38,178,27,40,34,238,29,19,21,260,33*76
2017-05-25T16:06:19 -->> $GPGSV,4,3,14,22,20,100,31,03,16,129,18,08,12,060,23,13,07,289,24*71
2017-05-25T16:06:20 -->> $GPGSV,4,4,14,06,06,209,,193,,,32*7D
2017-05-25T16:06:20 -->> $GLGSV,2,1,07,73,82,142,27,84,56,267,,83,47,014,27,74,35,332,12*6D
2017-05-25T16:06:20 -->> $GLGSV,2,2,07,80,30,150,,85,10,235,,82,01,040,*5A
2017-05-25T16:06:20 -->> $GNRMC,080621.000,A,3032.8995,N,10403.6131,E,0.00,345.30,250517,,,A*74
2017-05-25T16:06:20 -->> $GNVTG,345.30,T,,M,0.00,N,0.00,K,A*22
2017-05-25T16:06:20 -->> $GNGGA,080622.000,3032.8995,N,10403.6131,E,1,14,0.76,537.1,M,-31.9,M,,*52
2017-05-25T16:06:20 -->> $GPGSA,A,3,193,19,30,01,11,22,03,07,17,08,28,,1.43,0.76,1.21*36
2017-05-25T16:06:20 -->> $GLGSA,A,3,83,73,74,,,,,,,,,,1.43,0.76,1.21*17
2017-05-25T16:06:20 -->> $GPGSV,4,1,14,30,64,232,37,01,60,063,36,28,56,342,28,11,46,045,34*7A
2017-05-25T16:06:20 -->> $GPGSV,4,2,14,17,41,277,37,07,38,178,27,40,34,238,29,19,21,260,33*76
2017-05-25T16:06:20 -->> $GPGSV,4,3,14,22,20,100,31,03,16,129,18,08,12,060,23,13,07,289,24*71
2017-05-25T16:06:21 -->> $GPGSV,4,4,14,06,06,209,,193,,,32*7D
2017-05-25T16:06:21 -->> $GLGSV,2,1,07,73,82,142,27,84,56,267,,83,47,014,27,74,35,332,12*6D
