2017-05-25T16:40:09
2017-05-25T16:40:12 -->> ============================
2017-05-25T16:40:14 -->> $PMTK011,MTKGPS*08
2017-05-25T16:40:14 -->> $PMTK010,001*2E
2017-05-25T16:40:14 -->> $PMTK011,MTKGPS*08
2017-05-25T16:40:14 -->> $PMTK010,002*2D
2017-05-25T16:40:15 -->> $GNGGA,235942.800,,,,,0,0,,,M,,M,,*55
2017-05-25T16:40:15 -->> $GPGSA,A,1,,,,,,,,,,,,,,,*1E
2017-05-25T16:40:15 -->> $GLGSA,A,1,,,,,,,,,,,,,,,*02
2017-05-25T16:40:15 -->> $GPGSV,1,1,01,01,,,40*7D
2017-05-25T16:40:15 -->> $GLGSV,1,1,00*65
2017-05-25T16:40:15 -->> $GNRMC,235942.800,V,,,,,0.00,0.00,050180,,,N*5C
2017-05-25T16:40:15 -->> $GNVTG,0.00,T,,M,0.00,N,0.00,K,N*2C
2017-05-25T16:40:16 -->> $GNGGA,235943.800,,,,,0,0,,,M,,M,,*54
2017-05-25T16:40:16 -->> $GPGSA,A,1,,,,,,,,,,,,,,,*1E
2017-05-25T16:40:16 -->> $GLGSA,A,1,,,,,,,,,,,,,,,*02
2017-05-25T16:40:16 -->> $GPGSV,1,1,03,01,,,40,11,,,34,28,,,33*72
2017-05-25T16:40:16 -->> $GLGSV,1,1,00*65
2017-05-25T16:40:16 -->> $GNRMC,235943.800,V,,,,,0.00,0.00,050180,,,N*5D
2017-05-25T16:40:16 -->> $GNVTG,0.00,T,,M,0.00,N,0.00,K,N*2C
2017-05-25T16:40:17 -->> $GNGGA,235944.799,,,,,0,0,,,M,,M,,*5C
2017-05-25T16:40:17 -->> $GPGSA,A,1,,,,,,,,,,,,,,,*1E
2017-05-25T16:40:17 -->> $GLGSA,A,1,,,,,,,,,,,,,,,*02
2017-05-25T16:40:17 -->> $GPGSV,2,1,05,01,,,40,11,,,38,28,,,36,22,,,33*7E
2017-05-25T16:40:17 -->> $GPGSV,2,2,05,19,,,28*7E
2017-05-25T16:40:17 -->> $GLGSV,1,1,00*65
2017-05-25T16:40:17 -->> $GNRMC,235944.799,V,,,,,0.00,0.00,050180,,,N*55
2017-05-25T16:40:17 -->> $GNVTG,0.00,T,,M,0.00,N,0.00,K,N*2C
2017-05-25T16:40:18 -->> $GNGGA,235945.799,,,,,0,0,,,M,,M,,*5D
2017-05-25T16:40:18 -->> $GPGSA,A,1,,,,,,,,,,,,,,,*1E
2017-05-25T16:40:18 -->> $GLGSA,A,1,,,,,,,,,,,,,,,*02
2017-05-25T16:40:18 -->> $GPGSV,2,1,07,01,,,40,11,,,38,28,,,36,22,,,33*7C
2017-05-25T16:40:18 -->> $GPGSV,2,2,07,19,,,32,30,,,35,03,,,32*70
2017-05-25T16:40:18 -->> $GLGSV,1,1,00*65
2017-05-25T16:40:18 -->> $GNRMC,235945.799,V,,,,,0.00,0.00,050180,,,N*54
2017-05-25T16:40:18 -->> $GNVTG,0.00,T,,M,0.00,N,0.00,K,N*2C
2017-05-25T16:40:19 -->> $GNGGA,235946.799,,,,,0,0,,,M,,M,,*5E
2017-05-25T16:40:19 -->> $GPGSA,A,1,,,,,,,,,,,,,,,*1E
2017-05-25T16:40:19 -->> $GLGSA,A,1,,,,,,,,,,,,,,,*02
2017-05-25T16:40:19 -->> $GPGSV,2,1,08,01,,,40,11,,,37,28,,,36,22,,,34*7B
2017-05-25T16:40:19 -->> $GPGSV,2,2,08,19,,,32,30,,,36,03,,,35,17,,,32*7C
2017-05-25T16:40:19 -->> $GLGSV,1,1,00*65
2017-05-25T16:40:19 -->> $GNRMC,235946.799,V,,,,,0.00,0.00,050180,,,N*57
2017-05-25T16:40:19 -->> $GNVTG,0.00,T,,M,0.00,N,0.00,K,N*2C
2017-05-25T16:40:20 -->> $GNGGA,235947.799,,,,,0,0,,,M,,M,,*5F
2017-05-25T16:40:20 -->> $GPGSA,A,1,,,,,,,,,,,,,,,*1E
2017-05-25T16:40:20 -->> $GLGSA,A,1,,,,,,,,,,,,,,,*02
2017-05-25T16:40:20 -->> $GPGSV,2,1,08,01,,,40,11,,,38,28,,,35,22,,,35*76
2017-05-25T16:40:20 -->> $GPGSV,2,2,08,19,,,32,30,,,36,03,,,34,17,,,33*7C
2017-05-25T16:40:20 -->> $GLGSV,1,1,00*65
2017-05-25T16:40:20 -->> $GNRMC,235947.799,V,,,,,0.00,0.00,050180,,,N*56
2017-05-25T16:40:20 -->> $GNVTG,0.00,T,,M,0.00,N,0.00,K,N*2C
2017-05-25T16:40:21 -->> $GNGGA,235948.799,,,,,0,0,,,M,,M,,*50
2017-05-25T16:40:21 -->> $GPGSA,A,1,,,,,,,,,,,,,,,*1E
2017-05-25T16:40:21 -->> $GLGSA,A,1,,,,,,,,,,,,,,,*02
2017-05-25T16:40:21 -->> $GPGSV,2,1,08,01,,,40,11,,,38,28,,,35,22,,,36*75
2017-05-25T16:40:21 -->> $GPGSV,2,2,08,19,,,32,30,,,36,03,,,34,17,,,33*7C
2017-05-25T16:40:21 -->> $GLGSV,1,1,00*65
2017-05-25T16:40:21 -->> $GNRMC,235948.799,V,,,,,0.00,0.00,050180,,,N*59
2017-05-25T16:40:21 -->> $GNVTG,0.00,T,,M,0.00,N,0.00,K,N*2C
2017-05-25T16:40:22 -->> $GNGGA,235949.658,,,,,0,0,,,M,,M,,*5D
2017-05-25T16:40:22 -->> $GPGSA,A,1,,,,,,,,,,,,,,,*1E
2017-05-25T16:40:22 -->> $GLGSA,A,1,,,,,,,,,,,,,,,*02
2017-05-25T16:40:22 -->> $GPGSV,2,1,08,01,,,40,11,,,38,28,,,35,22,,,36*75
2017-05-25T16:40:22 -->> $GPGSV,2,2,08,19,,,32,30,,,36,03,,,34,17,,,32*7D
2017-05-25T16:40:22 -->> $GLGSV,1,1,00*65
2017-05-25T16:40:22 -->> $GNRMC,235949.658,V,,,,,0.00,0.00,050180,,,N*54
2017-05-25T16:40:22 -->> $GNVTG,0.00,T,,M,0.00,N,0.00,K,N*2C
2017-05-25T16:40:23 -->> $GNGGA,235950.657,,,,,0,0,,,M,,M,,*5A
2017-05-25T16:40:23 -->> $GPGSA,A,1,,,,,,,,,,,,,,,*1E
2017-05-25T16:40:23 -->> $GLGSA,A,1,,,,,,,,,,,,,,,*02
2017-05-25T16:40:23 -->> $GPGSV,2,1,08,01,,,40,11,,,38,28,,,36,22,,,35*75
2017-05-25T16:40:23 -->> $GPGSV,2,2,08,19,,,30,30,,,36,03,,,34,17,,,35*78
2017-05-25T16:40:23 -->> $GLGSV,1,1,00*65
2017-05-25T16:40:23 -->> $GNRMC,235950.657,V,,,,,0.00,0.00,050180,,,N*53
2017-05-25T16:40:23 -->> $GNVTG,0.00,T,,M,0.00,N,0.00,K,N*2C
2017-05-25T16:40:24 -->> $GNGGA,084026.099,,,,,0,0,,,M,,M,,*5E
2017-05-25T16:40:24 -->> $GPGSA,A,1,,,,,,,,,,,,,,,*1E
2017-05-25T16:40:24 -->> $GLGSA,A,1,,,,,,,,,,,,,,,*02
2017-05-25T16:40:24 -->> $GPGSV,3,1,09,01,,,39,11,,,38,28,,,36,22,,,35*7B
2017-05-25T16:40:24 -->> $GPGSV,3,2,09,19,,,31,30,,,27,03,,,34,13,,,27*7E
2017-05-25T16:40:24 -->> $GPGSV,3,3,09,17,,,34*71
2017-05-25T16:40:24 -->> $GLGSV,1,1,00*65
2017-05-25T16:40:24 -->> $GNRMC,084026.099,V,,,,,0.00,0.00,100180,,,N*53
2017-05-25T16:40:24 -->> $GNVTG,0.00,T,,M,0.00,N,0.00,K,N*2C
2017-05-25T16:40:25 -->> $GNGGA,084027.099,,,,,0,0,,,M,,M,,*5F
2017-05-25T16:40:25 -->> $GPGSA,A,1,,,,,,,,,,,,,,,*1E
2017-05-25T16:40:25 -->> $GLGSA,A,1,,,,,,,,,,,,,,,*02
2017-05-25T16:40:25 -->> $GPGSV,3,1,09,01,,,39,11,,,38,28,,,36,22,,,35*7B
2017-05-25T16:40:25 -->> $GPGSV,3,2,09,19,,,32,30,,,27,03,,,34,13,,,28*72
2017-05-25T16:40:25 -->> $GPGSV,3,3,09,17,,,34*71
2017-05-25T16:40:25 -->> $GLGSV,1,1,00*65
2017-05-25T16:40:25 -->> $GNRMC,084027.099,V,,,,,0.00,0.00,100180,,,N*52
2017-05-25T16:40:25 -->> $GNVTG,0.00,T,,M,0.00,N,0.00,K,N*2C
2017-05-25T16:40:26 -->> $GNGGA,084028.099,,,,,0,0,,,M,,M,,*50
2017-05-25T16:40:26 -->> $GPGSA,A,1,,,,,,,,,,,,,,,*1E
2017-05-25T16:40:26 -->> $GLGSA,A,1,,,,,,,,,,,,,,,*02
2017-05-25T16:40:26 -->> $GPGSV,3,1,09,01,,,39,11,,,38,28,,,36,22,,,36*78
2017-05-25T16:40:26 -->> $GPGSV,3,2,09,19,,,32,30,,,27,03,,,34,13,,,29*73
2017-05-25T16:40:26 -->> $GPGSV,3,3,09,17,,,34*71
2017-05-25T16:40:26 -->> $GLGSV,1,1,00*65
2017-05-25T16:40:26 -->> $GNRMC,084028.099,V,,,,,0.00,0.00,100180,,,N*5D
2017-05-25T16:40:26 -->> $GNVTG,0.00,T,,M,0.00,N,0.00,K,N*2C
2017-05-25T16:40:27 -->> $GNGGA,084029.099,,,,,0,0,,,M,,M,,*51
2017-05-25T16:40:27 -->> $GPGSA,A,1,,,,,,,,,,,,,,,*1E
2017-05-25T16:40:27 -->> $GLGSA,A,1,,,,,,,,,,,,,,,*02
2017-05-25T16:40:27 -->> $GPGSV,3,1,09,01,,,39,11,,,38,28,,,36,22,,,36*78
2017-05-25T16:40:27 -->> $GPGSV,3,2,09,19,,,32,30,,,37,03,,,35,13,,,28*72
2017-05-25T16:40:27 -->> $GPGSV,3,3,09,17,,,34*71
2017-05-25T16:40:27 -->> $GLGSV,1,1,00*65
2017-05-25T16:40:27 -->> $GNRMC,084029.099,V,,,,,0.00,0.00,100180,,,N*5C
2017-05-25T16:40:27 -->> $GNVTG,0.00,T,,M,0.00,N,0.00,K,N*2C
2017-05-25T16:40:28 -->> $GNGGA,084030.086,,,,,0,0,,,M,,M,,*57
2017-05-25T16:40:28 -->> $GPGSA,A,1,,,,,,,,,,,,,,,*1E
2017-05-25T16:40:28 -->> $GLGSA,A,1,,,,,,,,,,,,,,,*02
2017-05-25T16:40:28 -->> $GPGSV,3,1,09,01,,,39,11,,,38,28,,,36,22,,,36*78
2017-05-25T16:40:28 -->> $GPGSV,3,2,09,19,,,31,30,,,36,03,,,35,13,,,29*71
2017-05-25T16:40:28 -->> $GPGSV,3,3,09,17,,,34*71
2017-05-25T16:40:28 -->> $GLGSV,1,1,00*65
2017-05-25T16:40:28 -->> $GNRMC,084030.086,V,,,,,0.00,0.00,100180,,,N*5A
2017-05-25T16:40:28 -->> $GNVTG,0.00,T,,M,0.00,N,0.00,K,N*2C
2017-05-25T16:40:29 -->> $GNGGA,084031.086,,,,,0,0,,,M,,M,,*56
2017-05-25T16:40:29 -->> $GPGSA,A,1,,,,,,,,,,,,,,,*1E
2017-05-25T16:40:29 -->> $GLGSA,A,1,,,,,,,,,,,,,,,*02
2017-05-25T16:40:29 -->> $GPGSV,3,1,09,01,,,39,11,,,38,28,,,36,22,,,36*78
2017-05-25T16:40:29 -->> $GPGSV,3,2,09,19,,,31,30,,,35,03,,,35,13,,,28*73
2017-05-25T16:40:29 -->> $GPGSV,3,3,09,17,,,34*71
2017-05-25T16:40:29 -->> $GLGSV,1,1,00*65
2017-05-25T16:40:29 -->> $GNRMC,084031.086,V,,,,,0.00,0.00,100180,,,N*5B
2017-05-25T16:40:29 -->> $GNVTG,0.00,T,,M,0.00,N,0.00,K,N*2C
2017-05-25T16:40:30 -->> $GNGGA,084032.086,,,,,0,0,,,M,,M,,*55
2017-05-25T16:40:30 -->> $GPGSA,A,1,,,,,,,,,,,,,,,*1E
2017-05-25T16:40:30 -->> $GLGSA,A,1,,,,,,,,,,,,,,,*02
2017-05-25T16:40:30 -->> $GPGSV,3,1,09,01,,,39,11,,,38,28,,,36,22,,,36*78
2017-05-25T16:40:30 -->> $GPGSV,3,2,09,19,,,32,30,,,35,03,,,35,13,,,28*70
2017-05-25T16:40:30 -->> $GPGSV,3,3,09,17,,,34*71
2017-05-25T16:40:30 -->> $GLGSV,1,1,00*65
2017-05-25T16:40:30 -->> $GNRMC,084032.086,V,,,,,0.00,0.00,100180,,,N*58
2017-05-25T16:40:30 -->> $GNVTG,0.00,T,,M,0.00,N,0.00,K,N*2C
2017-05-25T16:40:31 -->> $GNGGA,084033.086,,,,,0,0,,,M,,M,,*54
2017-05-25T16:40:31 -->> $GPGSA,A,1,,,,,,,,,,,,,,,*1E
2017-05-25T16:40:31 -->> $GLGSA,A,1,,,,,,,,,,,,,,,*02
2017-05-25T16:40:31 -->> $GPGSV,3,1,09,01,,,39,11,,,38,28,,,36,22,,,36*78
2017-05-25T16:40:31 -->> $GPGSV,3,2,09,19,,,32,30,,,35,03,,,35,13,,,28*70
2017-05-25T16:40:31 -->> $GPGSV,3,3,09,17,,,34*71
2017-05-25T16:40:31 -->> $GLGSV,1,1,00*65
2017-05-25T16:40:31 -->> $GNRMC,084033.086,V,,,,,0.00,0.00,100180,,,N*59
2017-05-25T16:40:31 -->> $GNVTG,0.00,T,,M,0.00,N,0.00,K,N*2C
2017-05-25T16:40:32 -->> $GNGGA,084034.086,,,,,0,0,,,M,,M,,*53
2017-05-25T16:40:32 -->> $GPGSA,A,1,,,,,,,,,,,,,,,*1E
2017-05-25T16:40:32 -->> $GLGSA,A,1,,,,,,,,,,,,,,,*02
2017-05-25T16:40:32 -->> $GPGSV,3,1,09,01,,,39,11,,,37,28,,,36,22,,,36*77
2017-05-25T16:40:32 -->> $GPGSV,3,2,09,19,,,32,30,,,34,03,,,35,13,,,28*71
2017-05-25T16:40:32 -->> $GPGSV,3,3,09,17,,,33*76
2017-05-25T16:40:32 -->> $GLGSV,1,1,00*65
2017-05-25T16:40:32 -->> $GNRMC,084034.086,V,,,,,0.00,0.00,100180,,,N*5E
2017-05-25T16:40:32 -->> $GNVTG,0.00,T,,M,0.00,N,0.00,K,N*2C
2017-05-25T16:40:33 -->> $GNGGA,084035.086,,,,,0,0,,,M,,M,,*52
2017-05-25T16:40:33 -->> $GPGSA,A,1,,,,,,,,,,,,,,,*1E
2017-05-25T16:40:33 -->> $GLGSA,A,1,,,,,,,,,,,,,,,*02
2017-05-25T16:40:33 -->> $GPGSV,3,1,09,01,,,39,11,,,37,28,,,36,22,,,36*77
2017-05-25T16:40:33 -->> $GPGSV,3,2,09,19,,,32,30,,,34,03,,,35,13,,,28*71
2017-05-25T16:40:33 -->> $GPGSV,3,3,09,17,,,32*77
2017-05-25T16:40:33 -->> $GLGSV,1,1,00*65
2017-05-25T16:40:33 -->> $GNRMC,084035.086,V,,,,,0.00,0.00,100180,,,N*5F
2017-05-25T16:40:33 -->> $GNVTG,0.00,T,,M,0.00,N,0.00,K,N*2C
2017-05-25T16:40:34 -->> $GNGGA,084036.086,,,,,0,0,,,M,,M,,*51
2017-05-25T16:40:34 -->> $GPGSA,A,1,,,,,,,,,,,,,,,*1E
2017-05-25T16:40:34 -->> $GLGSA,A,1,,,,,,,,,,,,,,,*02
2017-05-25T16:40:34 -->> $GPGSV,3,1,09,01,,,39,11,,,37,28,,,36,22,,,35*74
2017-05-25T16:40:34 -->> $GPGSV,3,2,09,19,,,33,30,,,34,03,,,35,13,,,27*7F
2017-05-25T16:40:34 -->> $GPGSV,3,3,09,17,,,32*77
2017-05-25T16:40:34 -->> $GLGSV,1,1,00*65
2017-05-25T16:40:34 -->> $GNRMC,084036.086,V,,,,,0.00,0.00,100180,,,N*5C
2017-05-25T16:40:34 -->> $GNVTG,0.00,T,,M,0.00,N,0.00,K,N*2C
2017-05-25T16:40:35 -->> $GNGGA,084037.086,,,,,0,0,,,M,,M,,*50
2017-05-25T16:40:35 -->> $GPGSA,A,1,,,,,,,,,,,,,,,*1E
2017-05-25T16:40:35 -->> $GLGSA,A,1,,,,,,,,,,,,,,,*02
2017-05-25T16:40:35 -->> $GPGSV,3,1,09,01,,,39,11,,,37,28,,,36,22,,,35*74
2017-05-25T16:40:35 -->> $GPGSV,3,2,09,19,,,33,30,,,34,03,,,35,13,,,26*7E
2017-05-25T16:40:35 -->> $GPGSV,3,3,09,17,,,32*77
2017-05-25T16:40:35 -->> $GLGSV,1,1,00*65
2017-05-25T16:40:35 -->> $GNRMC,084037.086,V,,,,,0.00,0.00,100180,,,N*5D
2017-05-25T16:40:35 -->> $GNVTG,0.00,T,,M,0.00,N,0.00,K,N*2C
2017-05-25T16:40:36 -->> $GNGGA,084038.086,,,,,0,0,,,M,,M,,*5F
2017-05-25T16:40:36 -->> $GPGSA,A,1,,,,,,,,,,,,,,,*1E
2017-05-25T16:40:36 -->> $GLGSA,A,1,,,,,,,,,,,,,,,*02
2017-05-25T16:40:36 -->> $GPGSV,3,1,09,01,,,39,11,,,37,28,,,36,22,,,36*77
2017-05-25T16:40:36 -->> $GPGSV,3,2,09,19,,,33,30,,,34,03,,,35,13,,,27*7F
2017-05-25T16:40:36 -->> $GPGSV,3,3,09,17,,,32*77
2017-05-25T16:40:36 -->> $GLGSV,1,1,00*65
2017-05-25T16:40:36 -->> $GNRMC,084038.086,V,,,,,0.00,0.00,100180,,,N*52
2017-05-25T16:40:36 -->> $GNVTG,0.00,T,,M,0.00,N,0.00,K,N*2C
2017-05-25T16:40:37 -->> $GNGGA,084039.086,,,,,0,0,,,M,,M,,*5E
2017-05-25T16:40:37 -->> $GPGSA,A,1,,,,,,,,,,,,,,,*1E
2017-05-25T16:40:37 -->> $GLGSA,A,1,,,,,,,,,,,,,,,*02
2017-05-25T16:40:37 -->> $GPGSV,3,1,09,01,,,39,11,,,37,28,,,36,22,,,36*77
2017-05-25T16:40:37 -->> $GPGSV,3,2,09,19,,,33,30,,,34,03,,,35,13,,,28*70
2017-05-25T16:40:37 -->> $GPGSV,3,3,09,17,,,32*77
2017-05-25T16:40:37 -->> $GLGSV,1,1,00*65
2017-05-25T16:40:37 -->> $GNRMC,084039.086,V,,,,,0.00,0.00,100180,,,N*53
2017-05-25T16:40:37 -->> $GNVTG,0.00,T,,M,0.00,N,0.00,K,N*2C
2017-05-25T16:40:38 -->> $GNGGA,084040.086,,,,,0,0,,,M,,M,,*50
2017-05-25T16:40:38 -->> $GPGSA,A,1,,,,,,,,,,,,,,,*1E
2017-05-25T16:40:38 -->> $GLGSA,A,1,,,,,,,,,,,,,,,*02
2017-05-25T16:40:38 -->> $GPGSV,3,1,09,01,,,39,11,,,37,28,,,36,22,,,36*77
2017-05-25T16:40:38 -->> $GPGSV,3,2,09,19,,,33,30,,,34,03,,,35,13,,,28*70
2017-05-25T16:40:38 -->> $GPGSV,3,3,09,17,,,31*74
2017-05-25T16:40:38 -->> $GLGSV,1,1,00*65
2017-05-25T16:40:38 -->> $GNRMC,084040.086,V,,,,,0.00,0.00,250517,,,N*51
2017-05-25T16:40:38 -->> $GNVTG,0.00,T,,M,0.00,N,0.00,K,N*2C
2017-05-25T16:40:39 -->> $GNGGA,084041.086,,,,,0,0,,,M,,M,,*51
2017-05-25T16:40:39 -->> $GPGSA,A,1,,,,,,,,,,,,,,,*1E
2017-05-25T16:40:39 -->> $GLGSA,A,1,,,,,,,,,,,,,,,*02
2017-05-25T16:40:39 -->> $GPGSV,3,1,09,01,,,39,11,,,37,28,,,36,22,,,36*77
2017-05-25T16:40:39 -->> $GPGSV,3,2,09,19,,,33,30,,,34,03,,,35,13,,,28*70
2017-05-25T16:40:39 -->> $GPGSV,3,3,09,17,,,31*74
2017-05-25T16:40:39 -->> $GLGSV,1,1,00*65
2017-05-25T16:40:39 -->> $GNRMC,084041.086,V,,,,,0.00,0.00,250517,,,N*50
2017-05-25T16:40:39 -->> $GNVTG,0.00,T,,M,0.00,N,0.00,K,N*2C
2017-05-25T16:40:40 -->> $GNGGA,084042.086,,,,,0,0,,,M,,M,,*52
2017-05-25T16:40:40 -->> $GPGSA,A,1,,,,,,,,,,,,,,,*1E
2017-05-25T16:40:40 -->> $GLGSA,A,1,,,,,,,,,,,,,,,*02
2017-05-25T16:40:40 -->> $GPGSV,3,1,09,01,,,39,11,,,37,28,,,36,22,,,36*77
2017-05-25T16:40:40 -->> $GPGSV,3,2,09,19,,,33,30,,,34,03,,,35,13,,,28*70
2017-05-25T16:40:40 -->> $GPGSV,3,3,09,17,,,31*74
2017-05-25T16:40:40 -->> $GLGSV,1,1,00*65
2017-05-25T16:40:40 -->> $GNRMC,084042.086,V,,,,,0.00,0.00,250517,,,N*53
2017-05-25T16:40:40 -->> $GNVTG,0.00,T,,M,0.00,N,0.00,K,N*2C
2017-05-25T16:40:41 -->> $GNGGA,084043.086,,,,,0,0,,,M,,M,,*53
2017-05-25T16:40:41 -->> $GPGSA,A,1,,,,,,,,,,,,,,,*1E
2017-05-25T16:40:41 -->> $GLGSA,A,1,,,,,,,,,,,,,,,*02
2017-05-25T16:40:41 -->> $GPGSV,3,1,09,01,,,39,11,,,37,28,,,37,22,,,36*76
2017-05-25T16:40:41 -->> $GPGSV,3,2,09,19,,,33,30,,,34,03,,,36,13,,,28*73
2017-05-25T16:40:41 -->> $GPGSV,3,3,09,17,,,31*74
2017-05-25T16:40:41 -->> $GLGSV,1,1,00*65
2017-05-25T16:40:41 -->> $GNRMC,084043.086,V,,,,,0.00,0.00,250517,,,N*52
2017-05-25T16:40:41 -->> $GNVTG,0.00,T,,M,0.00,N,0.00,K,N*2C
2017-05-25T16:40:42 -->> $GNGGA,084044.086,,,,,0,0,,,M,,M,,*54
2017-05-25T16:40:42 -->> $GPGSA,A,1,,,,,,,,,,,,,,,*1E
2017-05-25T16:40:42 -->> $GLGSA,A,1,,,,,,,,,,,,,,,*02
2017-05-25T16:40:42 -->> $GPGSV,3,1,09,01,,,39,11,,,37,28,,,37,22,,,37*77
2017-05-25T16:40:42 -->> $GPGSV,3,2,09,19,,,33,30,,,34,03,,,36,13,,,28*73
2017-05-25T16:40:42 -->> $GPGSV,3,3,09,17,,,31*74
2017-05-25T16:40:42 -->> $GLGSV,1,1,00*65
2017-05-25T16:40:42 -->> $GNRMC,084044.086,V,,,,,0.00,0.00,250517,,,N*55
2017-05-25T16:40:42 -->> $GNVTG,0.00,T,,M,0.00,N,0.00,K,N*2C
2017-05-25T16:40:43 -->> $GNGGA,084045.086,,,,,0,0,,,M,,M,,*55
2017-05-25T16:40:43 -->> $GPGSA,A,1,,,,,,,,,,,,,,,*1E
2017-05-25T16:40:43 -->> $GLGSA,A,1,,,,,,,,,,,,,,,*02
2017-05-25T16:40:43 -->> $GPGSV,3,1,09,01,,,39,11,,,37,28,,,37,22,,,37*77
2017-05-25T16:40:43 -->> $GPGSV,3,2,09,19,,,33,30,,,34,03,,,36,13,,,28*73
2017-05-25T16:40:43 -->> $GPGSV,3,3,09,17,,,31*74
2017-05-25T16:40:43 -->> $GLGSV,1,1,00*65
2017-05-25T16:40:43 -->> $GNRMC,084045.086,V,,,,,0.00,0.00,250517,,,N*54
2017-05-25T16:40:43 -->> $GNVTG,0.00,T,,M,0.00,N,0.00,K,N*2C
2017-05-25T16:40:44 -->> $GNGGA,084046.086,,,,,0,0,,,M,,M,,*56
2017-05-25T16:40:44 -->> $GPGSA,A,1,,,,,,,,,,,,,,,*1E
2017-05-25T16:40:44 -->> $GLGSA,A,1,,,,,,,,,,,,,,,*02
2017-05-25T16:40:44 -->> $GPGSV,3,1,09,01,,,39,11,,,37,28,,,37,22,,,37*77
2017-05-25T16:40:44 -->> $GPGSV,3,2,09,19,,,33,30,,,34,03,,,36,13,,,28*73
2017-05-25T16:40:44 -->> $GPGSV,3,3,09,17,,,31*74
2017-05-25T16:40:44 -->> $GLGSV,1,1,00*65
2017-05-25T16:40:44 -->> $GNRMC,084046.086,V,,,,,0.00,0.00,250517,,,N*57
2017-05-25T16:40:44 -->> $GNVTG,0.00,T,,M,0.00,N,0.00,K,N*2C
2017-05-25T16:40:45 -->> $GNGGA,084047.086,,,,,0,0,,,M,,M,,*57
2017-05-25T16:40:45 -->> $GPGSA,A,1,,,,,,,,,,,,,,,*1E
2017-05-25T16:40:45 -->> $GLGSA,A,1,,,,,,,,,,,,,,,*02
2017-05-25T16:40:45 -->> $GPGSV,3,1,09,01,,,39,11,,,36,28,,,37,22,,,37*76
2017-05-25T16:40:45 -->> $GPGSV,3,2,09,19,,,33,30,,,34,03,,,36,13,,,28*73
2017-05-25T16:40:45 -->> $GPGSV,3,3,09,17,,,31*74
2017-05-25T16:40:45 -->> $GLGSV,1,1,00*65
2017-05-25T16:40:45 -->> $GNRMC,084047.086,V,,,,,0.00,0.00,250517,,,N*56
2017-05-25T16:40:45 -->> $GNVTG,0.00,T,,M,0.00,N,0.00,K,N*2C
2017-05-25T16:40:46 -->> $GNGGA,084048.086,,,,,0,0,,,M,,M,,*58
2017-05-25T16:40:46 -->> $GPGSA,A,1,,,,,,,,,,,,,,,*1E
2017-05-25T16:40:46 -->> $GLGSA,A,1,,,,,,,,,,,,,,,*02
2017-05-25T16:40:46 -->> $GPGSV,3,1,09,01,,,39,11,,,36,28,,,37,22,,,37*76
2017-05-25T16:40:46 -->> $GPGSV,3,2,09,19,,,33,30,,,34,03,,,35,13,,,28*70
2017-05-25T16:40:46 -->> $GPGSV,3,3,09,17,,,31*74
2017-05-25T16:40:46 -->> $GLGSV,1,1,00*65
2017-05-25T16:40:46 -->> $GNRMC,084048.086,V,,,,,0.00,0.00,250517,,,N*59
2017-05-25T16:40:46 -->> $GNVTG,0.00,T,,M,0.00,N,0.00,K,N*2C
2017-05-25T16:40:47 -->> $GNGGA,084049.086,,,,,0,0,,,M,,M,,*59
2017-05-25T16:40:47 -->> $GPGSA,A,1,,,,,,,,,,,,,,,*1E
2017-05-25T16:40:47 -->> $GLGSA,A,1,,,,,,,,,,,,,,,*02
2017-05-25T16:40:47 -->> $GPGSV,3,1,09,01,,,39,11,,,36,28,,,37,22,,,37*76
2017-05-25T16:40:47 -->> $GPGSV,3,2,09,19,,,33,30,,,34,03,,,35,13,,,28*70
2017-05-25T16:40:47 -->> $GPGSV,3,3,09,17,,,31*74
2017-05-25T16:40:47 -->> $GLGSV,1,1,00*65
2017-05-25T16:40:47 -->> $GNRMC,084049.086,V,,,,,0.00,0.00,250517,,,N*58
2017-05-25T16:40:47 -->> $GNVTG,0.00,T,,M,0.00,N,0.00,K,N*2C
2017-05-25T16:40:48 -->> $GNGGA,084050.086,,,,,0,0,,,M,,M,,*51
2017-05-25T16:40:48 -->> $GPGSA,A,1,,,,,,,,,,,,,,,*1E
2017-05-25T16:40:48 -->> $GLGSA,A,1,,,,,,,,,,,,,,,*02
2017-05-25T16:40:48 -->> $GPGSV,3,1,09,01,,,38,11,,,36,28,,,37,22,,,37*77
2017-05-25T16:40:48 -->> $GPGSV,3,2,09,19,,,33,30,,,34,03,,,35,13,,,28*70
2017-05-25T16:40:48 -->> $GPGSV,3,3,09,17,,,31*74
2017-05-25T16:40:48 -->> $GLGSV,1,1,00*65
2017-05-25T16:40:48 -->> $GNRMC,084050.086,V,,,,,0.00,0.00,250517,,,N*50
2017-05-25T16:40:48 -->> $GNVTG,0.00,T,,M,0.00,N,0.00,K,N*2C
2017-05-25T16:40:49 -->> $GNGGA,084051.086,,,,,0,0,,,M,,M,,*50
2017-05-25T16:40:49 -->> $GPGSA,A,1,,,,,,,,,,,,,,,*1E
2017-05-25T16:40:49 -->> $GLGSA,A,1,,,,,,,,,,,,,,,*02
2017-05-25T16:40:49 -->> $GPGSV,3,1,09,01,,,38,11,,,36,28,,,37,22,,,37*77
2017-05-25T16:40:49 -->> $GPGSV,3,2,09,19,,,33,30,,,34,03,,,35,13,,,28*70
2017-05-25T16:40:49 -->> $GPGSV,3,3,09,17,,,31*74
2017-05-25T16:40:49 -->> $GLGSV,1,1,00*65
2017-05-25T16:40:49 -->> $GNRMC,084051.086,V,,,,,0.00,0.00,250517,,,N*51
2017-05-25T16:40:49 -->> $GNVTG,0.00,T,,M,0.00,N,0.00,K,N*2C
2017-05-25T16:40:50 -->> $GNGGA,084052.086,,,,,0,0,,,M,,M,,*53
2017-05-25T16:40:50 -->> $GPGSA,A,1,,,,,,,,,,,,,,,*1E
2017-05-25T16:40:50 -->> $GLGSA,A,1,,,,,,,,,,,,,,,*02
2017-05-25T16:40:50 -->> $GPGSV,3,1,09,01,,,38,11,,,37,28,,,37,22,,,37*76
2017-05-25T16:40:50 -->> $GPGSV,3,2,09,19,,,33,30,,,34,03,,,35,13,,,27*7F
2017-05-25T16:40:50 -->> $GPGSV,3,3,09,17,,,31*74
2017-05-25T16:40:50 -->> $GLGSV,1,1,00*65
2017-05-25T16:40:50 -->> $GNRMC,084052.086,V,,,,,0.00,0.00,250517,,,N*52
2017-05-25T16:40:50 -->> $GNVTG,0.00,T,,M,0.00,N,0.00,K,N*2C
2017-05-25T16:40:51 -->> $GNGGA,084053.086,,,,,0,0,,,M,,M,,*52
2017-05-25T16:40:51 -->> $GPGSA,A,1,,,,,,,,,,,,,,,*1E
2017-05-25T16:40:51 -->> $GLGSA,A,1,,,,,,,,,,,,,,,*02
2017-05-25T16:40:51 -->> $GPGSV,3,1,09,01,,,38,11,,,37,28,,,37,22,,,37*76
2017-05-25T16:40:51 -->> $GPGSV,3,2,09,19,,,33,30,,,34,03,,,34,13,,,27*7E
2017-05-25T16:40:51 -->> $GPGSV,3,3,09,17,,,31*74
2017-05-25T16:40:51 -->> $GLGSV,1,1,00*65
2017-05-25T16:40:51 -->> $GNRMC,084053.086,V,,,,,0.00,0.00,250517,,,N*53
2017-05-25T16:40:51 -->> $GNVTG,0.00,T,,M,0.00,N,0.00,K,N*2C
2017-05-25T16:40:52 -->> $GNGGA,084054.083,3032.9045,N,10403.6115,E,1,8,1.10,535.8,M,-31.9,M,,*6E
2017-05-25T16:40:52 -->> $GPGSA,A,3,01,11,28,22,19,30,03,17,,,,,1.43,1.10,0.92*0A
2017-05-25T16:40:52 -->> $GLGSA,A,3,,,,,,,,,,,,,1.43,1.10,0.92*13
2017-05-25T16:40:52 -->> $GPGSV,3,1,11,28,67,004,37,30,50,209,34,17,48,298,31,01,46,045,38*78
2017-05-25T16:40:52 -->> $GPGSV,3,2,11,42,37,124,,11,31,046,37,19,30,275,32,03,26,114,34*77
2017-05-25T16:40:52 -->> $GPGSV,3,3,11,22,24,083,37,193,,,,13,,,27*7C
2017-05-25T16:40:52 -->> $GLGSV,1,1,00*65
2017-05-25T16:40:53 -->> $GNRMC,084054.083,A,3032.9045,N,10403.6115,E,0.03,0.00,250517,,,A*7E
2017-05-25T16:40:53 -->> $GNVTG,0.00,T,,M,0.03,N,0.06,K,A*26
2017-05-25T16:40:53 -->> $GNGGA,084055.083,3032.9044,N,10403.6116,E,1,8,1.10,537.5,M,-31.9,M,,*62
2017-05-25T16:40:53 -->> $GPGSA,A,3,01,11,28,22,19,30,03,17,,,,,1.43,1.10,0.92*0A
2017-05-25T16:40:53 -->> $GLGSA,A,3,,,,,,,,,,,,,1.43,1.10,0.92*13
2017-05-25T16:40:53 -->> $GPGSV,3,1,11,28,67,004,37,30,50,209,34,17,48,298,31,01,46,045,38*78
2017-05-25T16:40:53 -->> $GPGSV,3,2,11,42,37,124,,11,31,046,37,19,30,275,32,03,26,114,34*77
2017-05-25T16:40:53 -->> $GPGSV,3,3,11,22,24,083,37,193,,,,13,,,27*7C
2017-05-25T16:40:53 -->> $GLGSV,1,1,00*65
2017-05-25T16:40:54 -->> $GNRMC,084055.083,A,3032.9044,N,10403.6116,E,0.02,0.00,250517,,,A*7C
2017-05-25T16:40:54 -->> $GNVTG,0.00,T,,M,0.02,N,0.04,K,A*25
2017-05-25T16:40:55 -->> $GNGGA,084057.000,3032.9043,N,10403.6121,E,1,8,1.10,539.4,M,-31.9,M,,*67
2017-05-25T16:40:55 -->> $GPGSA,A,3,01,11,28,22,19,30,03,17,,,,,1.43,1.10,0.92*0A
2017-05-25T16:40:55 -->> $GLGSA,A,3,,,,,,,,,,,,,1.43,1.10,0.92*13
2017-05-25T16:40:55 -->> $GPGSV,3,1,11,28,67,004,38,30,50,209,34,17,48,298,31,01,46,045,38*77
2017-05-25T16:40:55 -->> $GPGSV,3,2,11,42,37,124,,11,31,046,37,19,30,275,32,03,26,114,35*76
2017-05-25T16:40:55 -->> $GPGSV,3,3,11,22,24,083,37,193,,,30,13,,,27*7F
2017-05-25T16:40:55 -->> $GLGSV,1,1,01,73,61,169,*59
2017-05-25T16:40:55 -->> $GNRMC,084057.000,A,3032.9043,N,10403.6121,E,0.10,0.00,250517,,,A*75
2017-05-25T16:40:55 -->> $GNVTG,0.00,T,,M,0.10,N,0.19,K,A*2A
2017-05-25T16:40:56 -->> $GNGGA,084058.000,3032.9045,N,10403.6117,E,1,8,1.10,539.1,M,-31.9,M,,*6E
2017-05-25T16:40:56 -->> $GPGSA,A,3,01,11,28,22,19,30,03,17,,,,,1.43,1.10,0.92*0A
2017-05-25T16:40:56 -->> $GLGSA,A,3,,,,,,,,,,,,,1.43,1.10,0.92*13
2017-05-25T16:40:56 -->> $GPGSV,3,1,11,28,67,004,38,30,50,209,34,17,48,298,31,01,46,045,38*77
2017-05-25T16:40:56 -->> $GPGSV,3,2,11,42,37,124,,11,31,046,38,19,30,275,32,03,26,114,35*79
2017-05-25T16:40:56 -->> $GPGSV,3,3,11,22,24,083,37,193,,,31,13,,,27*7E
2017-05-25T16:40:56 -->> $GLGSV,1,1,01,73,61,169,32*58
2017-05-25T16:40:56 -->> $GNRMC,084058.000,A,3032.9045,N,10403.6117,E,0.60,289.83,250517,,,A*76
2017-05-25T16:40:56 -->> $GNVTG,289.83,T,,M,0.60,N,1.11,K,A*2C
2017-05-25T16:40:57 -->> $GNGGA,084059.000,3032.9043,N,10403.6118,E,1,8,1.10,539.6,M,-31.9,M,,*61
2017-05-25T16:40:57 -->> $GPGSA,A,3,01,11,28,22,19,30,03,17,,,,,1.43,1.10,0.92*0A
2017-05-25T16:40:57 -->> $GLGSA,A,3,,,,,,,,,,,,,1.43,1.10,0.92*13
2017-05-25T16:40:57 -->> $GPGSV,3,1,11,28,67,004,38,30,50,209,34,17,48,298,31,01,46,045,39*76
2017-05-25T16:40:57 -->> $GPGSV,3,2,11,42,37,124,,11,31,046,38,19,30,275,32,03,26,114,35*79
2017-05-25T16:40:57 -->> $GPGSV,3,3,11,22,24,083,38,193,,,29,13,,,27*78
2017-05-25T16:40:57 -->> $GLGSV,1,1,01,73,61,169,32*58
2017-05-25T16:40:57 -->> $GNRMC,084059.000,A,3032.9043,N,10403.6118,E,0.00,289.83,250517,,,A*78
2017-05-25T16:40:57 -->> $GNVTG,289.83,T,,M,0.00,N,0.00,K,A*2B
2017-05-25T16:40:58 -->> $GNGGA,084100.000,3032.9043,N,10403.6119,E,1,8,1.10,540.6,M,-31.9,M,,*63
2017-05-25T16:40:58 -->> $GPGSA,A,3,01,11,28,22,19,30,03,17,,,,,1.43,1.10,0.92*0A
2017-05-25T16:40:58 -->> $GLGSA,A,3,,,,,,,,,,,,,1.43,1.10,0.92*13
2017-05-25T16:40:58 -->> $GPGSV,3,1,11,28,67,004,38,30,50,209,34,17,48,298,31,01,46,045,39*76
2017-05-25T16:40:58 -->> $GPGSV,3,2,11,42,37,124,,11,31,046,38,19,30,275,32,03,26,114,35*79
2017-05-25T16:40:58 -->> $GPGSV,3,3,11,22,24,083,38,193,,,29,13,,,27*78
2017-05-25T16:40:58 -->> $GLGSV,1,1,02,73,61,169,32,74,53,324,*6B
2017-05-25T16:40:58 -->> $GNRMC,084100.000,A,3032.9043,N,10403.6119,E,0.00,289.83,250517,,,A*74
2017-05-25T16:40:58 -->> $GNVTG,289.83,T,,M,0.00,N,0.00,K,A*2B
2017-05-25T16:40:59 -->> $GNGGA,084101.000,3032.9042,N,10403.6119,E,1,9,1.05,541.2,M,-31.9,M,,*63
2017-05-25T16:40:59 -->> $GPGSA,A,3,01,11,28,22,30,03,13,17,19,,,,1.33,1.05,0.81*09
2017-05-25T16:40:59 -->> $GLGSA,A,3,,,,,,,,,,,,,1.33,1.05,0.81*12
2017-05-25T16:40:59 -->> $GPGSV,3,1,11,28,67,004,38,30,50,209,33,17,48,298,31,01,46,045,39*71
2017-05-25T16:40:59 -->> $GPGSV,3,2,11,42,37,124,,11,31,046,38,19,30,275,30,03,26,114,35*7B
2017-05-25T16:40:59 -->> $GPGSV,3,3,11,22,24,083,38,13,03,274,27,193,,,28*4B
2017-05-25T16:40:59 -->> $GLGSV,1,1,02,73,61,169,32,74,53,324,31*69
2017-05-25T16:40:59 -->> $GNRMC,084101.000,A,3032.9042,N,10403.6119,E,0.00,289.83,250517,,,A*74
2017-05-25T16:41:00 -->> $GNVTG,289.83,T,,M,0.00,N,0.00,K,A*2B
2017-05-25T16:41:00 -->> $GNGGA,084102.000,3032.9042,N,10403.6119,E,1,8,1.10,541.2,M,-31.9,M,,*65
2017-05-25T16:41:00 -->> $GPGSA,A,3,01,11,28,22,30,03,17,19,,,,,1.43,1.10,0.92*0A
2017-05-25T16:41:00 -->> $GLGSA,A,3,,,,,,,,,,,,,1.43,1.10,0.92*13
2017-05-25T16:41:00 -->> $GPGSV,3,1,11,28,67,004,38,30,50,209,33,17,48,298,32,01,46,045,39*72
2017-05-25T16:41:00 -->> $GPGSV,3,2,11,42,37,124,,11,31,046,38,19,30,275,32,03,26,114,35*79
2017-05-25T16:41:00 -->> $GPGSV,3,3,11,22,24,083,38,13,03,274,27,193,,,31*43
2017-05-25T16:41:00 -->> $GLGSV,1,1,02,73,61,169,32,74,53,324,31*69
2017-05-25T16:41:00 -->> $GNRMC,084102.000,A,3032.9042,N,10403.6119,E,0.00,289.83,250517,,,A*77
2017-05-25T16:41:01 -->> $GNVTG,289.83,T,,M,0.00,N,0.00,K,A*2B
2017-05-25T16:41:01 -->> $GNGGA,084103.000,3032.9042,N,10403.6119,E,1,8,1.10,541.2,M,-31.9,M,,*64
2017-05-25T16:41:01 -->> $GPGSA,A,3,01,11,28,22,30,03,17,19,,,,,1.43,1.10,0.92*0A
2017-05-25T16:41:01 -->> $GLGSA,A,3,,,,,,,,,,,,,1.43,1.10,0.92*13
2017-05-25T16:41:01 -->> $GPGSV,3,1,11,28,67,004,38,30,50,209,33,17,48,298,32,01,46,045,39*72
2017-05-25T16:41:01 -->> $GPGSV,3,2,11,42,37,124,,11,31,046,38,19,30,275,32,03,26,114,35*79
2017-05-25T16:41:01 -->> $GPGSV,3,3,11,22,24,083,38,13,03,274,27,193,,,31*43
2017-05-25T16:41:01 -->> $GLGSV,1,1,02,73,61,169,32,74,53,324,31*69
2017-05-25T16:41:01 -->> $GNRMC,084103.000,A,3032.9042,N,10403.6119,E,0.00,289.83,250517,,,A*76
2017-05-25T16:41:01 -->> $GNVTG,289.83,T,,M,0.00,N,0.00,K,A*2B
2017-05-25T16:41:02 -->> $GNGGA,084104.000,3032.9042,N,10403.6119,E,1,8,1.10,541.2,M,-31.9,M,,*63
2017-05-25T16:41:02 -->> $GPGSA,A,3,01,11,28,22,30,03,17,19,,,,,1.43,1.10,0.92*0A
2017-05-25T16:41:02 -->> $GLGSA,A,3,,,,,,,,,,,,,1.43,1.10,0.92*13
2017-05-25T16:41:02 -->> $GPGSV,3,1,11,28,67,004,38,30,50,209,32,17,48,298,32,01,46,045,39*73
2017-05-25T16:41:02 -->> $GPGSV,3,2,11,42,37,124,,11,31,046,38,19,30,275,31,03,26,114,35*7A
2017-05-25T16:41:02 -->> $GPGSV,3,3,11,22,24,083,38,13,03,274,27,193,,,32*40
2017-05-25T16:41:02 -->> $GLGSV,1,1,02,73,61,169,32,74,53,324,31*69
2017-05-25T16:41:02 -->> $GNRMC,084104.000,A,3032.9042,N,10403.6119,E,0.00,289.83,250517,,,A*71
2017-05-25T16:41:02 -->> $GNVTG,289.83,T,,M,0.00,N,0.00,K,A*2B
2017-05-25T16:41:03 -->> $GNGGA,084105.000,3032.9042,N,10403.6119,E,1,8,1.10,541.2,M,-31.9,M,,*62
2017-05-25T16:41:03 -->> $GPGSA,A,3,01,11,28,22,30,03,17,19,,,,,1.43,1.10,0.92*0A
2017-05-25T16:41:03 -->> $GLGSA,A,3,,,,,,,,,,,,,1.43,1.10,0.92*13
2017-05-25T16:41:03 -->> $GPGSV,3,1,11,28,67,004,38,30,50,209,32,17,48,298,32,01,46,045,39*73
2017-05-25T16:41:03 -->> $GPGSV,3,2,11,42,37,124,27,11,31,046,38,19,30,275,32,03,26,114,35*7C
2017-05-25T16:41:03 -->> $GPGSV,3,3,11,22,24,083,38,13,03,274,27,193,,,31*43
2017-05-25T16:41:03 -->> $GLGSV,1,1,02,73,61,169,32,74,53,324,31*69
2017-05-25T16:41:03 -->> $GNRMC,084105.000,A,3032.9042,N,10403.6119,E,0.00,289.83,250517,,,A*70
2017-05-25T16:41:03 -->> $GNVTG,289.83,T,,M,0.00,N,0.00,K,A*2B
2017-05-25T16:41:04 -->> $GNGGA,084106.000,3032.9042,N,10403.6119,E,1,8,1.10,541.2,M,-31.9,M,,*61
2017-05-25T16:41:04 -->> $GPGSA,A,3,01,11,28,22,30,03,17,19,,,,,1.43,1.10,0.92*0A
2017-05-25T16:41:04 -->> $GLGSA,A,3,,,,,,,,,,,,,1.43,1.10,0.92*13
2017-05-25T16:41:04 -->> $GPGSV,3,1,11,28,67,004,38,30,50,209,32,17,48,298,32,01,46,045,39*73
2017-05-25T16:41:04 -->> $GPGSV,3,2,11,42,37,124,27,11,31,046,38,19,30,275,32,03,26,114,35*7C
2017-05-25T16:41:04 -->> $GPGSV,3,3,11,22,24,083,38,13,03,274,27,193,,,31*43
2017-05-25T16:41:04 -->> $GLGSV,1,1,02,73,61,169,32,74,53,324,31*69
2017-05-25T16:41:04 -->> $GNRMC,084106.000,A,3032.9042,N,10403.6119,E,0.00,289.83,250517,,,A*73
2017-05-25T16:41:05 -->> $GNVTG,289.83,T,,M,0.00,N,0.00,K,A*2B
2017-05-25T16:41:05 -->> $GNGGA,084107.000,3032.9042,N,10403.6119,E,1,8,1.10,541.2,M,-31.9,M,,*60
2017-05-25T16:41:05 -->> $GPGSA,A,3,01,11,28,22,30,03,17,19,,,,,1.43,1.10,0.92*0A
2017-05-25T16:41:05 -->> $GLGSA,A,3,,,,,,,,,,,,,1.43,1.10,0.92*13
2017-05-25T16:41:05 -->> $GPGSV,3,1,11,28,67,004,38,30,50,209,32,17,48,298,32,01,46,045,39*73
2017-05-25T16:41:05 -->> $GPGSV,3,2,11,42,37,124,27,11,31,046,38,19,30,275,32,03,26,114,35*7C
2017-05-25T16:41:05 -->> $GPGSV,3,3,11,22,24,083,38,13,03,274,27,193,,,31*43
2017-05-25T16:41:05 -->> $GLGSV,1,1,02,73,61,169,32,74,53,324,32*6A
2017-05-25T16:41:05 -->> $GNRMC,084107.000,A,3032.9042,N,10403.6119,E,0.00,289.83,250517,,,A*72
2017-05-25T16:41:06 -->> $GNVTG,289.83,T,,M,0.00,N,0.00,K,A*2B
2017-05-25T16:41:06 -->> $GNGGA,084108.000,3032.9042,N,10403.6119,E,1,8,1.15,541.2,M,-31.9,M,,*6A
2017-05-25T16:41:06 -->> $GPGSA,A,3,01,11,28,22,30,03,17,19,,,,,2.57,1.15,2.31*02
2017-05-25T16:41:06 -->> $GLGSA,A,3,,,,,,,,,,,,,2.57,1.15,2.31*1B
2017-05-25T16:41:06 -->> $GPGSV,3,1,11,28,67,004,38,30,50,209,31,17,48,298,32,01,46,045,39*70
2017-05-25T16:41:06 -->> $GPGSV,3,2,11,42,37,124,27,11,31,046,38,19,30,275,32,03,26,114,36*7F
2017-05-25T16:41:06 -->> $GPGSV,3,3,11,22,24,083,38,13,03,274,27,193,,,31*43
2017-05-25T16:41:06 -->> $GLGSV,1,1,02,73,61,169,32,74,53,324,32*6A
2017-05-25T16:41:06 -->> $GNRMC,084108.000,A,3032.9042,N,10403.6119,E,0.00,289.83,250517,,,A*7D
2017-05-25T16:41:06 -->> $GNVTG,289.83,T,,M,0.00,N,0.00,K,A*2B
2017-05-25T16:41:07 -->> $GNGGA,084109.000,3032.9042,N,10403.6119,E,1,8,1.10,541.2,M,-31.9,M,,*6E
2017-05-25T16:41:07 -->> $GPGSA,A,3,01,11,28,22,30,03,17,19,,,,,1.43,1.10,0.92*0A
2017-05-25T16:41:07 -->> $GLGSA,A,3,,,,,,,,,,,,,1.43,1.10,0.92*13
2017-05-25T16:41:07 -->> $GPGSV,3,1,11,28,67,004,38,30,50,209,31,17,48,298,32,01,46,045,39*70
2017-05-25T16:41:07 -->> $GPGSV,3,2,11,42,37,124,27,11,31,046,38,19,30,275,32,03,26,114,36*7F
2017-05-25T16:41:07 -->> $GPGSV,3,3,11,22,24,083,38,13,03,274,27,193,,,31*43
2017-05-25T16:41:07 -->> $GLGSV,1,1,02,73,61,169,32,74,53,324,32*6A
2017-05-25T16:41:07 -->> $GNRMC,084109.000,A,3032.9042,N,10403.6119,E,0.00,289.83,250517,,,A*7C
2017-05-25T16:41:07 -->> $GNVTG,289.83,T,,M,0.00,N,0.00,K,A*2B
2017-05-25T16:41:08 -->> $GNGGA,084110.000,3032.9042,N,10403.6119,E,1,13,0.83,541.2,M,-31.9,M,,*57
2017-05-25T16:41:08 -->> $GPGSA,A,3,01,11,28,22,30,03,17,19,,,,,1.18,0.83,0.84*08
2017-05-25T16:41:08 -->> $GLGSA,A,3,73,74,83,84,85,,,,,,,,1.18,0.83,0.84*1C
2017-05-25T16:41:08 -->> $GPGSV,3,1,11,28,67,004,38,30,50,209,31,17,48,298,32,01,46,045,39*70
2017-05-25T16:41:08 -->> $GPGSV,3,2,11,42,37,124,27,11,31,046,38,19,30,275,32,03,26,114,36*7F
2017-05-25T16:41:08 -->> $GPGSV,3,3,11,22,24,083,38,13,03,274,27,193,,,31*43
2017-05-25T16:41:09 -->> $GLGSV,2,1,05,73,61,169,32,84,58,307,24,74,53,324,32,83,31,027,30*62
2017-05-25T16:41:09 -->> $GLGSV,2,2,05,85,22,251,26*5F
2017-05-25T16:41:09 -->> $GNRMC,084110.000,A,3032.9042,N,10403.6119,E,0.00,289.83,250517,,,A*74
2017-05-25T16:41:09 -->> $GNVTG,289.83,T,,M,0.00,N,0.00,K,A*2B
2017-05-25T16:41:09 -->> $GNGGA,084111.000,3032.9042,N,10403.6119,E,1,13,0.83,541.2,M,-31.9,M,,*56
2017-05-25T16:41:09 -->> $GPGSA,A,3,01,11,28,22,30,03,17,19,,,,,1.18,0.83,0.84*08
2017-05-25T16:41:09 -->> $GLGSA,A,3,73,74,83,84,85,,,,,,,,1.18,0.83,0.84*1C
2017-05-25T16:41:09 -->> $GPGSV,3,1,11,28,67,004,38,30,50,209,31,17,48,298,32,01,46,045,39*70
2017-05-25T16:41:09 -->> $GPGSV,3,2,11,42,37,124,27,11,31,046,38,19,30,275,32,03,26,114,36*7F
2017-05-25T16:41:09 -->> $GPGSV,3,3,11,22,24,083,38,13,03,274,27,193,,,31*43
2017-05-25T16:41:09 -->> $GLGSV,2,1,05,73,61,169,32,84,58,307,24,74,53,324,32,83,31,027,30*62
2017-05-25T16:41:10 -->> $GLGSV,2,2,05,85,22,251,26*5F
2017-05-25T16:41:10 -->> $GNRMC,084111.000,A,3032.9042,N,10403.6119,E,0.00,289.83,250517,,,A*75
2017-05-25T16:41:10 -->> $GNVTG,289.83,T,,M,0.00,N,0.00,K,A*2B
2017-05-25T16:41:10 -->> $GNGGA,084112.000,3032.9042,N,10403.6119,E,1,13,0.83,541.2,M,-31.9,M,,*55
2017-05-25T16:41:10 -->> $GPGSA,A,3,01,11,28,22,30,03,17,19,,,,,1.18,0.83,0.84*08
2017-05-25T16:41:10 -->> $GLGSA,A,3,73,74,83,84,85,,,,,,,,1.18,0.83,0.84*1C
2017-05-25T16:41:10 -->> $GPGSV,3,1,11,28,67,004,38,30,50,209,31,17,48,298,32,01,46,045,38*71
2017-05-25T16:41:10 -->> $GPGSV,3,2,11,42,37,124,27,11,31,046,38,19,30,275,32,03,26,114,36*7F
2017-05-25T16:41:10 -->> $GPGSV,3,3,11,22,24,083,38,13,03,274,27,193,,,31*43
2017-05-25T16:41:11 -->> $GLGSV,2,1,05,73,61,169,32,84,58,307,24,74,53,324,32,83,31,027,30*62
2017-05-25T16:41:11 -->> $GLGSV,2,2,05,85,22,251,27*5E
2017-05-25T16:41:11 -->> $GNRMC,084112.000,A,3032.9042,N,10403.6119,E,0.00,289.83,250517,,,A*76
2017-05-25T16:41:11 -->> $GNVTG,289.83,T,,M,0.00,N,0.00,K,A*2B
2017-05-25T16:41:11 -->> $GNGGA,084113.000,3032.9042,N,10403.6119,E,1,13,0.83,541.2,M,-31.9,M,,*54
2017-05-25T16:41:11 -->> $GPGSA,A,3,01,11,28,22,30,03,17,19,,,,,1.18,0.83,0.84*08
2017-05-25T16:41:11 -->> $GLGSA,A,3,73,74,83,84,85,,,,,,,,1.18,0.83,0.84*1C
2017-05-25T16:41:11 -->> $GPGSV,3,1,11,28,67,004,38,30,50,209,30,17,48,298,32,01,46,045,38*70
2017-05-25T16:41:11 -->> $GPGSV,3,2,11,44,35,237,,11,31,046,38,19,30,275,32,03,26,114,36*7F
2017-05-25T16:41:11 -->> $GPGSV,3,3,11,22,24,083,38,13,03,274,27,193,,,31*43
2017-05-25T16:41:12 -->> $GLGSV,2,1,05,73,61,169,32,84,58,307,24,74,53,324,32,83,31,027,30*62
2017-05-25T16:41:12 -->> $GLGSV,2,2,05,85,22,251,27*5E
2017-05-25T16:41:12 -->> $GNRMC,084113.000,A,3032.9042,N,10403.6119,E,0.00,289.83,250517,,,A*77
2017-05-25T16:41:12 -->> $GNVTG,289.83,T,,M,0.00,N,0.00,K,A*2B
2017-05-25T16:41:12 -->> $GNGGA,084114.000,3032.9042,N,10403.6119,E,1,13,0.83,541.2,M,-31.9,M,,*53
2017-05-25T16:41:12 -->> $GPGSA,A,3,01,11,28,22,30,03,17,19,,,,,1.18,0.83,0.84*08
2017-05-25T16:41:12 -->> $GLGSA,A,3,73,74,83,84,85,,,,,,,,1.18,0.83,0.84*1C
2017-05-25T16:41:12 -->> $GPGSV,3,1,12,28,67,004,38,30,50,209,30,17,48,298,32,01,46,045,38*73
2017-05-25T16:41:12 -->> $GPGSV,3,2,12,44,35,237,,11,31,046,38,19,30,275,32,03,26,114,36*7C
2017-05-25T16:41:12 -->> $GPGSV,3,3,12,22,24,083,39,13,03,274,27,193,,,31,07,,,23*47
2017-05-25T16:41:13 -->> $GLGSV,2,1,06,73,61,169,32,84,58,307,24,74,53,324,32,83,31,027,30*61
2017-05-25T16:41:13 -->> $GLGSV,2,2,06,85,22,251,27,75,03,332,*6E
2017-05-25T16:41:13 -->> $GNRMC,084114.000,A,3032.9042,N,10403.6119,E,0.00,289.83,250517,,,A*70
2017-05-25T16:41:13 -->> $GNVTG,289.83,T,,M,0.00,N,0.00,K,A*2B
2017-05-25T16:41:13 -->> $GNGGA,084115.000,3032.9042,N,10403.6119,E,1,13,0.83,541.2,M,-31.9,M,,*52
2017-05-25T16:41:13 -->> $GPGSA,A,3,01,11,28,22,30,03,17,19,,,,,1.18,0.83,0.84*08
2017-05-25T16:41:13 -->> $GLGSA,A,3,73,74,83,84,85,,,,,,,,1.18,0.83,0.84*1C
2017-05-25T16:41:13 -->> $GPGSV,3,1,12,28,67,004,38,30,50,209,30,17,48,298,32,01,46,045,38*73
2017-05-25T16:41:13 -->> $GPGSV,3,2,12,44,35,237,,11,31,046,38,19,30,275,32,03,26,114,36*7C
2017-05-25T16:41:13 -->> $GPGSV,3,3,12,22,24,083,39,13,03,274,27,193,,,31,07,,,22*46
2017-05-25T16:41:14 -->> $GLGSV,2,1,06,73,61,169,31,84,58,307,24,74,53,324,32,83,31,027,30*62
2017-05-25T16:41:14 -->> $GLGSV,2,2,06,85,22,251,27,75,03,332,*6E
2017-05-25T16:41:14 -->> $GNRMC,084115.000,A,3032.9042,N,10403.6119,E,0.00,289.83,250517,,,A*71
2017-05-25T16:41:14 -->> $GNVTG,289.83,T,,M,0.00,N,0.00,K,A*2B
2017-05-25T16:41:14 -->> $GNGGA,084116.000,3032.9042,N,10403.6119,E,1,13,0.83,541.2,M,-31.9,M,,*51
2017-05-25T16:41:14 -->> $GPGSA,A,3,01,11,28,22,30,03,17,19,,,,,1.18,0.83,0.84*08
2017-05-25T16:41:14 -->> $GLGSA,A,3,73,74,83,84,85,,,,,,,,1.18,0.83,0.84*1C
2017-05-25T16:41:14 -->> $GPGSV,3,1,12,28,67,004,38,30,50,209,29,17,48,298,32,01,46,045,38*7B
2017-05-25T16:41:14 -->> $GPGSV,3,2,12,44,35,237,,11,31,046,38,19,30,275,32,03,26,114,36*7C
2017-05-25T16:41:14 -->> $GPGSV,3,3,12,22,24,083,39,13,03,274,27,193,,,31,07,,,24*40
2017-05-25T16:41:15 -->> $GLGSV,2,1,06,73,61,169,31,84,58,307,24,74,53,324,32,83,31,027,30*62
2017-05-25T16:41:15 -->> $GLGSV,2,2,06,85,22,251,27,75,03,332,*6E
2017-05-25T16:41:15 -->> $GNRMC,084116.000,A,3032.9042,N,10403.6119,E,0.00,289.83,250517,,,A*72
2017-05-25T16:41:15 -->> $GNVTG,289.83,T,,M,0.00,N,0.00,K,A*2B
2017-05-25T16:41:15 -->> $GNGGA,084117.000,3032.9042,N,10403.6119,E,1,13,0.84,541.2,M,-31.9,M,,*57
2017-05-25T16:41:15 -->> $GPGSA,A,3,01,11,28,22,30,03,17,19,,,,,1.75,0.84,1.53*0F
2017-05-25T16:41:15 -->> $GLGSA,A,3,73,74,83,84,85,,,,,,,,1.75,0.84,1.53*1B
2017-05-25T16:41:15 -->> $GPGSV,3,1,12,28,67,004,38,30,50,209,29,17,48,298,32,01,46,045,38*7B
2017-05-25T16:41:15 -->> $GPGSV,3,2,12,44,35,237,,11,31,046,38,19,30,275,32,03,26,114,36*7C
2017-05-25T16:41:15 -->> $GPGSV,3,3,12,22,24,083,39,13,03,274,27,193,,,31,07,,,25*41
2017-05-25T16:41:16 -->> $GLGSV,2,1,06,73,61,169,31,84,58,307,24,74,53,324,32,83,31,027,29*6A
2017-05-25T16:41:16 -->> $GLGSV,2,2,06,85,22,251,27,75,03,332,*6E
2017-05-25T16:41:16 -->> $GNRMC,084117.000,A,3032.9042,N,10403.6119,E,0.00,289.83,250517,,,A*73
2017-05-25T16:41:16 -->> $GNVTG,289.83,T,,M,0.00,N,0.00,K,A*2B
2017-05-25T16:41:16 -->> $GNGGA,084118.000,3032.9042,N,10403.6119,E,1,13,0.83,541.2,M,-31.9,M,,*5F
2017-05-25T16:41:16 -->> $GPGSA,A,3,01,11,28,22,30,03,17,19,,,,,1.18,0.83,0.84*08
2017-05-25T16:41:16 -->> $GLGSA,A,3,73,74,83,84,85,,,,,,,,1.18,0.83,0.84*1C
2017-05-25T16:41:16 -->> $GPGSV,3,1,12,28,67,004,38,30,50,209,29,17,48,298,32,01,46,045,38*7B
2017-05-25T16:41:16 -->> $GPGSV,3,2,12,44,35,237,,11,31,046,38,19,30,275,32,03,26,114,36*7C
2017-05-25T16:41:16 -->> $GPGSV,3,3,12,22,24,083,39,13,03,274,27,193,,,31,07,,,24*40
2017-05-25T16:41:17 -->> $GLGSV,2,1,06,73,61,169,31,84,58,307,24,74,53,324,32,83,31,027,29*6A
2017-05-25T16:41:17 -->> $GLGSV,2,2,06,85,22,251,27,75,03,332,*6E
2017-05-25T16:41:17 -->> $GNRMC,084118.000,A,3032.9042,N,10403.6119,E,0.00,289.83,250517,,,A*7C
2017-05-25T16:41:17 -->> $GNVTG,289.83,T,,M,0.00,N,0.00,K,A*2B
2017-05-25T16:41:17 -->> $GNGGA,084119.000,3032.9042,N,10403.6119,E,1,13,0.83,541.2,M,-31.9,M,,*5E
2017-05-25T16:41:17 -->> $GPGSA,A,3,01,11,28,22,30,03,17,19,,,,,1.18,0.83,0.84*08
2017-05-25T16:41:17 -->> $GLGSA,A,3,73,74,83,84,85,,,,,,,,1.18,0.83,0.84*1C
2017-05-25T16:41:17 -->> $GPGSV,3,1,12,28,67,004,38,30,50,209,29,17,48,298,32,01,46,045,38*7B
2017-05-25T16:41:17 -->> $GPGSV,3,2,12,44,35,237,,11,31,046,38,19,30,275,32,03,26,114,36*7C
2017-05-25T16:41:17 -->> $GPGSV,3,3,12,22,24,083,39,13,03,274,27,193,,,31,07,,,24*40
2017-05-25T16:41:18 -->> $GLGSV,2,1,06,73,61,169,31,84,58,307,24,74,53,324,32,83,31,027,29*6A
2017-05-25T16:41:18 -->> $GLGSV,2,2,06,85,22,251,27,75,03,332,*6E
2017-05-25T16:41:18 -->> $GNRMC,084119.000,A,3032.9042,N,10403.6119,E,0.00,289.83,250517,,,A*7D
2017-05-25T16:41:18 -->> $GNVTG,289.83,T,,M,0.00,N,0.00,K,A*2B
2017-05-25T16:41:18 -->> $GNGGA,084120.000,3032.9042,N,10403.6119,E,1,13,0.83,541.2,M,-31.9,M,,*54
2017-05-25T16:41:18 -->> $GPGSA,A,3,01,11,28,22,30,03,17,19,,,,,1.18,0.83,0.84*08
2017-05-25T16:41:18 -->> $GLGSA,A,3,73,74,83,84,85,,,,,,,,1.18,0.83,0.84*1C
2017-05-25T16:41:18 -->> $GPGSV,3,1,12,28,67,004,38,30,50,209,29,17,48,298,32,01,46,045,38*7B
2017-05-25T16:41:18 -->> $GPGSV,3,2,12,44,35,237,,11,31,046,38,19,30,275,32,03,26,114,36*7C
2017-05-25T16:41:18 -->> $GPGSV,3,3,12,22,24,083,39,13,03,274,27,193,,,31,07,,,24*40
2017-05-25T16:41:19 -->> $GLGSV,2,1,06,73,61,169,31,84,58,307,24,74,53,324,32,83,31,027,29*6A
2017-05-25T16:41:19 -->> $GLGSV,2,2,06,85,22,251,27,75,03,332,*6E
2017-05-25T16:41:19 -->> $GNRMC,084120.000,A,3032.9042,N,10403.6119,E,0.00,289.83,250517,,,A*77
2017-05-25T16:41:19 -->> $GNVTG,289.83,T,,M,0.00,N,0.00,K,A*2B
2017-05-25T16:41:19 -->> $GNGGA,084121.000,3032.9042,N,10403.6119,E,1,13,0.84,541.2,M,-31.9,M,,*52
2017-05-25T16:41:19 -->> $GPGSA,A,3,01,11,28,22,30,03,17,19,,,,,1.75,0.84,1.53*0F
2017-05-25T16:41:19 -->> $GLGSA,A,3,73,74,83,84,85,,,,,,,,1.75,0.84,1.53*1B
2017-05-25T16:41:19 -->> $GPGSV,3,1,12,28,67,004,38,30,50,209,29,17,48,298,32,01,46,045,38*7B
2017-05-25T16:41:19 -->> $GPGSV,3,2,12,44,35,237,,11,31,046,38,19,30,275,32,03,26,114,36*7C
2017-05-25T16:41:19 -->> $GPGSV,3,3,12,22,24,083,39,13,03,274,27,193,,,31,07,,,24*40
2017-05-25T16:41:20 -->> $GLGSV,2,1,06,73,61,169,31,84,58,307,24,74,53,324,32,83,31,027,29*6A
2017-05-25T16:41:20 -->> $GLGSV,2,2,06,85,22,251,27,75,03,332,*6E
2017-05-25T16:41:20 -->> $GNRMC,084121.000,A,3032.9042,N,10403.6119,E,0.00,289.83,250517,,,A*76
2017-05-25T16:41:20 -->> $GNVTG,289.83,T,,M,0.00,N,0.00,K,A*2B
2017-05-25T16:41:20 -->> $GNGGA,084122.000,3032.9042,N,10403.6119,E,1,13,0.83,541.2,M,-31.9,M,,*56
2017-05-25T16:41:20 -->> $GPGSA,A,3,01,11,28,22,30,03,17,19,,,,,1.18,0.83,0.84*08
2017-05-25T16:41:20 -->> $GLGSA,A,3,73,74,83,84,85,,,,,,,,1.18,0.83,0.84*1C
2017-05-25T16:41:20 -->> $GPGSV,3,1,12,28,67,004,38,30,50,209,28,17,48,298,32,01,46,045,38*7A
2017-05-25T16:41:20 -->> $GPGSV,3,2,12,40,34,238,,11,31,046,38,19,30,275,32,03,26,114,36*76
2017-05-25T16:41:20 -->> $GPGSV,3,3,12,22,24,083,39,13,03,274,27,193,,,31,07,,,24*40
2017-05-25T16:41:21 -->> $GLGSV,2,1,06,73,61,169,31,84,58,307,24,74,53,324,32,83,31,027,29*6A
2017-05-25T16:41:21 -->> $GLGSV,2,2,06,85,22,251,26,75,03,332,*6F
2017-05-25T16:41:21 -->> $GNRMC,084122.000,A,3032.9042,N,10403.6119,E,0.00,289.83,250517,,,A*75
2017-05-25T16:41:21 -->> $GNVTG,289.83,T,,M,0.00,N,0.00,K,A*2B
2017-05-25T16:41:21 -->> $GNGGA,084123.000,3032.9042,N,10403.6119,E,1,13,0.83,541.2,M,-31.9,M,,*57
2017-05-25T16:41:21 -->> $GPGSA,A,3,01,11,28,22,30,03,17,19,,,,,1.18,0.83,0.84*08
2017-05-25T16:41:21 -->> $GLGSA,A,3,73,74,83,84,85,,,,,,,,1.18,0.83,0.84*1C
2017-05-25T16:41:21 -->> $GPGSV,3,1,12,28,67,004,38,30,50,209,28,17,48,298,32,01,46,045,38*7A
2017-05-25T16:41:21 -->> $GPGSV,3,2,12,40,34,238,,11,31,046,38,19,30,275,32,03,26,114,37*77
2017-05-25T16:41:21 -->> $GPGSV,3,3,12,22,24,083,39,13,03,274,27,193,,,31,07,,,24*40
2017-05-25T16:41:22 -->> $GLGSV,2,1,06,73,61,169,31,84,58,307,24,74,53,324,32,83,31,027,29*6A
2017-05-25T16:41:22 -->> $GLGSV,2,2,06,85,22,251,26,75,03,332,*6F
2017-05-25T16:41:22 -->> $GNRMC,084123.000,A,3032.9042,N,10403.6119,E,0.00,289.83,250517,,,A*74
2017-05-25T16:41:22 -->> $GNVTG,289.83,T,,M,0.00,N,0.00,K,A*2B
2017-05-25T16:41:22 -->> $GNGGA,084124.000,3032.9042,N,10403.6119,E,1,13,0.83,541.2,M,-31.9,M,,*50
2017-05-25T16:41:22 -->> $GPGSA,A,3,01,11,28,22,30,03,17,19,,,,,1.18,0.83,0.84*08
2017-05-25T16:41:22 -->> $GLGSA,A,3,73,74,83,84,85,,,,,,,,1.18,0.83,0.84*1C
2017-05-25T16:41:22 -->> $GPGSV,3,1,12,28,67,004,38,30,50,209,27,17,48,298,32,01,46,045,38*75
2017-05-25T16:41:22 -->> $GPGSV,3,2,12,40,34,238,,11,31,046,38,19,30,275,32,03,26,114,37*77
2017-05-25T16:41:22 -->> $GPGSV,3,3,12,22,24,083,39,13,03,274,27,193,,,31,07,,,24*40
2017-05-25T16:41:23 -->> $GLGSV,2,1,06,73,61,169,31,84,58,307,24,74,53,324,32,83,31,027,29*6A
2017-05-25T16:41:23 -->> $GLGSV,2,2,06,85,22,251,26,75,03,332,*6F
2017-05-25T16:41:23 -->> $GNRMC,084124.000,A,3032.9042,N,10403.6119,E,0.00,289.83,250517,,,A*73
2017-05-25T16:41:23 -->> $GNVTG,289.83,T,,M,0.00,N,0.00,K,A*2B
2017-05-25T16:41:23 -->> $GNGGA,084125.000,3032.9042,N,10403.6119,E,1,13,0.83,541.2,M,-31.9,M,,*51
2017-05-25T16:41:23 -->> $GPGSA,A,3,01,11,28,22,30,03,17,19,,,,,1.18,0.83,0.84*08
2017-05-25T16:41:23 -->> $GLGSA,A,3,73,74,83,84,85,,,,,,,,1.18,0.83,0.84*1C
2017-05-25T16:41:23 -->> $GPGSV,3,1,12,28,67,004,38,30,50,209,27,17,48,298,32,01,46,045,38*75
2017-05-25T16:41:23 -->> $GPGSV,3,2,12,40,34,238,,11,31,046,38,19,30,275,32,03,26,114,37*77
2017-05-25T16:41:23 -->> $GPGSV,3,3,12,22,24,083,39,13,03,274,27,193,,,31,07,,,24*40
2017-05-25T16:41:24 -->> $GLGSV,2,1,06,73,61,169,31,84,58,307,24,74,53,324,32,83,31,027,29*6A
2017-05-25T16:41:24 -->> $GLGSV,2,2,06,85,22,251,26,75,03,332,*6F
2017-05-25T16:41:24 -->> $GNRMC,084125.000,A,3032.9042,N,10403.6119,E,0.00,289.83,250517,,,A*72
2017-05-25T16:41:24 -->> $GNVTG,289.83,T,,M,0.00,N,0.00,K,A*2B
2017-05-25T16:41:24 -->> $GNGGA,084126.000,3032.9042,N,10403.6119,E,1,13,0.83,541.2,M,-31.9,M,,*52
2017-05-25T16:41:24 -->> $GPGSA,A,3,01,11,28,22,30,03,17,19,,,,,1.18,0.83,0.84*08
2017-05-25T16:41:24 -->> $GLGSA,A,3,73,74,83,84,85,,,,,,,,1.18,0.83,0.84*1C
2017-05-25T16:41:24 -->> $GPGSV,3,1,12,28,67,004,38,30,50,209,26,17,48,298,31,01,46,045,38*77
2017-05-25T16:41:24 -->> $GPGSV,3,2,12,40,34,238,,11,31,046,38,19,30,275,32,03,26,114,37*77
2017-05-25T16:41:24 -->> $GPGSV,3,3,12,22,24,083,39,13,03,274,27,193,,,31,07,,,24*40
2017-05-25T16:41:25 -->> $GLGSV,2,1,06,73,61,169,31,84,58,307,24,74,53,324,32,83,31,027,29*6A
2017-05-25T16:41:25 -->> $GLGSV,2,2,06,85,22,251,26,75,03,332,*6F
2017-05-25T16:41:25 -->> $GNRMC,084126.000,A,3032.9042,N,10403.6119,E,0.00,289.83,250517,,,A*71
2017-05-25T16:41:25 -->> $GNVTG,289.83,T,,M,0.00,N,0.00,K,A*2B
2017-05-25T16:41:25 -->> $GNGGA,084127.000,3032.9042,N,10403.6119,E,1,13,0.83,541.2,M,-31.9,M,,*53
2017-05-25T16:41:25 -->> $GPGSA,A,3,01,11,28,22,30,03,17,19,,,,,1.18,0.83,0.84*08
2017-05-25T16:41:25 -->> $GLGSA,A,3,73,74,83,84,85,,,,,,,,1.18,0.83,0.84*1C
2017-05-25T16:41:25 -->> $GPGSV,3,1,12,28,67,004,38,30,50,209,26,17,48,298,31,01,46,045,38*77
2017-05-25T16:41:25 -->> $GPGSV,3,2,12,40,34,238,29,11,31,046,38,19,30,275,32,03,26,114,37*7C
2017-05-25T16:41:25 -->> $GPGSV,3,3,12,22,24,083,39,13,03,274,27,193,,,31,07,,,24*40
2017-05-25T16:41:26 -->> $GLGSV,2,1,06,73,61,169,31,84,58,307,24,74,53,324,32,83,31,027,29*6A
2017-05-25T16:41:26 -->> $GLGSV,2,2,06,85,22,251,26,75,03,332,*6F
2017-05-25T16:41:26 -->> $GNRMC,084127.000,A,3032.9042,N,10403.6119,E,0.00,289.83,250517,,,A*70
2017-05-25T16:41:26 -->> $GNVTG,289.83,T,,M,0.00,N,0.00,K,A*2B
2017-05-25T16:41:26 -->> $GNGGA,084128.000,3032.9042,N,10403.6119,E,1,13,0.83,541.2,M,-31.9,M,,*5C
2017-05-25T16:41:26 -->> $GPGSA,A,3,01,11,28,22,30,03,17,19,,,,,1.18,0.83,0.84*08
2017-05-25T16:41:26 -->> $GLGSA,A,3,73,74,83,84,85,,,,,,,,1.18,0.83,0.84*1C
2017-05-25T16:41:26 -->> $GPGSV,3,1,12,28,67,004,38,30,50,209,26,17,48,298,31,01,46,045,38*77
2017-05-25T16:41:26 -->> $GPGSV,3,2,12,40,34,238,28,11,31,046,38,19,30,275,32,03,26,114,37*7D
2017-05-25T16:41:26 -->> $GPGSV,3,3,12,22,24,083,39,13,03,274,27,193,,,31,07,,,24*40
2017-05-25T16:41:27 -->> $GLGSV,2,1,06,73,61,169,31,84,58,307,24,74,53,324,32,83,31,027,29*6A
2017-05-25T16:41:27 -->> $GLGSV,2,2,06,85,22,251,26,75,03,332,*6F
2017-05-25T16:41:27 -->> $GNRMC,084128.000,A,3032.9042,N,10403.6119,E,0.00,289.83,250517,,,A*7F
2017-05-25T16:41:27 -->> $GNVTG,289.83,T,,M,0.00,N,0.00,K,A*2B
2017-05-25T16:41:27 -->> $GNGGA,084129.000,3032.9042,N,10403.6119,E,1,13,0.83,541.2,M,-31.9,M,,*5D
2017-05-25T16:41:27 -->> $GPGSA,A,3,01,11,28,22,30,03,17,19,,,,,1.18,0.83,0.84*08
2017-05-25T16:41:27 -->> $GLGSA,A,3,73,74,83,84,85,,,,,,,,1.18,0.83,0.84*1C
2017-05-25T16:41:27 -->> $GPGSV,3,1,12,28,67,004,38,30,50,209,26,17,48,298,31,01,46,045,38*77
2017-05-25T16:41:27 -->> $GPGSV,3,2,12,40,34,238,28,11,31,046,38,19,30,275,32,03,26,114,37*7D
2017-05-25T16:41:27 -->> $GPGSV,3,3,12,22,24,083,39,13,03,274,27,193,,,31,07,,,24*40
2017-05-25T16:41:28 -->> $GLGSV,2,1,06,73,61,169,31,84,58,307,24,74,53,324,32,83,31,027,29*6A
2017-05-25T16:41:28 -->> $GLGSV,2,2,06,85,22,251,26,75,03,332,*6F
2017-05-25T16:41:28 -->> $GNRMC,084129.000,A,3032.9042,N,10403.6119,E,0.00,289.83,250517,,,A*7E
2017-05-25T16:41:28 -->> $GNVTG,289.83,T,,M,0.00,N,0.00,K,A*2B
2017-05-25T16:41:28 -->> $GNGGA,084130.000,3032.9042,N,10403.6119,E,1,13,0.83,541.2,M,-31.9,M,,*55
2017-05-25T16:41:28 -->> $GPGSA,A,3,01,11,28,22,30,03,17,19,,,,,1.18,0.83,0.84*08
2017-05-25T16:41:28 -->> $GLGSA,A,3,73,74,83,84,85,,,,,,,,1.18,0.83,0.84*1C
2017-05-25T16:41:28 -->> $GPGSV,3,1,12,28,67,004,38,30,50,209,26,17,48,298,31,01,46,045,38*77
2017-05-25T16:41:28 -->> $GPGSV,3,2,12,40,34,238,28,11,31,046,38,19,30,275,32,03,26,114,37*7D
2017-05-25T16:41:28 -->> $GPGSV,3,3,12,22,24,083,39,13,03,274,27,193,,,31,07,,,24*40
2017-05-25T16:41:29 -->> $GLGSV,2,1,06,73,61,169,31,84,58,307,24,74,53,324,32,83,31,027,29*6A
2017-05-25T16:41:29 -->> $GLGSV,2,2,06,85,22,251,26,75,03,332,*6F
2017-05-25T16:41:29 -->> $GNRMC,084130.000,A,3032.9042,N,10403.6119,E,0.00,289.83,250517,,,A*76
2017-05-25T16:41:29 -->> $GNVTG,289.83,T,,M,0.00,N,0.00,K,A*2B
2017-05-25T16:41:29 -->> $GNGGA,084131.000,3032.9042,N,10403.6119,E,1,14,0.77,541.2,M,-31.9,M,,*58
2017-05-25T16:41:29 -->> $GPGSA,A,3,01,11,28,22,193,30,03,17,19,,,,1.14,0.77,0.84*34
2017-05-25T16:41:29 -->> $GLGSA,A,3,73,74,83,84,85,,,,,,,,1.14,0.77,0.84*1B
2017-05-25T16:41:29 -->> $GPGSV,3,1,12,28,67,004,38,30,50,209,26,17,48,298,31,01,46,045,38*77
2017-05-25T16:41:29 -->> $GPGSV,3,2,12,40,34,238,28,11,31,046,38,19,30,275,32,03,26,114,37*7D
2017-05-25T16:41:29 -->> $GPGSV,3,3,12,22,24,083,39,13,03,274,27,193,,,31,07,,,24*40
2017-05-25T16:41:30 -->> $GLGSV,2,1,06,73,61,169,31,84,58,307,24,74,53,324,32,83,31,027,29*6A
2017-05-25T16:41:30 -->> $GLGSV,2,2,06,85,22,251,26,75,03,332,*6F
2017-05-25T16:41:30 -->> $GNRMC,084131.000,A,3032.9042,N,10403.6119,E,0.00,289.83,250517,,,A*77
2017-05-25T16:41:30 -->> $GNVTG,289.83,T,,M,0.00,N,0.00,K,A*2B
2017-05-25T16:41:30 -->> $GNGGA,084132.000,3032.9042,N,10403.6119,E,1,14,0.77,541.2,M,-31.9,M,,*5B
2017-05-25T16:41:30 -->> $GPGSA,A,3,01,11,28,22,193,30,03,17,19,,,,1.14,0.77,0.84*34
2017-05-25T16:41:30 -->> $GLGSA,A,3,73,74,83,84,85,,,,,,,,1.14,0.77,0.84*1B
2017-05-25T16:41:30 -->> $GPGSV,3,1,12,28,67,004,38,30,50,209,26,17,48,298,31,01,46,045,38*77
2017-05-25T16:41:30 -->> $GPGSV,3,2,12,40,34,238,28,11,31,046,38,19,30,275,32,03,26,114,37*7D
2017-05-25T16:41:30 -->> $GPGSV,3,3,12,22,24,083,39,13,03,274,27,193,,,31,07,,,24*40
2017-05-25T16:41:31 -->> $GLGSV,2,1,06,73,61,169,31,84,58,307,24,74,53,324,32,83,31,027,29*6A
2017-05-25T16:41:31 -->> $GLGSV,2,2,06,85,22,251,26,75,03,332,*6F
2017-05-25T16:41:31 -->> $GNRMC,084132.000,A,3032.9042,N,10403.6119,E,0.00,289.83,250517,,,A*74
2017-05-25T16:41:31 -->> $GNVTG,289.83,T,,M,0.00,N,0.00,K,A*2B
2017-05-25T16:41:31 -->> $GNGGA,084133.000,3032.9042,N,10403.6119,E,1,14,0.77,541.2,M,-31.9,M,,*5A
2017-05-25T16:41:31 -->> $GPGSA,A,3,01,11,28,22,193,30,03,17,19,,,,1.14,0.77,0.84*34
2017-05-25T16:41:31 -->> $GLGSA,A,3,73,74,83,84,85,,,,,,,,1.14,0.77,0.84*1B
2017-05-25T16:41:31 -->> $GPGSV,3,1,12,28,67,004,38,30,50,209,26,17,48,298,31,01,46,045,38*77
2017-05-25T16:41:31 -->> $GPGSV,3,2,12,40,34,238,28,11,31,046,38,19,30,275,32,03,26,114,37*7D
2017-05-25T16:41:31 -->> $GPGSV,3,3,12,22,24,083,39,13,03,274,28,193,,,31,07,,,24*4F
2017-05-25T16:41:32 -->> $GLGSV,2,1,06,73,61,169,31,84,58,307,24,74,53,324,32,83,31,027,29*6A
2017-05-25T16:41:32 -->> $GLGSV,2,2,06,85,22,251,26,75,03,332,*6F
2017-05-25T16:41:32 -->> $GNRMC,084133.000,A,3032.9042,N,10403.6119,E,0.00,289.83,250517,,,A*75
2017-05-25T16:41:32 -->> $GNVTG,289.83,T,,M,0.00,N,0.00,K,A*2B
2017-05-25T16:41:32 -->> $GNGGA,084134.000,3032.9042,N,10403.6119,E,1,14,0.77,541.2,M,-31.9,M,,*5D
2017-05-25T16:41:32 -->> $GPGSA,A,3,01,11,28,22,193,30,03,17,19,,,,1.14,0.77,0.84*34
2017-05-25T16:41:32 -->> $GLGSA,A,3,73,74,83,84,85,,,,,,,,1.14,0.77,0.84*1B
2017-05-25T16:41:32 -->> $GPGSV,3,1,12,28,67,004,38,30,50,209,26,17,48,298,31,01,46,045,38*77
2017-05-25T16:41:32 -->> $GPGSV,3,2,12,40,34,238,28,11,31,046,38,19,30,275,32,03,26,114,37*7D
2017-05-25T16:41:32 -->> $GPGSV,3,3,12,22,24,083,39,13,03,274,28,193,,,31,07,,,24*4F
2017-05-25T16:41:33 -->> $GLGSV,2,1,06,73,61,169,31,84,58,307,25,74,53,324,32,83,31,027,29*6B
2017-05-25T16:41:33 -->> $GLGSV,2,2,06,85,22,251,26,75,03,332,*6F
2017-05-25T16:41:33 -->> $GNRMC,084134.000,A,3032.9042,N,10403.6119,E,0.00,289.83,250517,,,A*72
2017-05-25T16:41:33 -->> $GNVTG,289.83,T,,M,0.00,N,0.00,K,A*2B
2017-05-25T16:41:33 -->> $GNGGA,084135.000,3032.9042,N,10403.6119,E,1,14,0.78,541.2,M,-31.9,M,,*53
2017-05-25T16:41:33 -->> $GPGSA,A,3,01,11,28,22,193,30,03,17,19,,,,1.72,0.78,1.53*30
2017-05-25T16:41:33 -->> $GLGSA,A,3,73,74,83,84,85,,,,,,,,1.72,0.78,1.53*1F
2017-05-25T16:41:33 -->> $GPGSV,3,1,12,28,67,004,38,30,50,209,26,17,48,298,31,01,46,045,38*77
2017-05-25T16:41:33 -->> $GPGSV,3,2,12,40,34,238,28,11,31,046,38,19,30,275,32,03,26,114,37*7D
2017-05-25T16:41:33 -->> $GPGSV,3,3,12,22,24,083,39,13,03,274,28,193,,,31,07,,,24*4F
2017-05-25T16:41:34 -->> $GLGSV,2,1,06,73,61,169,31,84,58,307,25,74,53,324,32,83,31,027,29*6B
2017-05-25T16:41:34 -->> $GLGSV,2,2,06,85,22,251,26,75,03,332,*6F
2017-05-25T16:41:34 -->> $GNRMC,084135.000,A,3032.9042,N,10403.6119,E,0.00,289.83,250517,,,A*73
2017-05-25T16:41:34 -->> $GNVTG,289.83,T,,M,0.00,N,0.00,K,A*2B
2017-05-25T16:41:34 -->> $GNGGA,084136.000,3032.9042,N,10403.6119,E,1,14,0.77,541.2,M,-31.9,M,,*5F
2017-05-25T16:41:34 -->> $GPGSA,A,3,01,11,28,22,193,30,03,17,19,,,,1.14,0.77,0.84*34
2017-05-25T16:41:34 -->> $GLGSA,A,3,73,74,83,84,85,,,,,,,,1.14,0.77,0.84*1B
2017-05-25T16:41:34 -->> $GPGSV,3,1,12,28,67,004,38,30,50,209,26,17,48,298,31,01,46,045,38*77
2017-05-25T16:41:34 -->> $GPGSV,3,2,12,40,34,238,28,11,31,046,38,19,30,275,32,03,26,114,37*7D
2017-05-25T16:41:34 -->> $GPGSV,3,3,12,22,24,083,39,13,03,274,28,193,,,31,07,,,24*4F
2017-05-25T16:41:35 -->> $GLGSV,2,1,06,73,61,169,31,84,58,307,25,74,53,324,32,83,31,027,29*6B
2017-05-25T16:41:35 -->> $GLGSV,2,2,06,85,22,251,27,75,03,332,*6E
2017-05-25T16:41:35 -->> $GNRMC,084136.000,A,3032.9042,N,10403.6119,E,0.00,289.83,250517,,,A*70
2017-05-25T16:41:35 -->> $GNVTG,289.83,T,,M,0.00,N,0.00,K,A*2B
2017-05-25T16:41:35 -->> $GNGGA,084137.000,3032.9042,N,10403.6119,E,1,14,0.77,541.2,M,-31.9,M,,*5E
2017-05-25T16:41:35 -->> $GPGSA,A,3,01,11,28,22,193,30,03,17,19,,,,1.14,0.77,0.84*34
2017-05-25T16:41:35 -->> $GLGSA,A,3,73,74,83,84,85,,,,,,,,1.14,0.77,0.84*1B
2017-05-25T16:41:35 -->> $GPGSV,3,1,12,28,67,004,38,30,50,209,26,17,48,298,31,01,46,045,38*77
2017-05-25T16:41:35 -->> $GPGSV,3,2,12,40,34,238,28,193,32,120,31,11,31,046,38,19,30,275,32*41
2017-05-25T16:41:35 -->> $GPGSV,3,3,12,03,26,114,37,22,24,083,39,13,03,274,28,07,,,24*41
2017-05-25T16:41:36 -->> $GLGSV,2,1,06,73,61,169,31,84,58,307,25,74,53,324,32,83,31,027,29*6B
2017-05-25T16:41:36 -->> $GLGSV,2,2,06,85,22,251,27,75,03,332,*6E
2017-05-25T16:41:36 -->> $GNRMC,084137.000,A,3032.9042,N,10403.6119,E,0.00,289.83,250517,,,A*71
2017-05-25T16:41:36 -->> $GNVTG,289.83,T,,M,0.00,N,0.00,K,A*2B
2017-05-25T16:41:36 -->> $GNGGA,084138.000,3032.9042,N,10403.6119,E,1,14,0.77,541.2,M,-31.9,M,,*51
2017-05-25T16:41:36 -->> $GPGSA,A,3,01,11,28,22,193,30,03,17,19,,,,1.14,0.77,0.84*34
2017-05-25T16:41:36 -->> $GLGSA,A,3,73,74,83,84,85,,,,,,,,1.14,0.77,0.84*1B
2017-05-25T16:41:36 -->> $GPGSV,3,1,12,28,67,004,38,30,50,209,26,17,48,298,31,01,46,045,38*77
2017-05-25T16:41:36 -->> $GPGSV,3,2,12,40,34,238,28,193,32,120,31,11,31,046,38,19,30,275,32*41
2017-05-25T16:41:36 -->> $GPGSV,3,3,12,03,26,114,37,22,24,083,39,13,03,274,28,07,,,24*41
2017-05-25T16:41:37 -->> $GLGSV,2,1,06,73,61,169,31,84,58,307,25,74,53,324,32,83,31,027,29*6B
2017-05-25T16:41:37 -->> $GLGSV,2,2,06,85,22,251,27,75,03,332,*6E
2017-05-25T16:41:37 -->> $GNRMC,084138.000,A,3032.9042,N,10403.6119,E,0.00,289.83,250517,,,A*7E
2017-05-25T16:41:37 -->> $GNVTG,289.83,T,,M,0.00,N,0.00,K,A*2B
2017-05-25T16:41:37 -->> $GNGGA,084139.000,3032.9042,N,10403.6119,E,1,14,0.78,541.2,M,-31.9,M,,*5F
2017-05-25T16:41:37 -->> $GPGSA,A,3,01,11,28,22,193,30,03,17,19,,,,1.72,0.78,1.53*30
2017-05-25T16:41:37 -->> $GLGSA,A,3,73,74,83,84,85,,,,,,,,1.72,0.78,1.53*1F
2017-05-25T16:41:37 -->> $GPGSV,3,1,12,28,67,004,38,30,50,209,27,17,48,298,31,01,46,045,37*79
2017-05-25T16:41:37 -->> $GPGSV,3,2,12,40,34,238,28,193,32,120,31,11,31,046,38,19,30,275,32*41
2017-05-25T16:41:37 -->> $GPGSV,3,3,12,03,26,114,37,22,24,083,39,13,03,274,28,07,,,24*41
2017-05-25T16:41:38 -->> $GLGSV,2,1,06,73,61,169,31,84,58,307,25,74,53,324,32,83,31,027,29*6B
2017-05-25T16:41:38 -->> $GLGSV,2,2,06,85,22,251,27,75,03,332,*6E
2017-05-25T16:41:38 -->> $GNRMC,084139.000,A,3032.9042,N,10403.6119,E,0.00,289.83,250517,,,A*7F
2017-05-25T16:41:38 -->> $GNVTG,289.83,T,,M,0.00,N,0.00,K,A*2B
2017-05-25T16:41:38 -->> $GNGGA,084140.000,3032.9042,N,10403.6119,E,1,14,0.78,541.2,M,-31.9,M,,*51
2017-05-25T16:41:38 -->> $GPGSA,A,3,01,11,28,22,193,30,03,17,19,,,,1.72,0.78,1.53*30
2017-05-25T16:41:38 -->> $GLGSA,A,3,73,74,83,84,85,,,,,,,,1.72,0.78,1.53*1F
2017-05-25T16:41:38 -->> $GPGSV,3,1,12,28,67,004,38,30,50,209,27,17,48,298,31,01,46,045,37*79
2017-05-25T16:41:38 -->> $GPGSV,3,2,12,40,34,238,28,193,32,120,31,11,31,046,38,19,30,275,32*41
2017-05-25T16:41:38 -->> $GPGSV,3,3,12,03,26,114,37,22,24,083,39,13,03,274,28,07,,,24*41
2017-05-25T16:41:39 -->> $GLGSV,2,1,06,73,61,169,31,84,58,307,25,74,53,324,32,83,31,027,29*6B
2017-05-25T16:41:39 -->> $GLGSV,2,2,06,85,22,251,27,75,03,332,*6E
2017-05-25T16:41:39 -->> $GNRMC,084140.000,A,3032.9042,N,10403.6119,E,0.00,289.83,250517,,,A*71
2017-05-25T16:41:39 -->> $GNVTG,289.83,T,,M,0.00,N,0.00,K,A*2B
2017-05-25T16:41:39 -->> $GNGGA,084141.000,3032.9042,N,10403.6119,E,1,14,0.78,541.2,M,-31.9,M,,*50
2017-05-25T16:41:39 -->> $GPGSA,A,3,01,11,28,22,193,30,03,17,19,,,,1.72,0.78,1.53*30
2017-05-25T16:41:39 -->> $GLGSA,A,3,73,74,83,84,85,,,,,,,,1.72,0.78,1.53*1F
2017-05-25T16:41:39 -->> $GPGSV,3,1,12,28,67,004,38,30,50,209,27,17,48,298,31,01,46,045,37*79
2017-05-25T16:41:39 -->> $GPGSV,3,2,12,40,34,238,28,193,32,120,31,11,31,046,38,19,30,275,32*41
2017-05-25T16:41:39 -->> $GPGSV,3,3,12,03,26,114,37,22,24,083,39,13,03,274,28,07,,,23*46
2017-05-25T16:41:40 -->> $GLGSV,2,1,06,73,61,169,31,84,58,307,25,74,53,324,32,83,31,027,29*6B
2017-05-25T16:41:40 -->> $GLGSV,2,2,06,85,22,251,27,75,03,332,*6E
2017-05-25T16:41:40 -->> $GNRMC,084141.000,A,3032.9042,N,10403.6119,E,0.00,289.83,250517,,,A*70
2017-05-25T16:41:40 -->> $GNVTG,289.83,T,,M,0.00,N,0.00,K,A*2B
2017-05-25T16:41:40 -->> $GNGGA,084142.000,3032.9042,N,10403.6119,E,1,14,0.78,541.2,M,-31.9,M,,*53
2017-05-25T16:41:40 -->> $GPGSA,A,3,01,11,28,22,193,30,03,17,19,,,,1.72,0.78,1.53*30
2017-05-25T16:41:40 -->> $GLGSA,A,3,73,74,83,84,85,,,,,,,,1.72,0.78,1.53*1F
2017-05-25T16:41:40 -->> $GPGSV,3,1,12,28,67,004,38,30,50,209,27,17,48,298,31,01,46,045,37*79
2017-05-25T16:41:40 -->> $GPGSV,3,2,12,40,34,238,28,193,32,120,31,11,31,046,38,19,30,275,33*40
2017-05-25T16:41:40 -->> $GPGSV,3,3,12,03,26,114,37,22,24,083,39,13,03,274,28,07,,,23*46
2017-05-25T16:41:41 -->> $GLGSV,2,1,06,73,61,169,31,84,58,307,26,74,53,324,32,83,31,027,29*68
