2017-05-25T14:22:12
2017-05-25T14:22:12 -->> $GNGGA,062215.090,,,,,0,0,,,M,,M,,*5D
2017-05-25T14:22:12 -->> $GPGSA,A,1,,,,,,,,,,,,,,,*1E
2017-05-25T14:22:12 -->> $GLGSA,A,1,,,,,,,,,,,,,,,*02
2017-05-25T14:22:12 -->> $GPGSV,1,1,03,01,,,29,30,,,27,11,,,26*72
2017-05-25T14:22:12 -->> $GLGSV,1,1,00*65
2017-05-25T14:22:12 -->> $GNRMC,062215.090,V,,,,,0.00,0.00,250517,,,N*5C
2017-05-25T14:22:12 -->> $GNVTG,0.00,T,,M,0.00,N,0.00,K,N*2C
2017-05-25T14:22:13 -->> $GNGGA,062216.090,,,,,0,0,,,M,,M,,*5E
2017-05-25T14:22:13 -->> $GPGSA,A,1,,,,,,,,,,,,,,,*1E
2017-05-25T14:22:13 -->> $GLGSA,A,1,,,,,,,,,,,,,,,*02
2017-05-25T14:22:13 -->> $GPGSV,1,1,03,01,,,29,30,,,27,11,,,26*72
2017-05-25T14:22:13 -->> $GLGSV,1,1,00*65
2017-05-25T14:22:13 -->> $GNRMC,062216.090,V,,,,,0.00,0.00,250517,,,N*5F
2017-05-25T14:22:13 -->> $GNVTG,0.00,T,,M,0.00,N,0.00,K,N*2C
2017-05-25T14:22:14 -->> $GNGGA,062217.090,,,,,0,0,,,M,,M,,*5F
2017-05-25T14:22:14 -->> $GPGSA,A,1,,,,,,,,,,,,,,,*1E
2017-05-25T14:22:14 -->> $GLGSA,A,1,,,,,,,,,,,,,,,*02
2017-05-25T14:22:14 -->> $GPGSV,1,1,03,01,,,29,30,,,27,11,,,26*72
2017-05-25T14:22:14 -->> $GLGSV,1,1,00*65
2017-05-25T14:22:14 -->> $GNRMC,062217.090,V,,,,,0.00,0.00,250517,,,N*5E
2017-05-25T14:22:14 -->> $GNVTG,0.00,T,,M,0.00,N,0.00,K,N*2C
2017-05-25T14:22:15 -->> $GNGGA,062218.090,,,,,0,0,,,M,,M,,*50
2017-05-25T14:22:15 -->> $GPGSA,A,1,,,,,,,,,,,,,,,*1E
2017-05-25T14:22:15 -->> $GLGSA,A,1,,,,,,,,,,,,,,,*02
2017-05-25T14:22:15 -->> $GPGSV,1,1,03,01,,,29,30,,,28,11,,,26*7D
2017-05-25T14:22:15 -->> $GLGSV,1,1,00*65
2017-05-25T14:22:15 -->> $GNRMC,062218.090,V,,,,,0.00,0.00,250517,,,N*51
2017-05-25T14:22:16 -->> $GNVTG,0.00,T,,M,0.00,N,0.00,K,N*2C
2017-05-25T14:22:16 -->> $GNGGA,062219.090,,,,,0,0,,,M,,M,,*51
2017-05-25T14:22:16 -->> $GPGSA,A,1,,,,,,,,,,,,,,,*1E
2017-05-25T14:22:16 -->> $GLGSA,A,1,,,,,,,,,,,,,,,*02
2017-05-25T14:22:16 -->> $GPGSV,1,1,03,01,,,29,30,,,28,11,,,26*7D
2017-05-25T14:22:16 -->> $GLGSV,1,1,00*65
2017-05-25T14:22:16 -->> $GNRMC,062219.090,V,,,,,0.00,0.00,250517,,,N*50
2017-05-25T14:22:16 -->> $GNVTG,0.00,T,,M,0.00,N,0.00,K,N*2C
2017-05-25T14:22:17 -->> $GNGGA,062220.090,,,,,0,0,,,M,,M,,*5B
2017-05-25T14:22:17 -->> $GPGSA,A,1,,,,,,,,,,,,,,,*1E
2017-05-25T14:22:17 -->> $GLGSA,A,1,,,,,,,,,,,,,,,*02
2017-05-25T14:22:17 -->> $GPGSV,1,1,03,01,,,29,30,,,28,11,,,26*7D
2017-05-25T14:22:17 -->> $GLGSV,1,1,00*65
2017-05-25T14:22:17 -->> $GNRMC,062220.090,V,,,,,0.00,0.00,250517,,,N*5A
2017-05-25T14:22:17 -->> $GNVTG,0.00,T,,M,0.00,N,0.00,K,N*2C
2017-05-25T14:22:18 -->> $GNGGA,062221.090,,,,,0,0,,,M,,M,,*5A
2017-05-25T14:22:18 -->> $GPGSA,A,1,,,,,,,,,,,,,,,*1E
2017-05-25T14:22:18 -->> $GLGSA,A,1,,,,,,,,,,,,,,,*02
2017-05-25T14:22:18 -->> $GPGSV,1,1,03,01,,,29,30,,,28,11,,,26*7D
2017-05-25T14:22:18 -->> $GLGSV,1,1,00*65
2017-05-25T14:22:18 -->> $GNRMC,062221.090,V,,,,,0.00,0.00,250517,,,N*5B
2017-05-25T14:22:18 -->> $GNVTG,0.00,T,,M,0.00,N,0.00,K,N*2C
2017-05-25T14:22:19 -->> $GNGGA,062222.090,,,,,0,0,,,M,,M,,*59
2017-05-25T14:22:19 -->> $GPGSA,A,1,,,,,,,,,,,,,,,*1E
2017-05-25T14:22:19 -->> $GLGSA,A,1,,,,,,,,,,,,,,,*02
2017-05-25T14:22:19 -->> $GPGSV,1,1,03,01,,,29,30,,,28,11,,,26*7D
2017-05-25T14:22:19 -->> $GLGSV,1,1,00*65
2017-05-25T14:22:19 -->> $GNRMC,062222.090,V,,,,,0.00,0.00,250517,,,N*58
2017-05-25T14:22:19 -->> $GNVTG,0.00,T,,M,0.00,N,0.00,K,N*2C
2017-05-25T14:22:20 -->> $GNGGA,062223.090,,,,,0,0,,,M,,M,,*58
2017-05-25T14:22:20 -->> $GPGSA,A,1,,,,,,,,,,,,,,,*1E
2017-05-25T14:22:20 -->> $GLGSA,A,1,,,,,,,,,,,,,,,*02
2017-05-25T14:22:20 -->> $GPGSV,1,1,03,01,,,29,30,,,28,11,,,26*7D
2017-05-25T14:22:20 -->> $GLGSV,1,1,00*65
2017-05-25T14:22:20 -->> $GNRMC,062223.090,V,,,,,0.00,0.00,250517,,,N*59
2017-05-25T14:22:20 -->> $GNVTG,0.00,T,,M,0.00,N,0.00,K,N*2C
2017-05-25T14:22:21 -->> $GNGGA,062224.090,,,,,0,0,,,M,,M,,*5F
2017-05-25T14:22:21 -->> $GPGSA,A,1,,,,,,,,,,,,,,,*1E
2017-05-25T14:22:21 -->> $GLGSA,A,1,,,,,,,,,,,,,,,*02
2017-05-25T14:22:21 -->> $GPGSV,1,1,03,01,,,29,30,,,28,11,,,26*7D
2017-05-25T14:22:21 -->> $GLGSV,1,1,00*65
2017-05-25T14:22:21 -->> $GNRMC,062224.090,V,,,,,0.00,0.00,250517,,,N*5E
2017-05-25T14:22:21 -->> $GNVTG,0.00,T,,M,0.00,N,0.00,K,N*2C
2017-05-25T14:22:22 -->> $GNGGA,062225.085,,,,,0,0,,,M,,M,,*5A
2017-05-25T14:22:22 -->> $GPGSA,A,1,,,,,,,,,,,,,,,*1E
2017-05-25T14:22:22 -->> $GLGSA,A,1,,,,,,,,,,,,,,,*02
2017-05-25T14:22:22 -->> $GPGSV,1,1,03,01,,,29,30,,,28,11,,,26*7D
2017-05-25T14:22:22 -->> $GLGSV,1,1,00*65
2017-05-25T14:22:22 -->> $GNRMC,062225.085,V,,,,,0.00,0.00,250517,,,N*5B
2017-05-25T14:22:22 -->> $GNVTG,0.00,T,,M,0.00,N,0.00,K,N*2C
2017-05-25T14:22:23 -->> $GNGGA,062226.085,,,,,0,0,,,M,,M,,*59
2017-05-25T14:22:23 -->> $GPGSA,A,1,,,,,,,,,,,,,,,*1E
2017-05-25T14:22:23 -->> $GLGSA,A,1,,,,,,,,,,,,,,,*02
2017-05-25T14:22:23 -->> $GPGSV,1,1,03,01,,,29,30,,,28,11,,,26*7D
2017-05-25T14:22:23 -->> $GLGSV,1,1,00*65
2017-05-25T14:22:23 -->> $GNRMC,062226.085,V,,,,,0.00,0.00,250517,,,N*58
2017-05-25T14:22:23 -->> $GNVTG,0.00,T,,M,0.00,N,0.00,K,N*2C
2017-05-25T14:22:24 -->> $GNGGA,062227.085,,,,,0,0,,,M,,M,,*58
2017-05-25T14:22:24 -->> $GPGSA,A,1,,,,,,,,,,,,,,,*1E
2017-05-25T14:22:24 -->> $GLGSA,A,1,,,,,,,,,,,,,,,*02
2017-05-25T14:22:24 -->> $GPGSV,1,1,03,01,,,29,30,,,28,11,,,26*7D
2017-05-25T14:22:24 -->> $GLGSV,1,1,00*65
2017-05-25T14:22:24 -->> $GNRMC,062227.085,V,,,,,0.00,0.00,250517,,,N*59
2017-05-25T14:22:24 -->> $GNVTG,0.00,T,,M,0.00,N,0.00,K,N*2C
2017-05-25T14:22:25 -->> $GNGGA,062228.085,,,,,0,0,,,M,,M,,*57
2017-05-25T14:22:25 -->> $GPGSA,A,1,,,,,,,,,,,,,,,*1E
2017-05-25T14:22:25 -->> $GLGSA,A,1,,,,,,,,,,,,,,,*02
2017-05-25T14:22:25 -->> $GPGSV,1,1,00*79
2017-05-25T14:22:25 -->> $GLGSV,1,1,00*65
2017-05-25T14:22:25 -->> $GNRMC,062228.085,V,,,,,0.00,0.00,250517,,,N*56
2017-05-25T14:22:25 -->> $GNVTG,0.00,T,,M,0.00,N,0.00,K,N*2C
2017-05-25T14:22:26 -->> $GNGGA,062229.085,,,,,0,0,,,M,,M,,*56
2017-05-25T14:22:26 -->> $GPGSA,A,1,,,,,,,,,,,,,,,*1E
2017-05-25T14:22:26 -->> $GLGSA,A,1,,,,,,,,,,,,,,,*02
2017-05-25T14:22:26 -->> $GPGSV,1,1,00*79
2017-05-25T14:22:26 -->> $GLGSV,1,1,00*65
2017-05-25T14:22:26 -->> $GNRMC,062229.085,V,,,,,0.00,0.00,250517,,,N*57
2017-05-25T14:22:26 -->> $GNVTG,0.00,T,,M,0.00,N,0.00,K,N*2C
2017-05-25T14:22:27 -->> $GNGGA,062230.085,,,,,0,0,,,M,,M,,*5E
2017-05-25T14:22:27 -->> $GPGSA,A,1,,,,,,,,,,,,,,,*1E
2017-05-25T14:22:27 -->> $GLGSA,A,1,,,,,,,,,,,,,,,*02
2017-05-25T14:22:27 -->> $GPGSV,1,1,01,01,,,25*7E
2017-05-25T14:22:27 -->> $GLGSV,1,1,00*65
2017-05-25T14:22:27 -->> $GNRMC,062230.085,V,,,,,0.00,0.00,250517,,,N*5F
2017-05-25T14:22:27 -->> $GNVTG,0.00,T,,M,0.00,N,0.00,K,N*2C
2017-05-25T14:22:28 -->> $GNGGA,062231.085,,,,,0,0,,,M,,M,,*5F
2017-05-25T14:22:28 -->> $GPGSA,A,1,,,,,,,,,,,,,,,*1E
2017-05-25T14:22:28 -->> $GLGSA,A,1,,,,,,,,,,,,,,,*02
2017-05-25T14:22:28 -->> $GPGSV,1,1,00*79
2017-05-25T14:22:28 -->> $GLGSV,1,1,00*65
2017-05-25T14:22:28 -->> $GNRMC,062231.085,V,,,,,0.00,0.00,250517,,,N*5E
2017-05-25T14:22:28 -->> $GNVTG,0.00,T,,M,0.00,N,0.00,K,N*2C
2017-05-25T14:22:29 -->> $GNGGA,062232.085,,,,,0,0,,,M,,M,,*5C
2017-05-25T14:22:29 -->> $GPGSA,A,1,,,,,,,,,,,,,,,*1E
2017-05-25T14:22:29 -->> $GLGSA,A,1,,,,,,,,,,,,,,,*02
2017-05-25T14:22:29 -->> $GPGSV,1,1,00*79
2017-05-25T14:22:29 -->> $GLGSV,1,1,00*65
2017-05-25T14:22:29 -->> $GNRMC,062232.085,V,,,,,0.00,0.00,250517,,,N*5D
2017-05-25T14:22:29 -->> $GNVTG,0.00,T,,M,0.00,N,0.00,K,N*2C
2017-05-25T14:22:30 -->> $GNGGA,062233.085,,,,,0,0,,,M,,M,,*5D
2017-05-25T14:22:30 -->> $GPGSA,A,1,,,,,,,,,,,,,,,*1E
2017-05-25T14:22:30 -->> $GLGSA,A,1,,,,,,,,,,,,,,,*02
2017-05-25T14:22:30 -->> $GPGSV,1,1,01,30,,,30*78
2017-05-25T14:22:30 -->> $GLGSV,1,1,00*65
2017-05-25T14:22:30 -->> $GNRMC,062233.085,V,,,,,0.00,0.00,250517,,,N*5C
2017-05-25T14:22:30 -->> $GNVTG,0.00,T,,M,0.00,N,0.00,K,N*2C
2017-05-25T14:22:31 -->> $GNGGA,062234.085,,,,,0,0,,,M,,M,,*5A
2017-05-25T14:22:31 -->> $GPGSA,A,1,,,,,,,,,,,,,,,*1E
2017-05-25T14:22:31 -->> $GLGSA,A,1,,,,,,,,,,,,,,,*02
2017-05-25T14:22:31 -->> $GPGSV,1,1,00*79
2017-05-25T14:22:31 -->> $GLGSV,1,1,00*65
2017-05-25T14:22:31 -->> $GNRMC,062234.085,V,,,,,0.00,0.00,250517,,,N*5B
2017-05-25T14:22:31 -->> $GNVTG,0.00,T,,M,0.00,N,0.00,K,N*2C
2017-05-25T14:22:32 -->> $GNGGA,062235.085,,,,,0,0,,,M,,M,,*5B
2017-05-25T14:22:32 -->> $GPGSA,A,1,,,,,,,,,,,,,,,*1E
2017-05-25T14:22:32 -->> $GLGSA,A,1,,,,,,,,,,,,,,,*02
2017-05-25T14:22:32 -->> $GPGSV,1,1,00*79
2017-05-25T14:22:32 -->> $GLGSV,1,1,00*65
2017-05-25T14:22:32 -->> $GNRMC,062235.085,V,,,,,0.00,0.00,250517,,,N*5A
2017-05-25T14:22:32 -->> $GNVTG,0.00,T,,M,0.00,N,0.00,K,N*2C
2017-05-25T14:22:33 -->> $GNGGA,062236.085,,,,,0,0,,,M,,M,,*58
2017-05-25T14:22:33 -->> $GPGSA,A,1,,,,,,,,,,,,,,,*1E
2017-05-25T14:22:33 -->> $GLGSA,A,1,,,,,,,,,,,,,,,*02
2017-05-25T14:22:33 -->> $GPGSV,1,1,00*79
2017-05-25T14:22:33 -->> $GLGSV,1,1,00*65
2017-05-25T14:22:33 -->> $GNRMC,062236.085,V,,,,,0.00,0.00,250517,,,N*59
2017-05-25T14:22:33 -->> $GNVTG,0.00,T,,M,0.00,N,0.00,K,N*2C
2017-05-25T14:22:34 -->> $GNGGA,062237.085,,,,,0,0,,,M,,M,,*59
2017-05-25T14:22:34 -->> $GPGSA,A,1,,,,,,,,,,,,,,,*1E
2017-05-25T14:22:34 -->> $GLGSA,A,1,,,,,,,,,,,,,,,*02
2017-05-25T14:22:34 -->> $GPGSV,1,1,00*79
2017-05-25T14:22:34 -->> $GLGSV,1,1,00*65
2017-05-25T14:22:34 -->> $GNRMC,062237.085,V,,,,,0.00,0.00,250517,,,N*58
2017-05-25T14:22:34 -->> $GNVTG,0.00,T,,M,0.00,N,0.00,K,N*2C
2017-05-25T14:22:35 -->> $GNGGA,062238.085,,,,,0,0,,,M,,M,,*56
2017-05-25T14:22:35 -->> $GPGSA,A,1,,,,,,,,,,,,,,,*1E
2017-05-25T14:22:35 -->> $GLGSA,A,1,,,,,,,,,,,,,,,*02
2017-05-25T14:22:35 -->> $GPGSV,1,1,00*79
2017-05-25T14:22:35 -->> $GLGSV,1,1,00*65
2017-05-25T14:22:35 -->> $GNRMC,062238.085,V,,,,,0.00,0.00,250517,,,N*57
2017-05-25T14:22:35 -->> $GNVTG,0.00,T,,M,0.00,N,0.00,K,N*2C
2017-05-25T14:22:36 -->> $GNGGA,062239.085,,,,,0,0,,,M,,M,,*57
2017-05-25T14:22:36 -->> $GPGSA,A,1,,,,,,,,,,,,,,,*1E
2017-05-25T14:22:36 -->> $GLGSA,A,1,,,,,,,,,,,,,,,*02
2017-05-25T14:22:36 -->> $GPGSV,1,1,00*79
2017-05-25T14:22:36 -->> $GLGSV,1,1,00*65
2017-05-25T14:22:36 -->> $GNRMC,062239.085,V,,,,,0.00,0.00,250517,,,N*56
2017-05-25T14:22:36 -->> $GNVTG,0.00,T,,M,0.00,N,0.00,K,N*2C
2017-05-25T14:22:37 -->> $GNGGA,062240.085,,,,,0,0,,,M,,M,,*59
2017-05-25T14:22:37 -->> $GPGSA,A,1,,,,,,,,,,,,,,,*1E
2017-05-25T14:22:37 -->> $GLGSA,A,1,,,,,,,,,,,,,,,*02
2017-05-25T14:22:37 -->> $GPGSV,1,1,00*79
2017-05-25T14:22:37 -->> $GLGSV,1,1,00*65
2017-05-25T14:22:37 -->> $GNRMC,062240.085,V,,,,,0.00,0.00,250517,,,N*58
2017-05-25T14:22:37 -->> $GNVTG,0.00,T,,M,0.00,N,0.00,K,N*2C
2017-05-25T14:22:38 -->> $GNGGA,062241.085,,,,,0,0,,,M,,M,,*58
2017-05-25T14:22:38 -->> $GPGSA,A,1,,,,,,,,,,,,,,,*1E
2017-05-25T14:22:38 -->> $GLGSA,A,1,,,,,,,,,,,,,,,*02
2017-05-25T14:22:38 -->> $GPGSV,1,1,00*79
2017-05-25T14:22:38 -->> $GLGSV,1,1,00*65
2017-05-25T14:22:38 -->> $GNRMC,062241.085,V,,,,,0.00,0.00,250517,,,N*59
2017-05-25T14:22:38 -->> $GNVTG,0.00,T,,M,0.00,N,0.00,K,N*2C
2017-05-25T14:22:39 -->> $GNGGA,062242.085,,,,,0,0,,,M,,M,,*5B
2017-05-25T14:22:39 -->> $GPGSA,A,1,,,,,,,,,,,,,,,*1E
2017-05-25T14:22:39 -->> $GLGSA,A,1,,,,,,,,,,,,,,,*02
2017-05-25T14:22:39 -->> $GPGSV,1,1,00*79
2017-05-25T14:22:39 -->> $GLGSV,1,1,00*65
2017-05-25T14:22:39 -->> $GNRMC,062242.085,V,,,,,0.00,0.00,250517,,,N*5A
2017-05-25T14:22:39 -->> $GNVTG,0.00,T,,M,0.00,N,0.00,K,N*2C
2017-05-25T14:22:40 -->> $GNGGA,062243.085,,,,,0,0,,,M,,M,,*5A
2017-05-25T14:22:40 -->> $GPGSA,A,1,,,,,,,,,,,,,,,*1E
2017-05-25T14:22:40 -->> $GLGSA,A,1,,,,,,,,,,,,,,,*02
2017-05-25T14:22:40 -->> $GPGSV,1,1,00*79
2017-05-25T14:22:40 -->> $GLGSV,1,1,00*65
2017-05-25T14:22:40 -->> $GNRMC,062243.085,V,,,,,0.00,0.00,250517,,,N*5B
2017-05-25T14:22:40 -->> $GNVTG,0.00,T,,M,0.00,N,0.00,K,N*2C
2017-05-25T14:22:41 -->> $GNGGA,062244.085,,,,,0,0,,,M,,M,,*5D
2017-05-25T14:22:41 -->> $GPGSA,A,1,,,,,,,,,,,,,,,*1E
2017-05-25T14:22:41 -->> $GLGSA,A,1,,,,,,,,,,,,,,,*02
2017-05-25T14:22:41 -->> $GPGSV,1,1,00*79
2017-05-25T14:22:41 -->> $GLGSV,1,1,00*65
2017-05-25T14:22:41 -->> $GNRMC,062244.085,V,,,,,0.00,0.00,250517,,,N*5C
2017-05-25T14:22:41 -->> $GNVTG,0.00,T,,M,0.00,N,0.00,K,N*2C
2017-05-25T14:22:42 -->> $GNGGA,062245.085,,,,,0,0,,,M,,M,,*5C
2017-05-25T14:22:42 -->> $GPGSA,A,1,,,,,,,,,,,,,,,*1E
2017-05-25T14:22:42 -->> $GLGSA,A,1,,,,,,,,,,,,,,,*02
2017-05-25T14:22:42 -->> $GPGSV,1,1,01,01,,,27*7C
2017-05-25T14:22:42 -->> $GLGSV,1,1,00*65
2017-05-25T14:22:42 -->> $GNRMC,062245.085,V,,,,,0.00,0.00,250517,,,N*5D
2017-05-25T14:22:42 -->> $GNVTG,0.00,T,,M,0.00,N,0.00,K,N*2C
2017-05-25T14:22:43 -->> $GNGGA,062246.085,,,,,0,0,,,M,,M,,*5F
2017-05-25T14:22:43 -->> $GPGSA,A,1,,,,,,,,,,,,,,,*1E
2017-05-25T14:22:43 -->> $GLGSA,A,1,,,,,,,,,,,,,,,*02
2017-05-25T14:22:43 -->> $GPGSV,1,1,00*79
2017-05-25T14:22:43 -->> $GLGSV,1,1,00*65
2017-05-25T14:22:43 -->> $GNRMC,062246.085,V,,,,,0.00,0.00,250517,,,N*5E
2017-05-25T14:22:43 -->> $GNVTG,0.00,T,,M,0.00,N,0.00,K,N*2C
2017-05-25T14:22:44 -->> $GNGGA,062247.085,,,,,0,0,,,M,,M,,*5E
2017-05-25T14:22:44 -->> $GPGSA,A,1,,,,,,,,,,,,,,,*1E
2017-05-25T14:22:44 -->> $GLGSA,A,1,,,,,,,,,,,,,,,*02
2017-05-25T14:22:44 -->> $GPGSV,1,1,00*79
2017-05-25T14:22:44 -->> $GLGSV,1,1,00*65
2017-05-25T14:22:44 -->> $GNRMC,062247.085,V,,,,,0.00,0.00,250517,,,N*5F
2017-05-25T14:22:44 -->> $GNVTG,0.00,T,,M,0.00,N,0.00,K,N*2C
2017-05-25T14:22:45 -->> $GNGGA,062248.085,,,,,0,0,,,M,,M,,*51
2017-05-25T14:22:45 -->> $GPGSA,A,1,,,,,,,,,,,,,,,*1E
2017-05-25T14:22:45 -->> $GLGSA,A,1,,,,,,,,,,,,,,,*02
2017-05-25T14:22:45 -->> $GPGSV,1,1,00*79
2017-05-25T14:22:45 -->> $GLGSV,1,1,00*65
2017-05-25T14:22:45 -->> $GNRMC,062248.085,V,,,,,0.00,0.00,250517,,,N*50
2017-05-25T14:22:45 -->> $GNVTG,0.00,T,,M,0.00,N,0.00,K,N*2C
2017-05-25T14:22:46 -->> $GNGGA,062249.085,,,,,0,0,,,M,,M,,*50
2017-05-25T14:22:46 -->> $GPGSA,A,1,,,,,,,,,,,,,,,*1E
2017-05-25T14:22:46 -->> $GLGSA,A,1,,,,,,,,,,,,,,,*02
2017-05-25T14:22:46 -->> $GPGSV,1,1,00*79
2017-05-25T14:22:46 -->> $GLGSV,1,1,00*65
2017-05-25T14:22:46 -->> $GNRMC,062249.085,V,,,,,0.00,0.00,250517,,,N*51
2017-05-25T14:22:46 -->> $GNVTG,0.00,T,,M,0.00,N,0.00,K,N*2C
2017-05-25T14:22:47 -->> $GNGGA,062250.085,,,,,0,0,,,M,,M,,*58
2017-05-25T14:22:47 -->> $GPGSA,A,1,,,,,,,,,,,,,,,*1E
2017-05-25T14:22:47 -->> $GLGSA,A,1,,,,,,,,,,,,,,,*02
2017-05-25T14:22:47 -->> $GPGSV,1,1,02,08,,,35,07,,,33*72
2017-05-25T14:22:47 -->> $GLGSV,1,1,00*65
2017-05-25T14:22:47 -->> $GNRMC,062250.085,V,,,,,0.00,0.00,250517,,,N*59
2017-05-25T14:22:47 -->> $GNVTG,0.00,T,,M,0.00,N,0.00,K,N*2C
2017-05-25T14:22:48 -->> $GNGGA,062251.085,,,,,0,0,,,M,,M,,*59
2017-05-25T14:22:48 -->> $GPGSA,A,1,,,,,,,,,,,,,,,*1E
2017-05-25T14:22:48 -->> $GLGSA,A,1,,,,,,,,,,,,,,,*02
2017-05-25T14:22:48 -->> $GPGSV,1,1,02,08,,,28,07,,,28*74
2017-05-25T14:22:48 -->> $GLGSV,1,1,00*65
2017-05-25T14:22:48 -->> $GNRMC,062251.085,V,,,,,0.00,0.00,250517,,,N*58
2017-05-25T14:22:48 -->> $GNVTG,0.00,T,,M,0.00,N,0.00,K,N*2C
2017-05-25T14:22:49 -->> $GNGGA,062252.085,,,,,0,0,,,M,,M,,*5A
2017-05-25T14:22:49 -->> $GPGSA,A,1,,,,,,,,,,,,,,,*1E
2017-05-25T14:22:49 -->> $GLGSA,A,1,,,,,,,,,,,,,,,*02
2017-05-25T14:22:49 -->> $GPGSV,1,1,03,08,,,29,07,,,29,30,,,31*74
2017-05-25T14:22:49 -->> $GLGSV,1,1,00*65
2017-05-25T14:22:49 -->> $GNRMC,062252.085,V,,,,,0.00,0.00,250517,,,N*5B
2017-05-25T14:22:49 -->> $GNVTG,0.00,T,,M,0.00,N,0.00,K,N*2C
2017-05-25T14:22:50 -->> $GNGGA,062253.085,,,,,0,0,,,M,,M,,*5B
2017-05-25T14:22:50 -->> $GPGSA,A,1,,,,,,,,,,,,,,,*1E
2017-05-25T14:22:50 -->> $GLGSA,A,1,,,,,,,,,,,,,,,*02
2017-05-25T14:22:50 -->> $GPGSV,1,1,03,08,,,28,07,,,29,30,,,34*70
2017-05-25T14:22:50 -->> $GLGSV,1,1,00*65
2017-05-25T14:22:50 -->> $GNRMC,062253.085,V,,,,,0.00,0.00,250517,,,N*5A
2017-05-25T14:22:50 -->> $GNVTG,0.00,T,,M,0.00,N,0.00,K,N*2C
2017-05-25T14:22:51 -->> $GNGGA,062254.085,,,,,0,0,,,M,,M,,*5C
2017-05-25T14:22:51 -->> $GPGSA,A,1,,,,,,,,,,,,,,,*1E
2017-05-25T14:22:51 -->> $GLGSA,A,1,,,,,,,,,,,,,,,*02
2017-05-25T14:22:51 -->> $GPGSV,1,1,03,08,,,28,07,,,30,30,,,33*7F
2017-05-25T14:22:51 -->> $GLGSV,1,1,00*65
2017-05-25T14:22:51 -->> $GNRMC,062254.085,V,,,,,0.00,0.00,250517,,,N*5D
2017-05-25T14:22:51 -->> $GNVTG,0.00,T,,M,0.00,N,0.00,K,N*2C
2017-05-25T14:22:52 -->> $GNGGA,062255.085,,,,,0,0,,,M,,M,,*5D
2017-05-25T14:22:52 -->> $GPGSA,A,1,,,,,,,,,,,,,,,*1E
2017-05-25T14:22:52 -->> $GLGSA,A,1,,,,,,,,,,,,,,,*02
2017-05-25T14:22:52 -->> $GPGSV,1,1,04,08,,,29,07,,,30,30,,,34,28,,,25*73
2017-05-25T14:22:52 -->> $GLGSV,1,1,00*65
2017-05-25T14:22:52 -->> $GNRMC,062255.085,V,,,,,0.00,0.00,250517,,,N*5C
2017-05-25T14:22:52 -->> $GNVTG,0.00,T,,M,0.00,N,0.00,K,N*2C
2017-05-25T14:22:53 -->> $GNGGA,062256.085,,,,,0,0,,,M,,M,,*5E
2017-05-25T14:22:53 -->> $GPGSA,A,1,,,,,,,,,,,,,,,*1E
2017-05-25T14:22:53 -->> $GLGSA,A,1,,,,,,,,,,,,,,,*02
2017-05-25T14:22:53 -->> $GPGSV,1,1,04,08,,,29,07,,,30,30,,,34,28,,,25*73
2017-05-25T14:22:53 -->> $GLGSV,1,1,00*65
2017-05-25T14:22:53 -->> $GNRMC,062256.085,V,,,,,0.00,0.00,250517,,,N*5F
2017-05-25T14:22:53 -->> $GNVTG,0.00,T,,M,0.00,N,0.00,K,N*2C
2017-05-25T14:22:54 -->> $GNGGA,062257.085,,,,,0,0,,,M,,M,,*5F
2017-05-25T14:22:54 -->> $GPGSA,A,1,,,,,,,,,,,,,,,*1E
2017-05-25T14:22:54 -->> $GLGSA,A,1,,,,,,,,,,,,,,,*02
2017-05-25T14:22:54 -->> $GPGSV,1,1,04,08,,,29,07,,,30,30,,,34,28,,,26*70
2017-05-25T14:22:54 -->> $GLGSV,1,1,00*65
2017-05-25T14:22:54 -->> $GNRMC,062257.085,V,,,,,0.00,0.00,250517,,,N*5E
2017-05-25T14:22:54 -->> $GNVTG,0.00,T,,M,0.00,N,0.00,K,N*2C
2017-05-25T14:22:55 -->> $GNGGA,062258.085,,,,,0,0,,,M,,M,,*50
2017-05-25T14:22:55 -->> $GPGSA,A,1,,,,,,,,,,,,,,,*1E
2017-05-25T14:22:55 -->> $GLGSA,A,1,,,,,,,,,,,,,,,*02
2017-05-25T14:22:55 -->> $GPGSV,1,1,04,08,,,29,07,,,30,30,,,34,28,,,23*75
2017-05-25T14:22:55 -->> $GLGSV,1,1,00*65
2017-05-25T14:22:55 -->> $GNRMC,062258.085,V,,,,,0.00,0.00,250517,,,N*51
2017-05-25T14:22:55 -->> $GNVTG,0.00,T,,M,0.00,N,0.00,K,N*2C
2017-05-25T14:22:56 -->> $GNGGA,062259.085,,,,,0,0,,,M,,M,,*51
2017-05-25T14:22:56 -->> $GPGSA,A,1,,,,,,,,,,,,,,,*1E
2017-05-25T14:22:56 -->> $GLGSA,A,1,,,,,,,,,,,,,,,*02
2017-05-25T14:22:56 -->> $GPGSV,1,1,04,08,,,29,07,,,30,30,,,34,28,,,23*75
2017-05-25T14:22:56 -->> $GLGSV,1,1,00*65
2017-05-25T14:22:56 -->> $GNRMC,062259.085,V,,,,,0.00,0.00,250517,,,N*50
2017-05-25T14:22:56 -->> $GNVTG,0.00,T,,M,0.00,N,0.00,K,N*2C
2017-05-25T14:22:57 -->> $GNGGA,062300.085,,,,,0,0,,,M,,M,,*5C
2017-05-25T14:22:57 -->> $GPGSA,A,1,,,,,,,,,,,,,,,*1E
2017-05-25T14:22:57 -->> $GLGSA,A,1,,,,,,,,,,,,,,,*02
2017-05-25T14:22:57 -->> $GPGSV,1,1,04,08,,,29,07,,,30,30,,,34,28,,,22*74
2017-05-25T14:22:57 -->> $GLGSV,1,1,00*65
2017-05-25T14:22:57 -->> $GNRMC,062300.085,V,,,,,0.00,0.00,250517,,,N*5D
2017-05-25T14:22:57 -->> $GNVTG,0.00,T,,M,0.00,N,0.00,K,N*2C
2017-05-25T14:22:58 -->> $GNGGA,062301.083,,,,,0,0,,,M,,M,,*5B
2017-05-25T14:22:58 -->> $GPGSA,A,1,,,,,,,,,,,,,,,*1E
2017-05-25T14:22:58 -->> $GLGSA,A,1,,,,,,,,,,,,,,,*02
2017-05-25T14:22:58 -->> $GPGSV,2,1,05,08,,,29,07,,,30,30,,,34,28,,,22*76
2017-05-25T14:22:58 -->> $GPGSV,2,2,05,01,,,23*7C
2017-05-25T14:22:58 -->> $GLGSV,1,1,00*65
2017-05-25T14:22:58 -->> $GNRMC,062301.083,V,,,,,0.00,0.00,250517,,,N*5A
2017-05-25T14:22:58 -->> $GNVTG,0.00,T,,M,0.00,N,0.00,K,N*2C
2017-05-25T14:22:59 -->> $GNGGA,062302.083,,,,,0,0,,,M,,M,,*58
2017-05-25T14:22:59 -->> $GPGSA,A,1,,,,,,,,,,,,,,,*1E
2017-05-25T14:22:59 -->> $GLGSA,A,1,,,,,,,,,,,,,,,*02
2017-05-25T14:22:59 -->> $GPGSV,2,1,05,08,,,29,07,,,30,30,,,34,28,,,23*77
2017-05-25T14:22:59 -->> $GPGSV,2,2,05,01,,,23*7C
2017-05-25T14:22:59 -->> $GLGSV,1,1,00*65
2017-05-25T14:22:59 -->> $GNRMC,062302.083,V,,,,,0.00,0.00,250517,,,N*59
2017-05-25T14:22:59 -->> $GNVTG,0.00,T,,M,0.00,N,0.00,K,N*2C
2017-05-25T14:23:00 -->> $GNGGA,062303.083,,,,,0,0,,,M,,M,,*59
2017-05-25T14:23:00 -->> $GPGSA,A,1,,,,,,,,,,,,,,,*1E
2017-05-25T14:23:00 -->> $GLGSA,A,1,,,,,,,,,,,,,,,*02
2017-05-25T14:23:00 -->> $GPGSV,2,1,05,08,,,30,07,,,30,30,,,34,28,,,23*7F
2017-05-25T14:23:00 -->> $GPGSV,2,2,05,01,,,24*7B
2017-05-25T14:23:00 -->> $GLGSV,1,1,00*65
2017-05-25T14:23:00 -->> $GNRMC,062303.083,V,,,,,0.00,0.00,250517,,,N*58
2017-05-25T14:23:00 -->> $GNVTG,0.00,T,,M,0.00,N,0.00,K,N*2C
2017-05-25T14:23:01 -->> $GNGGA,062304.083,,,,,0,0,,,M,,M,,*5E
2017-05-25T14:23:01 -->> $GPGSA,A,1,,,,,,,,,,,,,,,*1E
2017-05-25T14:23:01 -->> $GLGSA,A,1,,,,,,,,,,,,,,,*02
2017-05-25T14:23:01 -->> $GPGSV,2,1,05,08,,,30,07,,,30,30,,,34,28,,,23*7F
2017-05-25T14:23:01 -->> $GPGSV,2,2,05,01,,,24*7B
2017-05-25T14:23:01 -->> $GLGSV,1,1,00*65
2017-05-25T14:23:01 -->> $GNRMC,062304.083,V,,,,,0.00,0.00,250517,,,N*5F
2017-05-25T14:23:01 -->> $GNVTG,0.00,T,,M,0.00,N,0.00,K,N*2C
2017-05-25T14:23:02 -->> $GNGGA,062305.083,,,,,0,0,,,M,,M,,*5F
2017-05-25T14:23:02 -->> $GPGSA,A,1,,,,,,,,,,,,,,,*1E
2017-05-25T14:23:02 -->> $GLGSA,A,1,,,,,,,,,,,,,,,*02
2017-05-25T14:23:02 -->> $GPGSV,2,1,05,08,,,30,07,,,31,30,,,34,28,,,23*7E
2017-05-25T14:23:02 -->> $GPGSV,2,2,05,01,,,23*7C
2017-05-25T14:23:02 -->> $GLGSV,1,1,00*65
2017-05-25T14:23:02 -->> $GNRMC,062305.083,V,,,,,0.00,0.00,250517,,,N*5E
2017-05-25T14:23:02 -->> $GNVTG,0.00,T,,M,0.00,N,0.00,K,N*2C
2017-05-25T14:23:03 -->> $GNGGA,062306.083,,,,,0,0,,,M,,M,,*5C
2017-05-25T14:23:03 -->> $GPGSA,A,1,,,,,,,,,,,,,,,*1E
2017-05-25T14:23:03 -->> $GLGSA,A,1,,,,,,,,,,,,,,,*02
2017-05-25T14:23:03 -->> $GPGSV,2,1,05,08,,,30,07,,,31,30,,,34,28,,,23*7E
2017-05-25T14:23:03 -->> $GPGSV,2,2,05,01,,,24*7B
2017-05-25T14:23:03 -->> $GLGSV,1,1,00*65
2017-05-25T14:23:03 -->> $GNRMC,062306.083,V,,,,,0.00,0.00,250517,,,N*5D
2017-05-25T14:23:03 -->> $GNVTG,0.00,T,,M,0.00,N,0.00,K,N*2C
2017-05-25T14:23:04 -->> $GNGGA,062307.083,,,,,0,0,,,M,,M,,*5D
2017-05-25T14:23:04 -->> $GPGSA,A,1,,,,,,,,,,,,,,,*1E
2017-05-25T14:23:04 -->> $GLGSA,A,1,,,,,,,,,,,,,,,*02
2017-05-25T14:23:04 -->> $GPGSV,2,1,05,08,,,30,07,,,31,30,,,34,28,,,22*7F
2017-05-25T14:23:04 -->> $GPGSV,2,2,05,01,,,24*7B
2017-05-25T14:23:04 -->> $GLGSV,1,1,00*65
2017-05-25T14:23:04 -->> $GNRMC,062307.083,V,,,,,0.00,0.00,250517,,,N*5C
2017-05-25T14:23:04 -->> $GNVTG,0.00,T,,M,0.00,N,0.00,K,N*2C
2017-05-25T14:23:05 -->> $GNGGA,062308.083,,,,,0,0,,,M,,M,,*52
2017-05-25T14:23:05 -->> $GPGSA,A,1,,,,,,,,,,,,,,,*1E
2017-05-25T14:23:05 -->> $GLGSA,A,1,,,,,,,,,,,,,,,*02
2017-05-25T14:23:05 -->> $GPGSV,2,1,05,08,,,30,07,,,31,30,,,34,28,,,22*7F
2017-05-25T14:23:05 -->> $GPGSV,2,2,05,01,,,24*7B
2017-05-25T14:23:05 -->> $GLGSV,1,1,00*65
2017-05-25T14:23:05 -->> $GNRMC,062308.083,V,,,,,0.00,0.00,250517,,,N*53
2017-05-25T14:23:05 -->> $GNVTG,0.00,T,,M,0.00,N,0.00,K,N*2C
2017-05-25T14:23:06 -->> $GNGGA,062309.083,,,,,0,0,,,M,,M,,*53
2017-05-25T14:23:06 -->> $GPGSA,A,1,,,,,,,,,,,,,,,*1E
2017-05-25T14:23:06 -->> $GLGSA,A,1,,,,,,,,,,,,,,,*02
2017-05-25T14:23:06 -->> $GPGSV,2,1,05,08,,,30,07,,,31,30,,,34,28,,,22*7F
2017-05-25T14:23:06 -->> $GPGSV,2,2,05,01,,,24*7B
2017-05-25T14:23:06 -->> $GLGSV,1,1,00*65
2017-05-25T14:23:06 -->> $GNRMC,062309.083,V,,,,,0.00,0.00,250517,,,N*52
2017-05-25T14:23:06 -->> $GNVTG,0.00,T,,M,0.00,N,0.00,K,N*2C
2017-05-25T14:23:07 -->> $GNGGA,062310.083,,,,,0,0,,,M,,M,,*5B
2017-05-25T14:23:07 -->> $GPGSA,A,1,,,,,,,,,,,,,,,*1E
2017-05-25T14:23:07 -->> $GLGSA,A,1,,,,,,,,,,,,,,,*02
2017-05-25T14:23:07 -->> $GPGSV,2,1,05,08,,,30,07,,,31,30,,,34,28,,,21*7C
2017-05-25T14:23:07 -->> $GPGSV,2,2,05,01,,,24*7B
2017-05-25T14:23:07 -->> $GLGSV,1,1,00*65
2017-05-25T14:23:07 -->> $GNRMC,062310.083,V,,,,,0.00,0.00,250517,,,N*5A
2017-05-25T14:23:07 -->> $GNVTG,0.00,T,,M,0.00,N,0.00,K,N*2C
2017-05-25T14:23:08 -->> $GNGGA,062311.083,,,,,0,0,,,M,,M,,*5A
2017-05-25T14:23:08 -->> $GPGSA,A,1,,,,,,,,,,,,,,,*1E
2017-05-25T14:23:08 -->> $GLGSA,A,1,,,,,,,,,,,,,,,*02
2017-05-25T14:23:08 -->> $GPGSV,2,1,05,08,,,30,07,,,31,30,,,34,28,,,21*7C
2017-05-25T14:23:08 -->> $GPGSV,2,2,05,01,,,24*7B
2017-05-25T14:23:08 -->> $GLGSV,1,1,00*65
2017-05-25T14:23:08 -->> $GNRMC,062311.083,V,,,,,0.00,0.00,250517,,,N*5B
2017-05-25T14:23:08 -->> $GNVTG,0.00,T,,M,0.00,N,0.00,K,N*2C
2017-05-25T14:23:09 -->> $GNGGA,062312.083,,,,,0,0,,,M,,M,,*59
2017-05-25T14:23:09 -->> $GPGSA,A,1,,,,,,,,,,,,,,,*1E
2017-05-25T14:23:09 -->> $GLGSA,A,1,,,,,,,,,,,,,,,*02
2017-05-25T14:23:09 -->> $GPGSV,2,1,05,08,,,30,07,,,31,30,,,34,28,,,21*7C
2017-05-25T14:23:09 -->> $GPGSV,2,2,05,01,,,23*7C
2017-05-25T14:23:09 -->> $GLGSV,1,1,00*65
2017-05-25T14:23:09 -->> $GNRMC,062312.083,V,,,,,0.00,0.00,250517,,,N*58
2017-05-25T14:23:09 -->> $GNVTG,0.00,T,,M,0.00,N,0.00,K,N*2C
2017-05-25T14:23:10 -->> $GNGGA,062313.083,,,,,0,0,,,M,,M,,*58
2017-05-25T14:23:10 -->> $GPGSA,A,1,,,,,,,,,,,,,,,*1E
2017-05-25T14:23:10 -->> $GLGSA,A,1,,,,,,,,,,,,,,,*02
2017-05-25T14:23:10 -->> $GPGSV,2,1,06,08,,,30,07,,,31,30,,,33,28,,,21*78
2017-05-25T14:23:10 -->> $GPGSV,2,2,06,01,,,23,09,,,25*71
2017-05-25T14:23:10 -->> $GLGSV,1,1,00*65
2017-05-25T14:23:10 -->> $GNRMC,062313.083,V,,,,,0.00,0.00,250517,,,N*59
2017-05-25T14:23:10 -->> $GNVTG,0.00,T,,M,0.00,N,0.00,K,N*2C
2017-05-25T14:23:11 -->> $GNGGA,062314.083,,,,,0,0,,,M,,M,,*5F
2017-05-25T14:23:11 -->> $GPGSA,A,1,,,,,,,,,,,,,,,*1E
2017-05-25T14:23:11 -->> $GLGSA,A,1,,,,,,,,,,,,,,,*02
2017-05-25T14:23:11 -->> $GPGSV,2,1,06,08,,,29,07,,,31,30,,,33,28,,,21*70
2017-05-25T14:23:11 -->> $GPGSV,2,2,06,01,,,22,09,,,24*71
2017-05-25T14:23:11 -->> $GLGSV,1,1,00*65
2017-05-25T14:23:11 -->> $GNRMC,062314.083,V,,,,,0.00,0.00,250517,,,N*5E
2017-05-25T14:23:11 -->> $GNVTG,0.00,T,,M,0.00,N,0.00,K,N*2C
2017-05-25T14:23:12 -->> $GNGGA,062315.083,,,,,0,0,,,M,,M,,*5E
2017-05-25T14:23:12 -->> $GPGSA,A,1,,,,,,,,,,,,,,,*1E
2017-05-25T14:23:12 -->> $GLGSA,A,1,,,,,,,,,,,,,,,*02
2017-05-25T14:23:12 -->> $GPGSV,2,1,06,08,,,29,07,,,31,30,,,33,28,,,21*70
2017-05-25T14:23:12 -->> $GPGSV,2,2,06,01,,,22,09,,,25*70
2017-05-25T14:23:12 -->> $GLGSV,1,1,00*65
2017-05-25T14:23:12 -->> $GNRMC,062315.083,V,,,,,0.00,0.00,250517,,,N*5F
2017-05-25T14:23:12 -->> $GNVTG,0.00,T,,M,0.00,N,0.00,K,N*2C
2017-05-25T14:23:13 -->> $GNGGA,062316.083,,,,,0,0,,,M,,M,,*5D
2017-05-25T14:23:13 -->> $GPGSA,A,1,,,,,,,,,,,,,,,*1E
2017-05-25T14:23:13 -->> $GLGSA,A,1,,,,,,,,,,,,,,,*02
2017-05-25T14:23:13 -->> $GPGSV,2,1,06,08,,,29,07,,,31,30,,,33,28,,,20*71
2017-05-25T14:23:13 -->> $GPGSV,2,2,06,01,,,22,09,,,25*70
2017-05-25T14:23:13 -->> $GLGSV,1,1,00*65
2017-05-25T14:23:13 -->> $GNRMC,062316.083,V,,,,,0.00,0.00,250517,,,N*5C
2017-05-25T14:23:13 -->> $GNVTG,0.00,T,,M,0.00,N,0.00,K,N*2C
2017-05-25T14:23:14 -->> $GNGGA,062317.083,,,,,0,0,,,M,,M,,*5C
2017-05-25T14:23:14 -->> $GPGSA,A,1,,,,,,,,,,,,,,,*1E
2017-05-25T14:23:14 -->> $GLGSA,A,1,,,,,,,,,,,,,,,*02
2017-05-25T14:23:14 -->> $GPGSV,2,1,06,08,,,29,07,,,31,30,,,33,28,,,20*71
2017-05-25T14:23:14 -->> $GPGSV,2,2,06,01,,,21,09,,,25*73
2017-05-25T14:23:14 -->> $GLGSV,1,1,00*65
2017-05-25T14:23:14 -->> $GNRMC,062317.083,V,,,,,0.00,0.00,250517,,,N*5D
2017-05-25T14:23:14 -->> $GNVTG,0.00,T,,M,0.00,N,0.00,K,N*2C
2017-05-25T14:23:15 -->> $GNGGA,062318.083,,,,,0,0,,,M,,M,,*53
2017-05-25T14:23:15 -->> $GPGSA,A,1,,,,,,,,,,,,,,,*1E
2017-05-25T14:23:15 -->> $GLGSA,A,1,,,,,,,,,,,,,,,*02
2017-05-25T14:23:15 -->> $GPGSV,2,1,06,08,,,29,07,,,31,30,,,33,28,,,20*71
2017-05-25T14:23:15 -->> $GPGSV,2,2,06,01,,,20,09,,,25*72
2017-05-25T14:23:15 -->> $GLGSV,1,1,00*65
2017-05-25T14:23:15 -->> $GNRMC,062318.083,V,,,,,0.00,0.00,250517,,,N*52
2017-05-25T14:23:15 -->> $GNVTG,0.00,T,,M,0.00,N,0.00,K,N*2C
2017-05-25T14:23:16 -->> $GNGGA,062319.083,,,,,0,0,,,M,,M,,*52
2017-05-25T14:23:16 -->> $GPGSA,A,1,,,,,,,,,,,,,,,*1E
2017-05-25T14:23:16 -->> $GLGSA,A,1,,,,,,,,,,,,,,,*02
2017-05-25T14:23:16 -->> $GPGSV,2,1,06,08,,,29,07,,,31,30,,,33,28,,,20*71
2017-05-25T14:23:16 -->> $GPGSV,2,2,06,01,,,20,09,,,25*72
2017-05-25T14:23:16 -->> $GLGSV,1,1,00*65
2017-05-25T14:23:16 -->> $GNRMC,062319.083,V,,,,,0.00,0.00,250517,,,N*53
2017-05-25T14:23:16 -->> $GNVTG,0.00,T,,M,0.00,N,0.00,K,N*2C
2017-05-25T14:23:17 -->> $GNGGA,062320.083,,,,,0,0,,,M,,M,,*58
2017-05-25T14:23:17 -->> $GPGSA,A,1,,,,,,,,,,,,,,,*1E
2017-05-25T14:23:17 -->> $GLGSA,A,1,,,,,,,,,,,,,,,*02
2017-05-25T14:23:17 -->> $GPGSV,2,1,06,08,,,29,07,,,31,30,,,33,28,,,21*70
2017-05-25T14:23:17 -->> $GPGSV,2,2,06,01,,,20,09,,,25*72
2017-05-25T14:23:17 -->> $GLGSV,1,1,00*65
2017-05-25T14:23:17 -->> $GNRMC,062320.083,V,,,,,0.00,0.00,250517,,,N*59
2017-05-25T14:23:17 -->> $GNVTG,0.00,T,,M,0.00,N,0.00,K,N*2C
2017-05-25T14:23:18 -->> $GNGGA,062321.083,,,,,0,0,,,M,,M,,*59
2017-05-25T14:23:18 -->> $GPGSA,A,1,,,,,,,,,,,,,,,*1E
2017-05-25T14:23:18 -->> $GLGSA,A,1,,,,,,,,,,,,,,,*02
2017-05-25T14:23:18 -->> $GPGSV,2,1,06,08,,,29,07,,,31,30,,,33,28,,,22*73
2017-05-25T14:23:18 -->> $GPGSV,2,2,06,01,,,20,09,,,25*72
2017-05-25T14:23:18 -->> $GLGSV,1,1,00*65
2017-05-25T14:23:18 -->> $GNRMC,062321.083,V,,,,,0.00,0.00,250517,,,N*58
2017-05-25T14:23:18 -->> $GNVTG,0.00,T,,M,0.00,N,0.00,K,N*2C
2017-05-25T14:23:19 -->> $GNGGA,062322.083,,,,,0,0,,,M,,M,,*5A
2017-05-25T14:23:19 -->> $GPGSA,A,1,,,,,,,,,,,,,,,*1E
2017-05-25T14:23:19 -->> $GLGSA,A,1,,,,,,,,,,,,,,,*02
2017-05-25T14:23:19 -->> $GPGSV,2,1,06,08,,,29,07,,,31,30,,,33,28,,,22*73
2017-05-25T14:23:19 -->> $GPGSV,2,2,06,01,,,20,09,,,25*72
2017-05-25T14:23:19 -->> $GLGSV,1,1,00*65
2017-05-25T14:23:19 -->> $GNRMC,062322.083,V,,,,,0.00,0.00,250517,,,N*5B
2017-05-25T14:23:19 -->> $GNVTG,0.00,T,,M,0.00,N,0.00,K,N*2C
2017-05-25T14:23:20 -->> $GNGGA,062323.083,,,,,0,0,,,M,,M,,*5B
2017-05-25T14:23:20 -->> $GPGSA,A,1,,,,,,,,,,,,,,,*1E
2017-05-25T14:23:20 -->> $GLGSA,A,1,,,,,,,,,,,,,,,*02
2017-05-25T14:23:20 -->> $GPGSV,2,1,06,08,,,29,07,,,31,30,,,33,28,,,23*72
2017-05-25T14:23:20 -->> $GPGSV,2,2,06,01,,,20,09,,,25*72
2017-05-25T14:23:20 -->> $GLGSV,1,1,00*65
2017-05-25T14:23:20 -->> $GNRMC,062323.083,V,,,,,0.00,0.00,250517,,,N*5A
2017-05-25T14:23:20 -->> $GNVTG,0.00,T,,M,0.00,N,0.00,K,N*2C
2017-05-25T14:23:21 -->> $GNGGA,062324.083,,,,,0,0,,,M,,M,,*5C
2017-05-25T14:23:21 -->> $GPGSA,A,1,,,,,,,,,,,,,,,*1E
2017-05-25T14:23:21 -->> $GLGSA,A,1,,,,,,,,,,,,,,,*02
2017-05-25T14:23:21 -->> $GPGSV,2,1,06,08,,,29,07,,,31,30,,,33,28,,,24*75
2017-05-25T14:23:21 -->> $GPGSV,2,2,06,01,,,20,09,,,24*73
2017-05-25T14:23:21 -->> $GLGSV,1,1,00*65
2017-05-25T14:23:21 -->> $GNRMC,062324.083,V,,,,,0.00,0.00,250517,,,N*5D
2017-05-25T14:23:21 -->> $GNVTG,0.00,T,,M,0.00,N,0.00,K,N*2C
2017-05-25T14:23:22 -->> $GNGGA,062325.079,,,,,0,0,,,M,,M,,*58
2017-05-25T14:23:22 -->> $GPGSA,A,1,,,,,,,,,,,,,,,*1E
2017-05-25T14:23:22 -->> $GLGSA,A,1,,,,,,,,,,,,,,,*02
2017-05-25T14:23:22 -->> $GPGSV,2,1,06,08,,,29,07,,,31,30,,,33,28,,,24*75
2017-05-25T14:23:22 -->> $GPGSV,2,2,06,01,,,20,09,,,24*73
2017-05-25T14:23:22 -->> $GLGSV,1,1,00*65
2017-05-25T14:23:22 -->> $GNRMC,062325.079,V,,,,,0.00,0.00,250517,,,N*59
2017-05-25T14:23:22 -->> $GNVTG,0.00,T,,M,0.00,N,0.00,K,N*2C
2017-05-25T14:23:23 -->> $GNGGA,062326.081,,,,,0,0,,,M,,M,,*5C
2017-05-25T14:23:23 -->> $GPGSA,A,1,,,,,,,,,,,,,,,*1E
2017-05-25T14:23:23 -->> $GLGSA,A,1,,,,,,,,,,,,,,,*02
2017-05-25T14:23:23 -->> $GPGSV,2,1,08,07,83,283,31,08,47,035,29,30,44,316,33,01,43,150,20*74
2017-05-25T14:23:23 -->> $GPGSV,2,2,08,42,37,124,,193,,,,28,,,24,09,,,24*7C
2017-05-25T14:23:23 -->> $GLGSV,1,1,00*65
2017-05-25T14:23:23 -->> $GNRMC,062326.081,V,,,,,0.68,183.76,250517,,,N*58
2017-05-25T14:23:23 -->> $GNVTG,183.76,T,,M,0.68,N,1.26,K,N*2C
2017-05-25T14:23:24 -->> $GNGGA,062327.081,3032.9033,N,10403.6116,E,1,4,1.89,564.5,M,-31.9,M,,*64
2017-05-25T14:23:24 -->> $GPGSA,A,3,08,07,30,01,,,,,,,,,2.13,1.89,0.97*01
2017-05-25T14:23:24 -->> $GLGSA,A,3,,,,,,,,,,,,,2.13,1.89,0.97*10
2017-05-25T14:23:24 -->> $GPGSV,2,1,08,07,83,283,31,08,47,035,29,30,44,316,33,01,43,150,20*74
2017-05-25T14:23:24 -->> $GPGSV,2,2,08,42,37,124,,193,,,,28,,,24,09,,,23*7B
2017-05-25T14:23:24 -->> $GLGSV,1,1,00*65
2017-05-25T14:23:24 -->> $GNRMC,062327.081,A,3032.9033,N,10403.6116,E,0.85,189.72,250517,,,A*7A
2017-05-25T14:23:24 -->> $GNVTG,189.72,T,,M,0.85,N,1.57,K,A*28
2017-05-25T14:23:26 -->> $GNGGA,062329.000,3032.9030,N,10403.6114,E,1,4,1.89,565.3,M,-31.9,M,,*65
2017-05-25T14:23:26 -->> $GPGSA,A,3,08,07,30,01,,,,,,,,,2.13,1.89,0.97*01
2017-05-25T14:23:26 -->> $GLGSA,A,3,,,,,,,,,,,,,2.13,1.89,0.97*10
2017-05-25T14:23:26 -->> $GPGSV,2,1,08,07,83,283,30,08,47,035,29,30,44,316,33,01,43,150,19*7F
2017-05-25T14:23:26 -->> $GPGSV,2,2,08,42,37,124,,193,,,,28,,,24,09,,,23*7B
2017-05-25T14:23:26 -->> $GLGSV,1,1,00*65
2017-05-25T14:23:26 -->> $GNRMC,062329.000,A,3032.9030,N,10403.6114,E,0.64,179.80,250517,,,A*71
2017-05-25T14:23:26 -->> $GNVTG,179.80,T,,M,0.64,N,1.19,K,A*2F
2017-05-25T14:23:27 -->> $GNGGA,062330.000,3032.9030,N,10403.6115,E,1,4,1.89,564.6,M,-31.9,M,,*68
2017-05-25T14:23:27 -->> $GPGSA,A,3,08,07,30,01,,,,,,,,,2.13,1.89,0.97*01
2017-05-25T14:23:27 -->> $GLGSA,A,3,,,,,,,,,,,,,2.13,1.89,0.97*10
2017-05-25T14:23:27 -->> $GPGSV,2,1,08,07,83,283,30,08,47,035,29,30,44,316,33,01,43,150,19*7F
2017-05-25T14:23:27 -->> $GPGSV,2,2,08,42,37,124,,193,,,,28,,,24,09,,,23*7B
2017-05-25T14:23:27 -->> $GLGSV,1,1,00*65
2017-05-25T14:23:27 -->> $GNRMC,062330.000,A,3032.9030,N,10403.6115,E,0.55,179.80,250517,,,A*7A
2017-05-25T14:23:27 -->> $GNVTG,179.80,T,,M,0.55,N,1.02,K,A*27
2017-05-25T14:23:28 -->> $GNGGA,062331.000,3032.9027,N,10403.6112,E,1,4,1.89,563.1,M,-31.9,M,,*68
2017-05-25T14:23:28 -->> $GPGSA,A,3,08,07,30,01,,,,,,,,,2.13,1.89,0.97*01
2017-05-25T14:23:28 -->> $GLGSA,A,3,,,,,,,,,,,,,2.13,1.89,0.97*10
2017-05-25T14:23:28 -->> $GPGSV,2,1,08,07,83,283,30,08,47,035,29,30,44,316,32,01,43,150,19*7E
2017-05-25T14:23:28 -->> $GPGSV,2,2,08,42,37,124,,193,,,,28,,,24,09,,,23*7B
2017-05-25T14:23:28 -->> $GLGSV,1,1,00*65
2017-05-25T14:23:28 -->> $GNRMC,062331.000,A,3032.9027,N,10403.6112,E,0.00,179.80,250517,,,A*7A
2017-05-25T14:23:28 -->> $GNVTG,179.80,T,,M,0.00,N,0.00,K,A*24
2017-05-25T14:23:29 -->> $GNGGA,062332.000,3032.9023,N,10403.6106,E,1,4,1.89,562.1,M,-31.9,M,,*6B
2017-05-25T14:23:29 -->> $GPGSA,A,3,08,07,30,01,,,,,,,,,2.13,1.89,0.97*01
2017-05-25T14:23:29 -->> $GLGSA,A,3,,,,,,,,,,,,,2.13,1.89,0.97*10
2017-05-25T14:23:29 -->> $GPGSV,2,1,08,07,83,283,30,08,47,035,29,30,44,316,32,01,43,150,19*7E
2017-05-25T14:23:29 -->> $GPGSV,2,2,08,42,37,124,,193,,,,28,,,24,09,,,23*7B
2017-05-25T14:23:29 -->> $GLGSV,1,1,00*65
2017-05-25T14:23:29 -->> $GNRMC,062332.000,A,3032.9023,N,10403.6106,E,0.00,179.80,250517,,,A*78
2017-05-25T14:23:29 -->> $GNVTG,179.80,T,,M,0.00,N,0.00,K,A*24
2017-05-25T14:23:30 -->> $GNGGA,062333.000,3032.9020,N,10403.6101,E,1,4,1.89,561.3,M,-31.9,M,,*6F
2017-05-25T14:23:30 -->> $GPGSA,A,3,08,07,30,01,,,,,,,,,2.13,1.89,0.97*01
2017-05-25T14:23:30 -->> $GLGSA,A,3,,,,,,,,,,,,,2.13,1.89,0.97*10
2017-05-25T14:23:30 -->> $GPGSV,2,1,08,07,83,283,30,08,47,035,29,30,44,316,32,01,43,150,18*7F
2017-05-25T14:23:30 -->> $GPGSV,2,2,08,42,37,124,,193,,,,28,,,24,09,,,23*7B
2017-05-25T14:23:30 -->> $GLGSV,1,1,00*65
2017-05-25T14:23:30 -->> $GNRMC,062333.000,A,3032.9020,N,10403.6101,E,0.00,179.80,250517,,,A*7D
2017-05-25T14:23:30 -->> $GNVTG,179.80,T,,M,0.00,N,0.00,K,A*24
2017-05-25T14:23:31 -->> $GNGGA,062334.000,3032.9020,N,10403.6101,E,1,4,1.89,561.3,M,-31.9,M,,*68
2017-05-25T14:23:31 -->> $GPGSA,A,3,08,07,30,01,,,,,,,,,2.13,1.89,0.97*01
2017-05-25T14:23:31 -->> $GLGSA,A,3,,,,,,,,,,,,,2.13,1.89,0.97*10
2017-05-25T14:23:31 -->> $GPGSV,2,1,08,07,84,283,30,08,47,035,29,30,44,316,32,01,43,150,18*78
2017-05-25T14:23:31 -->> $GPGSV,2,2,08,42,37,124,,193,,,,28,,,24,09,,,23*7B
2017-05-25T14:23:31 -->> $GLGSV,1,1,00*65
2017-05-25T14:23:31 -->> $GNRMC,062334.000,A,3032.9020,N,10403.6101,E,0.00,179.80,250517,,,A*7A
2017-05-25T14:23:31 -->> $GNVTG,179.80,T,,M,0.00,N,0.00,K,A*24
2017-05-25T14:23:32 -->> $GNGGA,062335.000,3032.9020,N,10403.6101,E,1,4,1.89,561.3,M,-31.9,M,,*69
2017-05-25T14:23:32 -->> $GPGSA,A,3,08,07,30,01,,,,,,,,,2.13,1.89,0.97*01
2017-05-25T14:23:32 -->> $GLGSA,A,3,,,,,,,,,,,,,2.13,1.89,0.97*10
2017-05-25T14:23:32 -->> $GPGSV,2,1,08,07,84,283,29,08,47,035,29,30,44,316,32,01,43,150,18*70
2017-05-25T14:23:32 -->> $GPGSV,2,2,08,42,37,124,,193,,,,28,,,24,09,,,23*7B
2017-05-25T14:23:32 -->> $GLGSV,1,1,00*65
2017-05-25T14:23:32 -->> $GNRMC,062335.000,A,3032.9020,N,10403.6101,E,0.00,179.80,250517,,,A*7B
2017-05-25T14:23:32 -->> $GNVTG,179.80,T,,M,0.00,N,0.00,K,A*24
2017-05-25T14:23:33 -->> $GNGGA,062336.000,3032.9020,N,10403.6101,E,1,4,1.89,561.3,M,-31.9,M,,*6A
2017-05-25T14:23:33 -->> $GPGSA,A,3,08,07,30,01,,,,,,,,,2.13,1.89,0.97*01
2017-05-25T14:23:33 -->> $GLGSA,A,3,,,,,,,,,,,,,2.13,1.89,0.97*10
2017-05-25T14:23:33 -->> $GPGSV,2,1,08,07,84,283,29,08,47,035,29,30,44,316,32,01,43,150,18*70
2017-05-25T14:23:33 -->> $GPGSV,2,2,08,44,35,237,,193,,,,28,,,24,09,,,23*7E
2017-05-25T14:23:33 -->> $GLGSV,1,1,00*65
2017-05-25T14:23:33 -->> $GNRMC,062336.000,A,3032.9020,N,10403.6101,E,0.00,179.80,250517,,,A*78
2017-05-25T14:23:33 -->> $GNVTG,179.80,T,,M,0.00,N,0.00,K,A*24
2017-05-25T14:23:34 -->> $GNGGA,062337.000,3032.9020,N,10403.6101,E,1,4,1.89,561.3,M,-31.9,M,,*6B
2017-05-25T14:23:34 -->> $GPGSA,A,3,08,07,30,01,,,,,,,,,2.13,1.89,0.97*01
2017-05-25T14:23:34 -->> $GLGSA,A,3,,,,,,,,,,,,,2.13,1.89,0.97*10
2017-05-25T14:23:34 -->> $GPGSV,2,1,08,07,84,283,29,08,47,035,29,30,44,316,32,01,43,150,18*70
2017-05-25T14:23:34 -->> $GPGSV,2,2,08,44,35,237,,193,,,,28,,,24,09,,,23*7E
2017-05-25T14:23:34 -->> $GLGSV,1,1,00*65
2017-05-25T14:23:34 -->> $GNRMC,062337.000,A,3032.9020,N,10403.6101,E,0.00,179.80,250517,,,A*79
2017-05-25T14:23:34 -->> $GNVTG,179.80,T,,M,0.00,N,0.00,K,A*24
2017-05-25T14:23:35 -->> $GNGGA,062338.000,3032.9020,N,10403.6101,E,1,4,1.89,561.3,M,-31.9,M,,*64
2017-05-25T14:23:35 -->> $GPGSA,A,3,08,07,30,01,,,,,,,,,2.13,1.89,0.97*01
2017-05-25T14:23:35 -->> $GLGSA,A,3,,,,,,,,,,,,,2.13,1.89,0.97*10
2017-05-25T14:23:35 -->> $GPGSV,2,1,08,07,84,283,29,08,47,035,29,30,44,316,32,01,43,150,18*70
2017-05-25T14:23:35 -->> $GPGSV,2,2,08,44,35,237,,193,,,,28,,,24,09,,,23*7E
2017-05-25T14:23:35 -->> $GLGSV,1,1,00*65
2017-05-25T14:23:35 -->> $GNRMC,062338.000,A,3032.9020,N,10403.6101,E,0.00,179.80,250517,,,A*76
2017-05-25T14:23:35 -->> $GNVTG,179.80,T,,M,0.00,N,0.00,K,A*24
2017-05-25T14:23:36 -->> $GNGGA,062339.000,3032.9020,N,10403.6101,E,1,4,1.89,561.3,M,-31.9,M,,*65
2017-05-25T14:23:36 -->> $GPGSA,A,3,08,07,30,01,,,,,,,,,2.13,1.89,0.97*01
2017-05-25T14:23:36 -->> $GLGSA,A,3,,,,,,,,,,,,,2.13,1.89,0.97*10
2017-05-25T14:23:36 -->> $GPGSV,2,1,08,07,84,283,29,08,47,035,29,30,44,316,32,01,43,150,18*70
2017-05-25T14:23:36 -->> $GPGSV,2,2,08,44,35,237,,193,,,,28,,,24,09,,,23*7E
2017-05-25T14:23:36 -->> $GLGSV,1,1,00*65
2017-05-25T14:23:36 -->> $GNRMC,062339.000,A,3032.9020,N,10403.6101,E,0.00,179.80,250517,,,A*77
2017-05-25T14:23:36 -->> $GNVTG,179.80,T,,M,0.00,N,0.00,K,A*24
2017-05-25T14:23:37 -->> $GNGGA,062340.000,3032.9020,N,10403.6101,E,1,4,1.89,561.3,M,-31.9,M,,*6B
2017-05-25T14:23:37 -->> $GPGSA,A,3,08,07,30,01,,,,,,,,,2.13,1.89,0.97*01
2017-05-25T14:23:37 -->> $GLGSA,A,3,,,,,,,,,,,,,2.13,1.89,0.97*10
2017-05-25T14:23:37 -->> $GPGSV,2,1,08,07,84,283,29,08,47,035,29,30,44,316,31,01,43,150,17*7C
2017-05-25T14:23:37 -->> $GPGSV,2,2,08,44,35,237,,193,,,,28,,,24,09,,,23*7E
2017-05-25T14:23:37 -->> $GLGSV,1,1,00*65
2017-05-25T14:23:37 -->> $GNRMC,062340.000,A,3032.9020,N,10403.6101,E,0.00,179.80,250517,,,A*79
2017-05-25T14:23:37 -->> $GNVTG,179.80,T,,M,0.00,N,0.00,K,A*24
2017-05-25T14:23:38 -->> $GNGGA,062341.000,3032.9020,N,10403.6101,E,1,4,1.89,561.3,M,-31.9,M,,*6A
2017-05-25T14:23:38 -->> $GPGSA,A,3,08,07,30,01,,,,,,,,,2.13,1.89,0.97*01
2017-05-25T14:23:38 -->> $GLGSA,A,3,,,,,,,,,,,,,2.13,1.89,0.97*10
2017-05-25T14:23:38 -->> $GPGSV,2,1,08,07,84,283,29,08,47,035,29,30,44,316,31,01,43,150,17*7C
2017-05-25T14:23:38 -->> $GPGSV,2,2,08,44,35,237,,193,,,,28,,,24,09,,,23*7E
2017-05-25T14:23:38 -->> $GLGSV,1,1,00*65
2017-05-25T14:23:38 -->> $GNRMC,062341.000,A,3032.9020,N,10403.6101,E,0.00,179.80,250517,,,A*78
2017-05-25T14:23:38 -->> $GNVTG,179.80,T,,M,0.00,N,0.00,K,A*24
2017-05-25T14:23:39 -->> $GNGGA,062342.000,3032.9020,N,10403.6101,E,1,4,1.89,561.3,M,-31.9,M,,*69
2017-05-25T14:23:39 -->> $GPGSA,A,3,08,07,30,01,,,,,,,,,2.13,1.89,0.97*01
2017-05-25T14:23:39 -->> $GLGSA,A,3,,,,,,,,,,,,,2.13,1.89,0.97*10
2017-05-25T14:23:39 -->> $GPGSV,2,1,08,07,84,283,29,08,47,035,29,30,44,316,31,01,43,150,17*7C
2017-05-25T14:23:39 -->> $GPGSV,2,2,08,44,35,237,,193,,,,28,,,24,09,,,23*7E
2017-05-25T14:23:39 -->> $GLGSV,1,1,00*65
2017-05-25T14:23:39 -->> $GNRMC,062342.000,A,3032.9020,N,10403.6101,E,0.00,179.80,250517,,,A*7B
2017-05-25T14:23:39 -->> $GNVTG,179.80,T,,M,0.00,N,0.00,K,A*24
2017-05-25T14:23:40 -->> $GNGGA,062343.000,3032.9020,N,10403.6101,E,1,4,1.89,561.3,M,-31.9,M,,*68
2017-05-25T14:23:40 -->> $GPGSA,A,3,08,07,30,01,,,,,,,,,2.13,1.89,0.97*01
2017-05-25T14:23:40 -->> $GLGSA,A,3,,,,,,,,,,,,,2.13,1.89,0.97*10
2017-05-25T14:23:40 -->> $GPGSV,2,1,08,07,84,283,29,08,47,035,29,30,44,316,31,01,43,150,16*7D
2017-05-25T14:23:40 -->> $GPGSV,2,2,08,44,35,237,,193,,,,28,,,24,09,,,23*7E
2017-05-25T14:23:40 -->> $GLGSV,1,1,00*65
2017-05-25T14:23:40 -->> $GNRMC,062343.000,A,3032.9020,N,10403.6101,E,0.00,179.80,250517,,,A*7A
2017-05-25T14:23:40 -->> $GNVTG,179.80,T,,M,0.00,N,0.00,K,A*24
2017-05-25T14:23:41 -->> $GNGGA,062344.000,3032.9020,N,10403.6101,E,1,4,1.89,561.3,M,-31.9,M,,*6F
2017-05-25T14:23:41 -->> $GPGSA,A,3,08,07,30,01,,,,,,,,,2.12,1.89,0.97*00
2017-05-25T14:23:41 -->> $GLGSA,A,3,,,,,,,,,,,,,2.12,1.89,0.97*11
2017-05-25T14:23:41 -->> $GPGSV,2,1,08,07,84,283,29,08,47,035,29,30,44,316,31,01,43,150,16*7D
2017-05-25T14:23:41 -->> $GPGSV,2,2,08,44,35,237,,193,,,,28,,,25,09,,,22*7E
2017-05-25T14:23:41 -->> $GLGSV,1,1,00*65
2017-05-25T14:23:41 -->> $GNRMC,062344.000,A,3032.9020,N,10403.6101,E,0.00,179.80,250517,,,A*7D
2017-05-25T14:23:41 -->> $GNVTG,179.80,T,,M,0.00,N,0.00,K,A*24
2017-05-25T14:23:42 -->> $GNGGA,062345.000,3032.9020,N,10403.6101,E,1,4,1.89,561.3,M,-31.9,M,,*6E
2017-05-25T14:23:42 -->> $GPGSA,A,3,08,07,30,01,,,,,,,,,2.13,1.89,0.97*01
2017-05-25T14:23:42 -->> $GLGSA,A,3,,,,,,,,,,,,,2.13,1.89,0.97*10
2017-05-25T14:23:42 -->> $GPGSV,2,1,08,07,84,283,29,08,47,035,29,30,44,316,31,01,43,150,16*7D
2017-05-25T14:23:42 -->> $GPGSV,2,2,08,40,34,238,,193,,,,28,,,25,09,,,22*74
2017-05-25T14:23:42 -->> $GLGSV,1,1,00*65
2017-05-25T14:23:42 -->> $GNRMC,062345.000,A,3032.9020,N,10403.6101,E,0.00,179.80,250517,,,A*7C
2017-05-25T14:23:42 -->> $GNVTG,179.80,T,,M,0.00,N,0.00,K,A*24
2017-05-25T14:23:43 -->> $GNGGA,062346.000,3032.9020,N,10403.6101,E,1,4,1.89,561.3,M,-31.9,M,,*6D
2017-05-25T14:23:43 -->> $GPGSA,A,3,08,07,30,01,,,,,,,,,2.13,1.89,0.97*01
2017-05-25T14:23:43 -->> $GLGSA,A,3,,,,,,,,,,,,,2.13,1.89,0.97*10
2017-05-25T14:23:43 -->> $GPGSV,2,1,08,07,84,283,28,08,47,035,29,30,44,316,31,01,43,150,15*7F
2017-05-25T14:23:43 -->> $GPGSV,2,2,08,40,34,238,,193,,,,28,,,25,09,,,21*77
2017-05-25T14:23:43 -->> $GLGSV,1,1,00*65
2017-05-25T14:23:43 -->> $GNRMC,062346.000,A,3032.9020,N,10403.6101,E,0.00,179.80,250517,,,A*7F
2017-05-25T14:23:43 -->> $GNVTG,179.80,T,,M,0.00,N,0.00,K,A*24
2017-05-25T14:23:44 -->> $GNGGA,062347.000,3032.9020,N,10403.6101,E,1,4,1.89,561.3,M,-31.9,M,,*6C
2017-05-25T14:23:44 -->> $GPGSA,A,3,08,07,30,01,,,,,,,,,2.13,1.89,0.97*01
2017-05-25T14:23:44 -->> $GLGSA,A,3,,,,,,,,,,,,,2.13,1.89,0.97*10
2017-05-25T14:23:44 -->> $GPGSV,2,1,08,07,84,283,28,08,47,035,29,30,44,316,31,01,43,150,14*7E
2017-05-25T14:23:44 -->> $GPGSV,2,2,08,40,34,238,,193,,,,28,,,25,09,,,21*77
2017-05-25T14:23:44 -->> $GLGSV,1,1,00*65
2017-05-25T14:23:44 -->> $GNRMC,062347.000,A,3032.9020,N,10403.6101,E,0.00,179.80,250517,,,A*7E
2017-05-25T14:23:44 -->> $GNVTG,179.80,T,,M,0.00,N,0.00,K,A*24
2017-05-25T14:23:45 -->> $GNGGA,062348.000,3032.9020,N,10403.6101,E,1,4,1.89,561.3,M,-31.9,M,,*63
2017-05-25T14:23:45 -->> $GPGSA,A,3,08,07,30,01,,,,,,,,,2.13,1.89,0.97*01
2017-05-25T14:23:45 -->> $GLGSA,A,3,,,,,,,,,,,,,2.13,1.89,0.97*10
2017-05-25T14:23:45 -->> $GPGSV,2,1,08,07,84,283,27,08,47,035,29,30,44,316,31,01,43,150,14*71
2017-05-25T14:23:45 -->> $GPGSV,2,2,08,40,34,238,,193,,,,28,,,25,09,,,21*77
2017-05-25T14:23:45 -->> $GLGSV,1,1,00*65
2017-05-25T14:23:45 -->> $GNRMC,062348.000,A,3032.9020,N,10403.6101,E,0.00,179.80,250517,,,A*71
2017-05-25T14:23:45 -->> $GNVTG,179.80,T,,M,0.00,N,0.00,K,A*24
2017-05-25T14:23:46 -->> $GNGGA,062349.000,3032.9020,N,10403.6101,E,1,4,1.89,561.3,M,-31.9,M,,*62
2017-05-25T14:23:46 -->> $GPGSA,A,3,08,07,30,01,,,,,,,,,2.13,1.89,0.97*01
2017-05-25T14:23:46 -->> $GLGSA,A,3,,,,,,,,,,,,,2.13,1.89,0.97*10
2017-05-25T14:23:46 -->> $GPGSV,2,1,08,07,84,283,27,08,47,035,29,30,44,316,31,01,43,150,16*73
2017-05-25T14:23:46 -->> $GPGSV,2,2,08,40,34,238,,193,,,,28,,,25,09,,,22*74
2017-05-25T14:23:46 -->> $GLGSV,1,1,00*65
2017-05-25T14:23:46 -->> $GNRMC,062349.000,A,3032.9020,N,10403.6101,E,0.00,179.80,250517,,,A*70
2017-05-25T14:23:46 -->> $GNVTG,179.80,T,,M,0.00,N,0.00,K,A*24
2017-05-25T14:23:47 -->> $GNGGA,062350.000,3032.9020,N,10403.6101,E,1,4,1.89,561.3,M,-31.9,M,,*6A
2017-05-25T14:23:47 -->> $GPGSA,A,3,08,07,30,01,,,,,,,,,2.12,1.89,0.97*00
2017-05-25T14:23:47 -->> $GLGSA,A,3,,,,,,,,,,,,,2.12,1.89,0.97*11
2017-05-25T14:23:47 -->> $GPGSV,2,1,08,07,84,283,27,08,47,035,29,30,44,316,31,01,43,150,14*71
2017-05-25T14:23:47 -->> $GPGSV,2,2,08,40,34,238,,193,,,,28,,,26,09,,,23*76
2017-05-25T14:23:47 -->> $GLGSV,1,1,00*65
2017-05-25T14:23:47 -->> $GNRMC,062350.000,A,3032.9020,N,10403.6101,E,0.00,179.80,250517,,,A*78
2017-05-25T14:23:47 -->> $GNVTG,179.80,T,,M,0.00,N,0.00,K,A*24
2017-05-25T14:23:48 -->> $GNGGA,062351.000,3032.9020,N,10403.6101,E,1,4,1.89,561.3,M,-31.9,M,,*6B
2017-05-25T14:23:48 -->> $GPGSA,A,3,08,07,30,01,,,,,,,,,2.12,1.89,0.97*00
2017-05-25T14:23:48 -->> $GLGSA,A,3,,,,,,,,,,,,,2.12,1.89,0.97*11
2017-05-25T14:23:48 -->> $GPGSV,2,1,08,07,84,283,29,08,47,035,29,30,44,316,31,01,43,150,15*7E
2017-05-25T14:23:48 -->> $GPGSV,2,2,08,40,34,238,,193,,,,28,,,26,09,,,23*76
2017-05-25T14:23:48 -->> $GLGSV,1,1,00*65
2017-05-25T14:23:48 -->> $GNRMC,062351.000,A,3032.9020,N,10403.6101,E,0.00,179.80,250517,,,A*79
2017-05-25T14:23:48 -->> $GNVTG,179.80,T,,M,0.00,N,0.00,K,A*24
2017-05-25T14:23:49 -->> $GNGGA,062352.000,3032.9020,N,10403.6101,E,1,4,1.89,561.3,M,-31.9,M,,*68
2017-05-25T14:23:49 -->> $GPGSA,A,3,08,07,30,01,,,,,,,,,2.12,1.89,0.97*00
2017-05-25T14:23:49 -->> $GLGSA,A,3,,,,,,,,,,,,,2.12,1.89,0.97*11
2017-05-25T14:23:49 -->> $GPGSV,2,1,08,07,84,283,29,08,47,035,29,30,44,316,31,01,43,150,15*7E
2017-05-25T14:23:49 -->> $GPGSV,2,2,08,40,34,238,,193,,,,28,,,26,09,,,23*76
2017-05-25T14:23:49 -->> $GLGSV,1,1,00*65
2017-05-25T14:23:49 -->> $GNRMC,062352.000,A,3032.9020,N,10403.6101,E,0.00,179.80,250517,,,A*7A
2017-05-25T14:23:49 -->> $GNVTG,179.80,T,,M,0.00,N,0.00,K,A*24
2017-05-25T14:23:50 -->> $GNGGA,062353.000,3032.9020,N,10403.6101,E,1,4,1.89,561.3,M,-31.9,M,,*69
2017-05-25T14:23:50 -->> $GPGSA,A,3,08,07,30,01,,,,,,,,,2.12,1.89,0.97*00
2017-05-25T14:23:50 -->> $GLGSA,A,3,,,,,,,,,,,,,2.12,1.89,0.97*11
2017-05-25T14:23:50 -->> $GPGSV,2,1,08,07,84,283,29,08,47,035,29,30,44,316,31,01,43,150,13*78
2017-05-25T14:23:50 -->> $GPGSV,2,2,08,40,34,238,,193,,,,28,,,26,09,,,23*76
2017-05-25T14:23:50 -->> $GLGSV,1,1,00*65
2017-05-25T14:23:50 -->> $GNRMC,062353.000,A,3032.9020,N,10403.6101,E,0.00,179.80,250517,,,A*7B
2017-05-25T14:23:50 -->> $GNVTG,179.80,T,,M,0.00,N,0.00,K,A*24
2017-05-25T14:23:51 -->> $GNGGA,062354.000,3032.9020,N,10403.6101,E,1,4,1.89,561.3,M,-31.9,M,,*6E
2017-05-25T14:23:51 -->> $GPGSA,A,3,08,07,30,01,,,,,,,,,2.13,1.89,0.97*01
2017-05-25T14:23:51 -->> $GLGSA,A,3,,,,,,,,,,,,,2.13,1.89,0.97*10
2017-05-25T14:23:51 -->> $GPGSV,2,1,08,07,84,283,28,08,47,035,29,30,44,316,30,01,43,150,17*7C
2017-05-25T14:23:51 -->> $GPGSV,2,2,08,40,34,238,,193,,,,28,,,26,09,,,22*77
2017-05-25T14:23:51 -->> $GLGSV,1,1,00*65
2017-05-25T14:23:51 -->> $GNRMC,062354.000,A,3032.9020,N,10403.6101,E,0.00,179.80,250517,,,A*7C
2017-05-25T14:23:51 -->> $GNVTG,179.80,T,,M,0.00,N,0.00,K,A*24
2017-05-25T14:23:52 -->> $GNGGA,062355.000,3032.9020,N,10403.6101,E,1,4,1.89,561.3,M,-31.9,M,,*6F
2017-05-25T14:23:52 -->> $GPGSA,A,3,08,07,30,01,,,,,,,,,2.12,1.89,0.97*00
2017-05-25T14:23:52 -->> $GLGSA,A,3,,,,,,,,,,,,,2.12,1.89,0.97*11
2017-05-25T14:23:52 -->> $GPGSV,2,1,08,07,84,283,28,08,47,035,29,30,44,316,30,01,43,150,15*7E
2017-05-25T14:23:52 -->> $GPGSV,2,2,08,50,33,120,,193,,,,28,,,26,09,,,23*7A
2017-05-25T14:23:52 -->> $GLGSV,1,1,00*65
2017-05-25T14:23:52 -->> $GNRMC,062355.000,A,3032.9020,N,10403.6101,E,0.00,179.80,250517,,,A*7D
2017-05-25T14:23:52 -->> $GNVTG,179.80,T,,M,0.00,N,0.00,K,A*24
2017-05-25T14:23:53 -->> $GNGGA,062356.000,3032.9020,N,10403.6101,E,1,4,1.89,561.3,M,-31.9,M,,*6C
2017-05-25T14:23:53 -->> $GPGSA,A,3,08,07,30,01,,,,,,,,,2.12,1.89,0.97*00
2017-05-25T14:23:53 -->> $GLGSA,A,3,,,,,,,,,,,,,2.12,1.89,0.97*11
2017-05-25T14:23:53 -->> $GPGSV,2,1,08,07,84,283,28,08,47,035,29,30,44,316,30,01,43,150,16*7D
2017-05-25T14:23:53 -->> $GPGSV,2,2,08,50,33,120,,193,,,,28,,,26,09,,,23*7A
2017-05-25T14:23:53 -->> $GLGSV,1,1,00*65
2017-05-25T14:23:53 -->> $GNRMC,062356.000,A,3032.9020,N,10403.6101,E,0.00,179.80,250517,,,A*7E
2017-05-25T14:23:53 -->> $GNVTG,179.80,T,,M,0.00,N,0.00,K,A*24
2017-05-25T14:23:54 -->> $GNGGA,062357.000,3032.9020,N,10403.6101,E,1,4,1.89,561.3,M,-31.9,M,,*6D
2017-05-25T14:23:54 -->> $GPGSA,A,3,08,07,30,01,,,,,,,,,2.12,1.89,0.97*00
2017-05-25T14:23:54 -->> $GLGSA,A,3,,,,,,,,,,,,,2.12,1.89,0.97*11
2017-05-25T14:23:54 -->> $GPGSV,2,1,08,07,84,283,28,08,47,035,29,30,44,316,30,01,43,150,15*7E
2017-05-25T14:23:54 -->> $GPGSV,2,2,08,50,33,120,,193,,,,28,,,26,09,,,23*7A
2017-05-25T14:23:54 -->> $GLGSV,1,1,00*65
2017-05-25T14:23:54 -->> $GNRMC,062357.000,A,3032.9020,N,10403.6101,E,0.00,179.80,250517,,,A*7F
2017-05-25T14:23:54 -->> $GNVTG,179.80,T,,M,0.00,N,0.00,K,A*24
2017-05-25T14:23:55 -->> $GNGGA,062358.000,3032.9020,N,10403.6101,E,1,4,1.89,561.3,M,-31.9,M,,*62
2017-05-25T14:23:55 -->> $GPGSA,A,3,08,07,30,01,,,,,,,,,2.13,1.89,0.97*01
2017-05-25T14:23:55 -->> $GLGSA,A,3,,,,,,,,,,,,,2.13,1.89,0.97*10
2017-05-25T14:23:55 -->> $GPGSV,2,1,08,07,84,283,28,08,47,035,29,30,44,316,30,01,43,150,15*7E
2017-05-25T14:23:55 -->> $GPGSV,2,2,08,50,33,120,,193,,,,28,,,26,09,,,23*7A
2017-05-25T14:23:55 -->> $GLGSV,1,1,00*65
2017-05-25T14:23:55 -->> $GNRMC,062358.000,A,3032.9020,N,10403.6101,E,0.00,179.80,250517,,,A*70
2017-05-25T14:23:55 -->> $GNVTG,179.80,T,,M,0.00,N,0.00,K,A*24
2017-05-25T14:23:56 -->> $GNGGA,062359.000,3032.9020,N,10403.6101,E,1,4,1.89,561.3,M,-31.9,M,,*63
2017-05-25T14:23:56 -->> $GPGSA,A,3,08,07,30,01,,,,,,,,,2.12,1.89,0.97*00
2017-05-25T14:23:56 -->> $GLGSA,A,3,,,,,,,,,,,,,2.12,1.89,0.97*11
2017-05-25T14:23:56 -->> $GPGSV,2,1,08,07,84,283,27,08,47,035,29,30,44,316,30,01,43,150,15*71
2017-05-25T14:23:56 -->> $GPGSV,2,2,08,50,33,120,,193,,,,28,,,26,09,,,23*7A
2017-05-25T14:23:56 -->> $GLGSV,1,1,00*65
2017-05-25T14:23:56 -->> $GNRMC,062359.000,A,3032.9020,N,10403.6101,E,0.00,179.80,250517,,,A*71
2017-05-25T14:23:56 -->> $GNVTG,179.80,T,,M,0.00,N,0.00,K,A*24
2017-05-25T14:23:57 -->> $GNGGA,062400.000,3032.9020,N,10403.6101,E,1,4,1.89,561.3,M,-31.9,M,,*68
2017-05-25T14:23:57 -->> $GPGSA,A,3,08,07,30,01,,,,,,,,,2.12,1.89,0.97*00
2017-05-25T14:23:57 -->> $GLGSA,A,3,,,,,,,,,,,,,2.12,1.89,0.97*11
2017-05-25T14:23:57 -->> $GPGSV,2,1,08,07,84,283,27,08,47,035,29,30,44,316,30,01,43,150,15*71
2017-05-25T14:23:57 -->> $GPGSV,2,2,08,50,33,120,,193,,,,28,,,26,09,,,23*7A
2017-05-25T14:23:57 -->> $GLGSV,1,1,00*65
2017-05-25T14:23:57 -->> $GNRMC,062400.000,A,3032.9020,N,10403.6101,E,0.00,179.80,250517,,,A*7A
2017-05-25T14:23:57 -->> $GNVTG,179.80,T,,M,0.00,N,0.00,K,A*24
2017-05-25T14:23:58 -->> $GNGGA,062401.000,3032.9020,N,10403.6101,E,1,4,1.89,561.3,M,-31.9,M,,*69
2017-05-25T14:23:58 -->> $GPGSA,A,3,08,07,30,01,,,,,,,,,2.12,1.89,0.97*00
2017-05-25T14:23:58 -->> $GLGSA,A,3,,,,,,,,,,,,,2.12,1.89,0.97*11
2017-05-25T14:23:58 -->> $GPGSV,2,1,08,07,84,283,27,08,47,035,29,30,44,316,30,01,43,150,15*71
2017-05-25T14:23:58 -->> $GPGSV,2,2,08,50,33,120,,193,,,,28,,,27,09,,,23*7B
2017-05-25T14:23:58 -->> $GLGSV,1,1,00*65
2017-05-25T14:23:58 -->> $GNRMC,062401.000,A,3032.9020,N,10403.6101,E,0.00,179.80,250517,,,A*7B
2017-05-25T14:23:58 -->> $GNVTG,179.80,T,,M,0.00,N,0.00,K,A*24
2017-05-25T14:23:59 -->> $GNGGA,062402.000,3032.9020,N,10403.6101,E,1,5,1.60,561.3,M,-31.9,M,,*6C
2017-05-25T14:23:59 -->> $GPGSA,A,3,08,07,30,28,01,,,,,,,,1.85,1.60,0.95*02
2017-05-25T14:23:59 -->> $GLGSA,A,3,,,,,,,,,,,,,1.85,1.60,0.95*19
2017-05-25T14:23:59 -->> $GPGSV,2,1,08,07,84,283,27,08,47,035,29,30,44,316,30,01,43,150,13*77
2017-05-25T14:23:59 -->> $GPGSV,2,2,08,50,33,120,,28,27,300,27,193,,,,09,,,23*4D
2017-05-25T14:23:59 -->> $GLGSV,1,1,00*65
2017-05-25T14:23:59 -->> $GNRMC,062402.000,A,3032.9020,N,10403.6101,E,0.00,179.80,250517,,,A*78
2017-05-25T14:23:59 -->> $GNVTG,179.80,T,,M,0.00,N,0.00,K,A*24
2017-05-25T14:24:00 -->> $GNGGA,062403.000,3032.9020,N,10403.6101,E,1,5,1.60,561.3,M,-31.9,M,,*6D
2017-05-25T14:24:00 -->> $GPGSA,A,3,08,07,30,28,01,,,,,,,,1.86,1.60,0.95*01
2017-05-25T14:24:00 -->> $GLGSA,A,3,,,,,,,,,,,,,1.86,1.60,0.95*1A
2017-05-25T14:24:00 -->> $GPGSV,2,1,08,07,84,283,27,08,47,035,29,30,44,316,30,01,43,150,13*77
2017-05-25T14:24:00 -->> $GPGSV,2,2,08,50,33,120,,28,27,300,27,193,,,,09,,,23*4D
2017-05-25T14:24:00 -->> $GLGSV,1,1,00*65
2017-05-25T14:24:00 -->> $GNRMC,062403.000,A,3032.9020,N,10403.6101,E,0.00,179.80,250517,,,A*79
2017-05-25T14:24:00 -->> $GNVTG,179.80,T,,M,0.00,N,0.00,K,A*24
2017-05-25T14:24:01 -->> $GNGGA,062404.000,3032.9020,N,10403.6101,E,1,5,1.60,561.3,M,-31.9,M,,*6A
2017-05-25T14:24:01 -->> $GPGSA,A,3,08,07,30,28,01,,,,,,,,1.86,1.60,0.95*01
2017-05-25T14:24:01 -->> $GLGSA,A,3,,,,,,,,,,,,,1.86,1.60,0.95*1A
2017-05-25T14:24:01 -->> $GPGSV,2,1,08,07,84,283,27,08,47,035,29,30,44,316,30,01,43,150,14*70
2017-05-25T14:24:01 -->> $GPGSV,2,2,08,28,27,300,27,39,00,264,,193,,,,09,,,23*41
2017-05-25T14:24:01 -->> $GLGSV,1,1,00*65
2017-05-25T14:24:01 -->> $GNRMC,062404.000,A,3032.9020,N,10403.6101,E,0.00,179.80,250517,,,A*7E
2017-05-25T14:24:01 -->> $GNVTG,179.80,T,,M,0.00,N,0.00,K,A*24
2017-05-25T14:24:02 -->> $GNGGA,062405.000,3032.9020,N,10403.6101,E,1,5,1.60,561.3,M,-31.9,M,,*6B
2017-05-25T14:24:02 -->> $GPGSA,A,3,08,07,30,28,01,,,,,,,,1.86,1.60,0.95*01
2017-05-25T14:24:02 -->> $GLGSA,A,3,,,,,,,,,,,,,1.86,1.60,0.95*1A
2017-05-25T14:24:02 -->> $GPGSV,2,1,08,07,84,283,27,08,47,035,29,30,44,316,30,01,43,150,14*70
2017-05-25T14:24:02 -->> $GPGSV,2,2,08,28,27,300,27,39,00,264,,193,,,,09,,,23*41
2017-05-25T14:24:02 -->> $GLGSV,1,1,00*65
2017-05-25T14:24:02 -->> $GNRMC,062405.000,A,3032.9020,N,10403.6101,E,0.00,179.80,250517,,,A*7F
2017-05-25T14:24:02 -->> $GNVTG,179.80,T,,M,0.00,N,0.00,K,A*24
2017-05-25T14:24:03 -->> $GNGGA,062406.000,3032.9020,N,10403.6101,E,1,5,1.60,561.3,M,-31.9,M,,*68
2017-05-25T14:24:03 -->> $GPGSA,A,3,08,07,30,28,01,,,,,,,,1.85,1.60,0.95*02
2017-05-25T14:24:03 -->> $GLGSA,A,3,,,,,,,,,,,,,1.85,1.60,0.95*19
2017-05-25T14:24:03 -->> $GPGSV,2,1,08,07,84,283,27,08,47,035,29,30,44,316,30,01,43,150,14*70
2017-05-25T14:24:03 -->> $GPGSV,2,2,08,28,27,300,27,39,00,264,,193,,,,09,,,24*46
2017-05-25T14:24:03 -->> $GLGSV,1,1,00*65
2017-05-25T14:24:03 -->> $GNRMC,062406.000,A,3032.9020,N,10403.6101,E,0.00,179.80,250517,,,A*7C
2017-05-25T14:24:03 -->> $GNVTG,179.80,T,,M,0.00,N,0.00,K,A*24
2017-05-25T14:24:04 -->> $GNGGA,062407.000,3032.9020,N,10403.6101,E,1,5,1.60,561.3,M,-31.9,M,,*69
2017-05-25T14:24:04 -->> $GPGSA,A,3,08,07,30,28,01,,,,,,,,1.86,1.60,0.95*01
2017-05-25T14:24:04 -->> $GLGSA,A,3,,,,,,,,,,,,,1.86,1.60,0.95*1A
2017-05-25T14:24:04 -->> $GPGSV,2,1,08,07,84,283,27,08,47,035,27,30,44,316,30,01,43,150,16*7C
2017-05-25T14:24:04 -->> $GPGSV,2,2,08,28,27,300,27,39,00,264,,193,,,,09,,,24*46
2017-05-25T14:24:04 -->> $GLGSV,1,1,00*65
2017-05-25T14:24:04 -->> $GNRMC,062407.000,A,3032.9020,N,10403.6101,E,0.00,179.80,250517,,,A*7D
2017-05-25T14:24:04 -->> $GNVTG,179.80,T,,M,0.00,N,0.00,K,A*24
2017-05-25T14:24:05 -->> $GNGGA,062408.000,3032.9020,N,10403.6101,E,1,5,1.60,561.3,M,-31.9,M,,*66
2017-05-25T14:24:05 -->> $GPGSA,A,3,08,07,30,28,01,,,,,,,,1.86,1.60,0.95*01
2017-05-25T14:24:05 -->> $GLGSA,A,3,,,,,,,,,,,,,1.86,1.60,0.95*1A
2017-05-25T14:24:05 -->> $GPGSV,2,1,08,07,84,283,27,08,47,035,28,30,44,316,30,01,43,150,14*71
2017-05-25T14:24:05 -->> $GPGSV,2,2,08,28,27,300,27,39,00,264,,193,,,,09,,,24*46
2017-05-25T14:24:05 -->> $GLGSV,1,1,00*65
2017-05-25T14:24:05 -->> $GNRMC,062408.000,A,3032.9020,N,10403.6101,E,0.00,179.80,250517,,,A*72
2017-05-25T14:24:05 -->> $GNVTG,179.80,T,,M,0.00,N,0.00,K,A*24
2017-05-25T14:24:06 -->> $GNGGA,062409.000,3032.9020,N,10403.6101,E,1,5,1.60,561.3,M,-31.9,M,,*67
2017-05-25T14:24:06 -->> $GPGSA,A,3,08,07,30,28,01,,,,,,,,1.85,1.60,0.95*02
2017-05-25T14:24:06 -->> $GLGSA,A,3,,,,,,,,,,,,,1.85,1.60,0.95*19
2017-05-25T14:24:06 -->> $GPGSV,2,1,08,07,84,283,26,08,47,035,28,30,44,316,30,01,43,150,13*77
2017-05-25T14:24:06 -->> $GPGSV,2,2,08,28,27,300,27,39,00,264,,193,,,,09,,,24*46
2017-05-25T14:24:06 -->> $GLGSV,1,1,00*65
2017-05-25T14:24:06 -->> $GNRMC,062409.000,A,3032.9020,N,10403.6101,E,0.00,179.80,250517,,,A*73
2017-05-25T14:24:06 -->> $GNVTG,179.80,T,,M,0.00,N,0.00,K,A*24
2017-05-25T14:24:07 -->> $GNGGA,062410.000,3032.9020,N,10403.6101,E,1,5,1.60,561.3,M,-31.9,M,,*6F
2017-05-25T14:24:07 -->> $GPGSA,A,3,08,07,30,28,01,,,,,,,,1.86,1.60,0.95*01
2017-05-25T14:24:07 -->> $GLGSA,A,3,,,,,,,,,,,,,1.86,1.60,0.95*1A
2017-05-25T14:24:07 -->> $GPGSV,2,1,08,07,84,283,26,08,47,035,28,30,44,316,30,01,43,150,13*77
2017-05-25T14:24:07 -->> $GPGSV,2,2,08,28,27,300,27,39,00,264,,193,,,,09,,,24*46
2017-05-25T14:24:07 -->> $GLGSV,1,1,00*65
2017-05-25T14:24:07 -->> $GNRMC,062410.000,A,3032.9020,N,10403.6101,E,0.00,179.80,250517,,,A*7B
2017-05-25T14:24:07 -->> $GNVTG,179.80,T,,M,0.00,N,0.00,K,A*24
2017-05-25T14:24:08 -->> $GNGGA,062411.000,3032.9020,N,10403.6101,E,1,5,1.60,561.3,M,-31.9,M,,*6E
2017-05-25T14:24:08 -->> $GPGSA,A,3,08,07,30,28,01,,,,,,,,1.86,1.60,0.95*01
2017-05-25T14:24:08 -->> $GLGSA,A,3,,,,,,,,,,,,,1.86,1.60,0.95*1A
2017-05-25T14:24:08 -->> $GPGSV,2,1,08,07,84,283,26,08,47,035,28,30,44,316,30,01,43,150,13*77
2017-05-25T14:24:08 -->> $GPGSV,2,2,08,28,27,300,27,39,00,264,,193,,,,09,,,24*46
2017-05-25T14:24:08 -->> $GLGSV,1,1,00*65
2017-05-25T14:24:08 -->> $GNRMC,062411.000,A,3032.9020,N,10403.6101,E,0.00,179.80,250517,,,A*7A
2017-05-25T14:24:08 -->> $GNVTG,179.80,T,,M,0.00,N,0.00,K,A*24
2017-05-25T14:24:09 -->> $GNGGA,062412.000,3032.9020,N,10403.6101,E,1,5,1.60,561.3,M,-31.9,M,,*6D
2017-05-25T14:24:09 -->> $GPGSA,A,3,08,07,30,28,01,,,,,,,,1.85,1.60,0.95*02
2017-05-25T14:24:09 -->> $GLGSA,A,3,,,,,,,,,,,,,1.85,1.60,0.95*19
2017-05-25T14:24:09 -->> $GPGSV,2,1,08,07,84,283,26,08,47,035,28,30,44,316,30,01,43,150,14*70
