2017-05-25T21:54:21
2017-05-25T21:55:02 -->> ============================
2017-05-25T21:55:04 -->> $PMTK011,MTKGPS*08
2017-05-25T21:55:04 -->> $PMTK010,001*2E
2017-05-25T21:55:04 -->> $PMTK011,MTKGPS*08
2017-05-25T21:55:04 -->> $PMTK010,002*2D
2017-05-25T21:55:05 -->> $GNGGA,235942.800,,,,,0,0,,,M,,M,,*55
2017-05-25T21:55:05 -->> $GPGSA,A,1,,,,,,,,,,,,,,,*1E
2017-05-25T21:55:05 -->> $GLGSA,A,1,,,,,,,,,,,,,,,*02
2017-05-25T21:55:05 -->> $GPGSV,1,1,00*79
2017-05-25T21:55:05 -->> $GLGSV,1,1,00*65
2017-05-25T21:55:05 -->> $GNRMC,235942.800,V,,,,,0.00,0.00,050180,,,N*5C
2017-05-25T21:55:05 -->> $GNVTG,0.00,T,,M,0.00,N,0.00,K,N*2C
2017-05-25T21:55:06 -->> $GNGGA,235943.800,,,,,0,0,,,M,,M,,*54
2017-05-25T21:55:06 -->> $GPGSA,A,1,,,,,,,,,,,,,,,*1E
2017-05-25T21:55:06 -->> $GLGSA,A,1,,,,,,,,,,,,,,,*02
2017-05-25T21:55:06 -->> $GPGSV,1,1,01,05,,,35*7B
2017-05-25T21:55:06 -->> $GLGSV,1,1,00*65
2017-05-25T21:55:06 -->> $GNRMC,235943.800,V,,,,,0.00,0.00,050180,,,N*5D
2017-05-25T21:55:06 -->> $GNVTG,0.00,T,,M,0.00,N,0.00,K,N*2C
2017-05-25T21:55:07 -->> $GNGGA,235944.799,,,,,0,0,,,M,,M,,*5C
2017-05-25T21:55:07 -->> $GPGSA,A,1,,,,,,,,,,,,,,,*1E
2017-05-25T21:55:07 -->> $GLGSA,A,1,,,,,,,,,,,,,,,*02
2017-05-25T21:55:07 -->> $GPGSV,1,1,01,05,,,36*78
2017-05-25T21:55:07 -->> $GLGSV,1,1,00*65
2017-05-25T21:55:07 -->> $GNRMC,235944.799,V,,,,,0.00,0.00,050180,,,N*55
2017-05-25T21:55:07 -->> $GNVTG,0.00,T,,M,0.00,N,0.00,K,N*2C
2017-05-25T21:55:08 -->> $GNGGA,235945.799,,,,,0,0,,,M,,M,,*5D
2017-05-25T21:55:08 -->> $GPGSA,A,1,,,,,,,,,,,,,,,*1E
2017-05-25T21:55:08 -->> $GLGSA,A,1,,,,,,,,,,,,,,,*02
2017-05-25T21:55:08 -->> $GPGSV,1,1,01,05,,,37*79
2017-05-25T21:55:08 -->> $GLGSV,1,1,00*65
2017-05-25T21:55:08 -->> $GNRMC,235945.799,V,,,,,0.00,0.00,050180,,,N*54
2017-05-25T21:55:08 -->> $GNVTG,0.00,T,,M,0.00,N,0.00,K,N*2C
2017-05-25T21:55:09 -->> $GNGGA,235946.799,,,,,0,0,,,M,,M,,*5E
2017-05-25T21:55:09 -->> $GPGSA,A,1,,,,,,,,,,,,,,,*1E
2017-05-25T21:55:09 -->> $GLGSA,A,1,,,,,,,,,,,,,,,*02
2017-05-25T21:55:09 -->> $GPGSV,1,1,01,05,,,37*79
2017-05-25T21:55:09 -->> $GLGSV,1,1,00*65
2017-05-25T21:55:09 -->> $GNRMC,235946.799,V,,,,,0.00,0.00,050180,,,N*57
2017-05-25T21:55:09 -->> $GNVTG,0.00,T,,M,0.00,N,0.00,K,N*2C
2017-05-25T21:55:10 -->> $GNGGA,235947.799,,,,,0,0,,,M,,M,,*5F
2017-05-25T21:55:10 -->> $GPGSA,A,1,,,,,,,,,,,,,,,*1E
2017-05-25T21:55:10 -->> $GLGSA,A,1,,,,,,,,,,,,,,,*02
2017-05-25T21:55:10 -->> $GPGSV,1,1,02,05,,,38,12,,,32*77
2017-05-25T21:55:10 -->> $GLGSV,1,1,00*65
2017-05-25T21:55:10 -->> $GNRMC,235947.799,V,,,,,0.00,0.00,050180,,,N*56
2017-05-25T21:55:10 -->> $GNVTG,0.00,T,,M,0.00,N,0.00,K,N*2C
2017-05-25T21:55:11 -->> $GNGGA,235948.799,,,,,0,0,,,M,,M,,*50
2017-05-25T21:55:11 -->> $GPGSA,A,1,,,,,,,,,,,,,,,*1E
2017-05-25T21:55:11 -->> $GLGSA,A,1,,,,,,,,,,,,,,,*02
2017-05-25T21:55:11 -->> $GPGSV,1,1,03,05,,,38,29,,,27,12,,,33*79
2017-05-25T21:55:11 -->> $GLGSV,1,1,00*65
2017-05-25T21:55:11 -->> $GNRMC,235948.799,V,,,,,0.00,0.00,050180,,,N*59
2017-05-25T21:55:11 -->> $GNVTG,0.00,T,,M,0.00,N,0.00,K,N*2C
2017-05-25T21:55:12 -->> $GNGGA,235949.799,,,,,0,0,,,M,,M,,*51
2017-05-25T21:55:12 -->> $GPGSA,A,1,,,,,,,,,,,,,,,*1E
2017-05-25T21:55:12 -->> $GLGSA,A,1,,,,,,,,,,,,,,,*02
2017-05-25T21:55:12 -->> $GPGSV,1,1,04,05,,,38,29,,,30,12,,,33,02,,,33*7A
2017-05-25T21:55:12 -->> $GLGSV,1,1,00*65
2017-05-25T21:55:12 -->> $GNRMC,235949.799,V,,,,,0.00,0.00,050180,,,N*58
2017-05-25T21:55:12 -->> $GNVTG,0.00,T,,M,0.00,N,0.00,K,N*2C
2017-05-25T21:55:13 -->> $GNGGA,235950.800,,,,,0,0,,,M,,M,,*56
2017-05-25T21:55:13 -->> $GPGSA,A,1,,,,,,,,,,,,,,,*1E
2017-05-25T21:55:13 -->> $GLGSA,A,1,,,,,,,,,,,,,,,*02
2017-05-25T21:55:13 -->> $GPGSV,1,1,04,05,,,38,29,,,29,12,,,32,02,,,33*73
2017-05-25T21:55:13 -->> $GLGSV,1,1,00*65
2017-05-25T21:55:13 -->> $GNRMC,235950.800,V,,,,,0.00,0.00,050180,,,N*5F
2017-05-25T21:55:13 -->> $GNVTG,0.00,T,,M,0.00,N,0.00,K,N*2C
2017-05-25T21:55:14 -->> $GNGGA,235951.800,,,,,0,0,,,M,,M,,*57
2017-05-25T21:55:14 -->> $GPGSA,A,1,,,,,,,,,,,,,,,*1E
2017-05-25T21:55:14 -->> $GLGSA,A,1,,,,,,,,,,,,,,,*02
2017-05-25T21:55:14 -->> $GPGSV,1,1,04,05,,,38,29,,,30,12,,,33,02,,,34*7D
2017-05-25T21:55:14 -->> $GLGSV,1,1,00*65
2017-05-25T21:55:14 -->> $GNRMC,235951.800,V,,,,,0.00,0.00,050180,,,N*5E
2017-05-25T21:55:14 -->> $GNVTG,0.00,T,,M,0.00,N,0.00,K,N*2C
2017-05-25T21:55:15 -->> $GNGGA,235952.800,,,,,0,0,,,M,,M,,*54
2017-05-25T21:55:15 -->> $GPGSA,A,1,,,,,,,,,,,,,,,*1E
2017-05-25T21:55:15 -->> $GLGSA,A,1,,,,,,,,,,,,,,,*02
2017-05-25T21:55:15 -->> $GPGSV,1,1,04,05,,,38,29,,,29,12,,,33,02,,,34*75
2017-05-25T21:55:15 -->> $GLGSV,1,1,00*65
2017-05-25T21:55:15 -->> $GNRMC,235952.800,V,,,,,0.00,0.00,050180,,,N*5D
2017-05-25T21:55:15 -->> $GNVTG,0.00,T,,M,0.00,N,0.00,K,N*2C
2017-05-25T21:55:16 -->> $GNGGA,235953.800,,,,,0,0,,,M,,M,,*55
2017-05-25T21:55:16 -->> $GPGSA,A,1,,,,,,,,,,,,,,,*1E
2017-05-25T21:55:16 -->> $GLGSA,A,1,,,,,,,,,,,,,,,*02
2017-05-25T21:55:16 -->> $GPGSV,1,1,04,05,,,38,29,,,30,12,,,33,02,,,33*7A
2017-05-25T21:55:16 -->> $GLGSV,1,1,00*65
2017-05-25T21:55:16 -->> $GNRMC,235953.800,V,,,,,0.00,0.00,050180,,,N*5C
2017-05-25T21:55:16 -->> $GNVTG,0.00,T,,M,0.00,N,0.00,K,N*2C
2017-05-25T21:55:17 -->> $GNGGA,235954.800,,,,,0,0,,,M,,M,,*52
2017-05-25T21:55:17 -->> $GPGSA,A,1,,,,,,,,,,,,,,,*1E
2017-05-25T21:55:17 -->> $GLGSA,A,1,,,,,,,,,,,,,,,*02
2017-05-25T21:55:17 -->> $GPGSV,1,1,04,05,,,38,29,,,30,12,,,33,02,,,33*7A
2017-05-25T21:55:17 -->> $GLGSV,1,1,00*65
2017-05-25T21:55:17 -->> $GNRMC,235954.800,V,,,,,0.00,0.00,050180,,,N*5B
2017-05-25T21:55:17 -->> $GNVTG,0.00,T,,M,0.00,N,0.00,K,N*2C
2017-05-25T21:55:17 -->> $GNGGA,235955.599,,,,,0,0,,,M,,M,,*5E
2017-05-25T21:55:17 -->> $GPGSA,A,1,,,,,,,,,,,,,,,*1E
2017-05-25T21:55:17 -->> $GLGSA,A,1,,,,,,,,,,,,,,,*02
2017-05-25T21:55:17 -->> $GPGSV,1,1,04,05,,,38,29,,,30,12,,,33,02,,,33*7A
2017-05-25T21:55:17 -->> $GLGSV,1,1,00*65
2017-05-25T21:55:18 -->> $GNRMC,235955.599,V,,,,,0.00,0.00,050180,,,N*57
2017-05-25T21:55:18 -->> $GNVTG,0.00,T,,M,0.00,N,0.00,K,N*2C
2017-05-25T21:55:18 -->> $GNGGA,235956.599,,,,,0,0,,,M,,M,,*5D
2017-05-25T21:55:18 -->> $GPGSA,A,1,,,,,,,,,,,,,,,*1E
2017-05-25T21:55:18 -->> $GLGSA,A,1,,,,,,,,,,,,,,,*02
2017-05-25T21:55:18 -->> $GPGSV,1,1,04,05,,,38,29,,,30,12,,,33,02,,,34*7D
2017-05-25T21:55:18 -->> $GLGSV,1,1,00*65
2017-05-25T21:55:19 -->> $GNRMC,235956.599,V,,,,,0.00,0.00,050180,,,N*54
2017-05-25T21:55:19 -->> $GNVTG,0.00,T,,M,0.00,N,0.00,K,N*2C
2017-05-25T21:55:19 -->> $GNGGA,135520.092,,,,,0,0,,,M,,M,,*5D
2017-05-25T21:55:19 -->> $GPGSA,A,1,,,,,,,,,,,,,,,*1E
2017-05-25T21:55:19 -->> $GLGSA,A,1,,,,,,,,,,,,,,,*02
2017-05-25T21:55:19 -->> $GPGSV,1,1,04,05,,,38,29,,,30,12,,,33,02,,,34*7D
2017-05-25T21:55:19 -->> $GLGSV,1,1,00*65
2017-05-25T21:55:20 -->> $GNRMC,135520.092,V,,,,,0.00,0.00,100180,,,N*50
2017-05-25T21:55:20 -->> $GNVTG,0.00,T,,M,0.00,N,0.00,K,N*2C
2017-05-25T21:55:20 -->> $GNGGA,135521.092,,,,,0,0,,,M,,M,,*5C
2017-05-25T21:55:20 -->> $GPGSA,A,1,,,,,,,,,,,,,,,*1E
2017-05-25T21:55:20 -->> $GLGSA,A,1,,,,,,,,,,,,,,,*02
2017-05-25T21:55:20 -->> $GPGSV,1,1,04,05,,,38,29,,,30,12,,,33,02,,,34*7D
2017-05-25T21:55:20 -->> $GLGSV,1,1,00*65
2017-05-25T21:55:21 -->> $GNRMC,135521.092,V,,,,,0.00,0.00,100180,,,N*51
2017-05-25T21:55:21 -->> $GNVTG,0.00,T,,M,0.00,N,0.00,K,N*2C
2017-05-25T21:55:21 -->> $GNGGA,135522.092,,,,,0,0,,,M,,M,,*5F
2017-05-25T21:55:21 -->> $GPGSA,A,1,,,,,,,,,,,,,,,*1E
2017-05-25T21:55:21 -->> $GLGSA,A,1,,,,,,,,,,,,,,,*02
2017-05-25T21:55:21 -->> $GPGSV,1,1,04,05,,,38,29,,,30,12,,,33,02,,,33*7A
2017-05-25T21:55:21 -->> $GLGSV,1,1,00*65
2017-05-25T21:55:22 -->> $GNRMC,135522.092,V,,,,,0.00,0.00,100180,,,N*52
2017-05-25T21:55:22 -->> $GNVTG,0.00,T,,M,0.00,N,0.00,K,N*2C
2017-05-25T21:55:22 -->> $GNGGA,135523.092,,,,,0,0,,,M,,M,,*5E
2017-05-25T21:55:22 -->> $GPGSA,A,1,,,,,,,,,,,,,,,*1E
2017-05-25T21:55:22 -->> $GLGSA,A,1,,,,,,,,,,,,,,,*02
2017-05-25T21:55:22 -->> $GPGSV,1,1,04,05,,,38,29,,,30,12,,,33,02,,,33*7A
2017-05-25T21:55:22 -->> $GLGSV,1,1,00*65
2017-05-25T21:55:23 -->> $GNRMC,135523.092,V,,,,,0.00,0.00,100180,,,N*53
2017-05-25T21:55:23 -->> $GNVTG,0.00,T,,M,0.00,N,0.00,K,N*2C
2017-05-25T21:55:23 -->> $GNGGA,135524.092,,,,,0,0,,,M,,M,,*59
2017-05-25T21:55:23 -->> $GPGSA,A,1,,,,,,,,,,,,,,,*1E
2017-05-25T21:55:23 -->> $GLGSA,A,1,,,,,,,,,,,,,,,*02
2017-05-25T21:55:23 -->> $GPGSV,1,1,04,05,,,38,29,,,30,12,,,33,02,,,33*7A
2017-05-25T21:55:23 -->> $GLGSV,1,1,00*65
2017-05-25T21:55:24 -->> $GNRMC,135524.092,V,,,,,0.00,0.00,100180,,,N*54
2017-05-25T21:55:24 -->> $GNVTG,0.00,T,,M,0.00,N,0.00,K,N*2C
2017-05-25T21:55:24 -->> $GNGGA,135525.092,,,,,0,0,,,M,,M,,*58
2017-05-25T21:55:24 -->> $GPGSA,A,1,,,,,,,,,,,,,,,*1E
2017-05-25T21:55:24 -->> $GLGSA,A,1,,,,,,,,,,,,,,,*02
2017-05-25T21:55:24 -->> $GPGSV,1,1,04,05,,,38,29,,,30,12,,,33,02,,,33*7A
2017-05-25T21:55:24 -->> $GLGSV,1,1,00*65
2017-05-25T21:55:25 -->> $GNRMC,135525.092,V,,,,,0.00,0.00,100180,,,N*55
2017-05-25T21:55:25 -->> $GNVTG,0.00,T,,M,0.00,N,0.00,K,N*2C
2017-05-25T21:55:25 -->> $GNGGA,135526.092,,,,,0,0,,,M,,M,,*5B
2017-05-25T21:55:25 -->> $GPGSA,A,1,,,,,,,,,,,,,,,*1E
2017-05-25T21:55:25 -->> $GLGSA,A,1,,,,,,,,,,,,,,,*02
2017-05-25T21:55:25 -->> $GPGSV,1,1,04,05,,,38,29,,,30,12,,,33,02,,,33*7A
2017-05-25T21:55:25 -->> $GLGSV,1,1,00*65
2017-05-25T21:55:26 -->> $GNRMC,135526.092,V,,,,,0.00,0.00,100180,,,N*56
2017-05-25T21:55:26 -->> $GNVTG,0.00,T,,M,0.00,N,0.00,K,N*2C
2017-05-25T21:55:26 -->> $GNGGA,135527.092,,,,,0,0,,,M,,M,,*5A
2017-05-25T21:55:26 -->> $GPGSA,A,1,,,,,,,,,,,,,,,*1E
2017-05-25T21:55:26 -->> $GLGSA,A,1,,,,,,,,,,,,,,,*02
2017-05-25T21:55:26 -->> $GPGSV,1,1,04,05,,,38,29,,,30,12,,,33,02,,,33*7A
2017-05-25T21:55:26 -->> $GLGSV,1,1,00*65
2017-05-25T21:55:27 -->> $GNRMC,135527.092,V,,,,,0.00,0.00,100180,,,N*57
2017-05-25T21:55:27 -->> $GNVTG,0.00,T,,M,0.00,N,0.00,K,N*2C
2017-05-25T21:55:27 -->> $GNGGA,135528.092,,,,,0,0,,,M,,M,,*55
2017-05-25T21:55:27 -->> $GPGSA,A,1,,,,,,,,,,,,,,,*1E
2017-05-25T21:55:27 -->> $GLGSA,A,1,,,,,,,,,,,,,,,*02
2017-05-25T21:55:27 -->> $GPGSV,1,1,04,05,,,38,29,,,30,12,,,33,02,,,33*7A
2017-05-25T21:55:27 -->> $GLGSV,1,1,00*65
2017-05-25T21:55:28 -->> $GNRMC,135528.092,V,,,,,0.00,0.00,100180,,,N*58
2017-05-25T21:55:28 -->> $GNVTG,0.00,T,,M,0.00,N,0.00,K,N*2C
2017-05-25T21:55:28 -->> $GNGGA,135529.092,,,,,0,0,,,M,,M,,*54
2017-05-25T21:55:28 -->> $GPGSA,A,1,,,,,,,,,,,,,,,*1E
2017-05-25T21:55:28 -->> $GLGSA,A,1,,,,,,,,,,,,,,,*02
2017-05-25T21:55:28 -->> $GPGSV,2,1,05,05,,,38,29,,,30,12,,,32,02,,,33*79
2017-05-25T21:55:28 -->> $GPGSV,2,2,05,25,,,23*7A
2017-05-25T21:55:29 -->> $GLGSV,1,1,00*65
2017-05-25T21:55:29 -->> $GNRMC,135529.092,V,,,,,0.00,0.00,100180,,,N*59
2017-05-25T21:55:29 -->> $GNVTG,0.00,T,,M,0.00,N,0.00,K,N*2C
2017-05-25T21:55:29 -->> $GNGGA,135530.084,,,,,0,0,,,M,,M,,*5B
2017-05-25T21:55:29 -->> $GPGSA,A,1,,,,,,,,,,,,,,,*1E
2017-05-25T21:55:29 -->> $GLGSA,A,1,,,,,,,,,,,,,,,*02
2017-05-25T21:55:30 -->> $GPGSV,2,1,05,05,,,38,29,,,30,12,,,32,02,,,33*79
2017-05-25T21:55:30 -->> $GPGSV,2,2,05,25,,,24*7D
2017-05-25T21:55:30 -->> $GLGSV,1,1,00*65
2017-05-25T21:55:30 -->> $GNRMC,135530.084,V,,,,,0.13,0.00,250517,,,N*58
2017-05-25T21:55:30 -->> $GNVTG,0.00,T,,M,0.13,N,0.25,K,N*29
2017-05-25T21:55:30 -->> $GNGGA,135531.084,,,,,0,0,,,M,,M,,*5A
2017-05-25T21:55:30 -->> $GPGSA,A,1,,,,,,,,,,,,,,,*1E
2017-05-25T21:55:30 -->> $GLGSA,A,1,,,,,,,,,,,,,,,*02
2017-05-25T21:55:31 -->> $GPGSV,2,1,07,05,72,256,38,02,60,006,33,12,37,239,32,42,37,124,*7E
2017-05-25T21:55:31 -->> $GPGSV,2,2,07,29,13,319,30,193,,,,25,,,25*74
2017-05-25T21:55:31 -->> $GLGSV,1,1,00*65
2017-05-25T21:55:31 -->> $GNRMC,135531.084,V,,,,,1.40,297.50,250517,,,N*57
2017-05-25T21:55:31 -->> $GNVTG,297.50,T,,M,1.40,N,2.59,K,N*2E
2017-05-25T21:55:32 -->> $GNGGA,135533.000,,,,,0,0,,,M,,M,,*54
2017-05-25T21:55:32 -->> $GPGSA,A,1,,,,,,,,,,,,,,,*1E
2017-05-25T21:55:32 -->> $GLGSA,A,1,,,,,,,,,,,,,,,*02
2017-05-25T21:55:32 -->> $GPGSV,2,1,07,05,72,256,38,02,60,006,33,12,37,239,32,42,37,124,*7E
2017-05-25T21:55:32 -->> $GPGSV,2,2,07,29,13,319,30,193,,,,25,,,24*75
2017-05-25T21:55:32 -->> $GLGSV,1,1,00*65
2017-05-25T21:55:33 -->> $GNRMC,135533.000,V,,,,,1.11,290.02,250517,,,N*5D
2017-05-25T21:55:33 -->> $GNVTG,290.02,T,,M,1.11,N,2.06,K,N*20
2017-05-25T21:55:33 -->> $GNGGA,135534.000,,,,,0,0,,,M,,M,,*53
2017-05-25T21:55:33 -->> $GPGSA,A,1,,,,,,,,,,,,,,,*1E
2017-05-25T21:55:33 -->> $GLGSA,A,1,,,,,,,,,,,,,,,*02
2017-05-25T21:55:33 -->> $GPGSV,2,1,07,05,72,256,38,02,60,006,33,12,37,239,32,42,37,124,*7E
2017-05-25T21:55:33 -->> $GPGSV,2,2,07,29,13,319,30,193,,,,25,,,24*75
2017-05-25T21:55:33 -->> $GLGSV,1,1,00*65
2017-05-25T21:55:34 -->> $GNRMC,135534.000,V,,,,,0.92,287.77,250517,,,N*54
2017-05-25T21:55:34 -->> $GNVTG,287.77,T,,M,0.92,N,1.70,K,N*2C
2017-05-25T21:55:34 -->> $GNGGA,135535.000,,,,,0,0,,,M,,M,,*52
2017-05-25T21:55:34 -->> $GPGSA,A,1,,,,,,,,,,,,,,,*1E
2017-05-25T21:55:34 -->> $GLGSA,A,1,,,,,,,,,,,,,,,*02
2017-05-25T21:55:34 -->> $GPGSV,2,1,07,05,72,256,37,02,60,006,33,12,37,239,32,42,37,124,*71
2017-05-25T21:55:34 -->> $GPGSV,2,2,07,29,13,319,30,193,,,,25,,,24*75
2017-05-25T21:55:34 -->> $GLGSV,1,1,00*65
2017-05-25T21:55:35 -->> $GNRMC,135535.000,V,,,,,0.81,283.67,250517,,,N*52
2017-05-25T21:55:35 -->> $GNVTG,283.67,T,,M,0.81,N,1.49,K,N*21
2017-05-25T21:55:35 -->> $GNGGA,135536.000,3030.9426,N,10404.3006,E,1,4,2.32,551.5,M,-31.9,M,,*6D
2017-05-25T21:55:35 -->> $GPGSA,A,3,05,29,12,02,,,,,,,,,2.52,2.32,0.99*0B
2017-05-25T21:55:35 -->> $GLGSA,A,3,,,,,,,,,,,,,2.52,2.32,0.99*18
2017-05-25T21:55:36 -->> $GPGSV,2,1,07,05,72,256,37,02,60,006,33,12,37,239,32,42,37,124,*71
2017-05-25T21:55:36 -->> $GPGSV,2,2,07,29,13,319,30,193,,,,25,,,24*75
2017-05-25T21:55:36 -->> $GLGSV,1,1,00*65
2017-05-25T21:55:36 -->> $GNRMC,135536.000,A,3030.9426,N,10404.3006,E,0.00,283.67,250517,,,A*76
2017-05-25T21:55:36 -->> $GNVTG,283.67,T,,M,0.00,N,0.00,K,A*2B
2017-05-25T21:55:36 -->> $GNGGA,135537.000,3030.9427,N,10404.3000,E,1,4,2.32,551.8,M,-31.9,M,,*66
2017-05-25T21:55:36 -->> $GPGSA,A,3,05,29,12,02,,,,,,,,,2.52,2.32,0.99*0B
2017-05-25T21:55:36 -->> $GLGSA,A,3,,,,,,,,,,,,,2.52,2.32,0.99*18
2017-05-25T21:55:37 -->> $GPGSV,2,1,07,05,72,256,37,02,60,006,33,12,37,239,32,42,37,124,*71
2017-05-25T21:55:37 -->> $GPGSV,2,2,07,29,13,319,30,193,,,,25,,,24*75
2017-05-25T21:55:37 -->> $GLGSV,1,1,00*65
2017-05-25T21:55:37 -->> $GNRMC,135537.000,A,3030.9427,N,10404.3000,E,0.00,283.67,250517,,,A*70
2017-05-25T21:55:37 -->> $GNVTG,283.67,T,,M,0.00,N,0.00,K,A*2B
2017-05-25T21:55:37 -->> $GNGGA,135538.000,3030.9425,N,10404.3003,E,1,4,2.31,550.6,M,-31.9,M,,*64
2017-05-25T21:55:37 -->> $GPGSA,A,3,05,29,12,02,,,,,,,,,2.52,2.31,0.99*08
2017-05-25T21:55:37 -->> $GLGSA,A,3,,,,,,,,,,,,,2.52,2.31,0.99*1B
2017-05-25T21:55:38 -->> $GPGSV,2,1,07,05,72,256,37,02,60,006,33,12,37,239,32,42,37,124,*71
2017-05-25T21:55:38 -->> $GPGSV,2,2,07,29,13,319,30,193,,,,25,,,24*75
2017-05-25T21:55:38 -->> $GLGSV,1,1,00*65
2017-05-25T21:55:38 -->> $GNRMC,135538.000,A,3030.9425,N,10404.3003,E,0.00,283.67,250517,,,A*7E
2017-05-25T21:55:38 -->> $GNVTG,283.67,T,,M,0.00,N,0.00,K,A*2B
2017-05-25T21:55:38 -->> $GNGGA,135539.000,3030.9425,N,10404.3003,E,1,4,2.31,550.6,M,-31.9,M,,*65
2017-05-25T21:55:38 -->> $GPGSA,A,3,05,29,12,02,,,,,,,,,2.52,2.31,0.99*08
2017-05-25T21:55:38 -->> $GLGSA,A,3,,,,,,,,,,,,,2.52,2.31,0.99*1B
2017-05-25T21:55:39 -->> $GPGSV,2,1,07,05,72,256,37,02,60,006,33,12,37,239,31,42,37,124,*72
2017-05-25T21:55:39 -->> $GPGSV,2,2,07,29,13,319,30,193,,,,25,,,24*75
2017-05-25T21:55:39 -->> $GLGSV,1,1,00*65
2017-05-25T21:55:39 -->> $GNRMC,135539.000,A,3030.9425,N,10404.3003,E,0.00,283.67,250517,,,A*7F
2017-05-25T21:55:39 -->> $GNVTG,283.67,T,,M,0.00,N,0.00,K,A*2B
2017-05-25T21:55:39 -->> $GNGGA,135540.000,3030.9425,N,10404.3003,E,1,4,2.32,550.6,M,-31.9,M,,*68
2017-05-25T21:55:39 -->> $GPGSA,A,3,05,29,12,02,,,,,,,,,2.52,2.32,0.99*0B
2017-05-25T21:55:39 -->> $GLGSA,A,3,,,,,,,,,,,,,2.52,2.32,0.99*18
2017-05-25T21:55:40 -->> $GPGSV,2,1,07,05,72,256,37,02,60,006,33,12,37,239,31,42,37,124,*72
2017-05-25T21:55:40 -->> $GPGSV,2,2,07,29,13,319,30,193,,,,25,,,24*75
2017-05-25T21:55:40 -->> $GLGSV,1,1,00*65
2017-05-25T21:55:40 -->> $GNRMC,135540.000,A,3030.9425,N,10404.3003,E,0.00,283.67,250517,,,A*71
2017-05-25T21:55:40 -->> $GNVTG,283.67,T,,M,0.00,N,0.00,K,A*2B
2017-05-25T21:55:40 -->> $GNGGA,135541.000,3030.9425,N,10404.3003,E,1,4,2.31,550.6,M,-31.9,M,,*6A
2017-05-25T21:55:40 -->> $GPGSA,A,3,05,29,12,02,,,,,,,,,2.52,2.31,0.99*08
2017-05-25T21:55:40 -->> $GLGSA,A,3,,,,,,,,,,,,,2.52,2.31,0.99*1B
2017-05-25T21:55:41 -->> $GPGSV,2,1,07,05,72,256,37,02,60,006,33,12,37,239,31,44,35,237,*77
2017-05-25T21:55:41 -->> $GPGSV,2,2,07,29,13,319,30,193,,,,25,,,24*75
2017-05-25T21:55:41 -->> $GLGSV,1,1,00*65
2017-05-25T21:55:41 -->> $GNRMC,135541.000,A,3030.9425,N,10404.3003,E,0.00,283.67,250517,,,A*70
2017-05-25T21:55:41 -->> $GNVTG,283.67,T,,M,0.00,N,0.00,K,A*2B
2017-05-25T21:55:41 -->> $GNGGA,135542.000,3030.9425,N,10404.3003,E,1,4,2.31,550.6,M,-31.9,M,,*69
2017-05-25T21:55:41 -->> $GPGSA,A,3,05,29,12,02,,,,,,,,,2.52,2.31,0.99*08
2017-05-25T21:55:41 -->> $GLGSA,A,3,,,,,,,,,,,,,2.52,2.31,0.99*1B
2017-05-25T21:55:42 -->> $GPGSV,2,1,07,05,72,256,37,02,60,006,33,12,37,239,31,44,35,237,*77
2017-05-25T21:55:42 -->> $GPGSV,2,2,07,29,13,319,30,193,,,,25,,,24*75
2017-05-25T21:55:42 -->> $GLGSV,1,1,00*65
2017-05-25T21:55:42 -->> $GNRMC,135542.000,A,3030.9425,N,10404.3003,E,0.00,283.67,250517,,,A*73
2017-05-25T21:55:42 -->> $GNVTG,283.67,T,,M,0.00,N,0.00,K,A*2B
2017-05-25T21:55:42 -->> $GNGGA,135543.000,3030.9425,N,10404.3003,E,1,4,2.31,550.6,M,-31.9,M,,*68
2017-05-25T21:55:42 -->> $GPGSA,A,3,05,29,12,02,,,,,,,,,2.52,2.31,0.99*08
2017-05-25T21:55:42 -->> $GLGSA,A,3,,,,,,,,,,,,,2.52,2.31,0.99*1B
2017-05-25T21:55:43 -->> $GPGSV,2,1,08,05,72,256,37,02,60,006,33,12,37,239,31,44,35,237,*78
2017-05-25T21:55:43 -->> $GPGSV,2,2,08,29,13,319,30,17,08,136,,193,,,,25,,,24*40
2017-05-25T21:55:43 -->> $GLGSV,1,1,00*65
2017-05-25T21:55:43 -->> $GNRMC,135543.000,A,3030.9425,N,10404.3003,E,0.00,283.67,250517,,,A*72
2017-05-25T21:55:43 -->> $GNVTG,283.67,T,,M,0.00,N,0.00,K,A*2B
2017-05-25T21:55:43 -->> $GNGGA,135544.000,3030.9425,N,10404.3003,E,1,4,2.31,550.6,M,-31.9,M,,*6F
2017-05-25T21:55:43 -->> $GPGSA,A,3,05,29,12,02,,,,,,,,,2.52,2.31,0.99*08
2017-05-25T21:55:43 -->> $GLGSA,A,3,,,,,,,,,,,,,2.52,2.31,0.99*1B
2017-05-25T21:55:44 -->> $GPGSV,2,1,08,05,72,256,37,02,60,006,33,12,37,239,31,44,35,237,*78
2017-05-25T21:55:44 -->> $GPGSV,2,2,08,29,13,319,30,17,08,136,,193,,,,25,,,24*40
2017-05-25T21:55:44 -->> $GLGSV,1,1,00*65
2017-05-25T21:55:44 -->> $GNRMC,135544.000,A,3030.9425,N,10404.3003,E,0.00,283.67,250517,,,A*75
2017-05-25T21:55:44 -->> $GNVTG,283.67,T,,M,0.00,N,0.00,K,A*2B
2017-05-25T21:55:44 -->> $GNGGA,135545.000,3030.9425,N,10404.3003,E,1,4,2.31,550.6,M,-31.9,M,,*6E
2017-05-25T21:55:44 -->> $GPGSA,A,3,05,29,12,02,,,,,,,,,2.52,2.31,0.99*08
2017-05-25T21:55:44 -->> $GLGSA,A,3,,,,,,,,,,,,,2.52,2.31,0.99*1B
2017-05-25T21:55:45 -->> $GPGSV,2,1,08,05,72,256,37,02,60,006,33,12,37,239,31,44,35,237,*78
2017-05-25T21:55:45 -->> $GPGSV,2,2,08,29,13,319,30,17,08,136,,193,,,,25,,,24*40
2017-05-25T21:55:45 -->> $GLGSV,1,1,00*65
2017-05-25T21:55:45 -->> $GNRMC,135545.000,A,3030.9425,N,10404.3003,E,0.00,283.67,250517,,,A*74
2017-05-25T21:55:45 -->> $GNVTG,283.67,T,,M,0.00,N,0.00,K,A*2B
2017-05-25T21:55:45 -->> $GNGGA,135546.000,3030.9425,N,10404.3003,E,1,4,2.31,550.6,M,-31.9,M,,*6D
2017-05-25T21:55:45 -->> $GPGSA,A,3,05,29,12,02,,,,,,,,,2.52,2.31,0.99*08
2017-05-25T21:55:45 -->> $GLGSA,A,3,,,,,,,,,,,,,2.52,2.31,0.99*1B
2017-05-25T21:55:46 -->> $GPGSV,2,1,08,05,72,256,37,02,60,006,33,12,37,239,31,44,35,237,*78
2017-05-25T21:55:46 -->> $GPGSV,2,2,08,29,13,319,30,17,08,136,,193,,,,25,,,24*40
2017-05-25T21:55:46 -->> $GLGSV,1,1,00*65
2017-05-25T21:55:46 -->> $GNRMC,135546.000,A,3030.9425,N,10404.3003,E,0.00,283.67,250517,,,A*77
2017-05-25T21:55:46 -->> $GNVTG,283.67,T,,M,0.00,N,0.00,K,A*2B
2017-05-25T21:55:46 -->> $GNGGA,135547.000,3030.9425,N,10404.3003,E,1,4,2.31,550.6,M,-31.9,M,,*6C
2017-05-25T21:55:46 -->> $GPGSA,A,3,05,29,12,02,,,,,,,,,2.52,2.31,0.99*08
2017-05-25T21:55:46 -->> $GLGSA,A,3,,,,,,,,,,,,,2.52,2.31,0.99*1B
2017-05-25T21:55:47 -->> $GPGSV,2,1,08,05,72,256,37,02,60,006,33,12,37,239,31,44,35,237,*78
2017-05-25T21:55:47 -->> $GPGSV,2,2,08,29,13,319,30,17,08,136,,193,,,,25,,,24*40
2017-05-25T21:55:47 -->> $GLGSV,1,1,00*65
2017-05-25T21:55:47 -->> $GNRMC,135547.000,A,3030.9425,N,10404.3003,E,0.00,283.67,250517,,,A*76
2017-05-25T21:55:47 -->> $GNVTG,283.67,T,,M,0.00,N,0.00,K,A*2B
2017-05-25T21:55:47 -->> $GNGGA,135548.000,3030.9425,N,10404.3003,E,1,4,2.31,550.6,M,-31.9,M,,*63
2017-05-25T21:55:47 -->> $GPGSA,A,3,05,29,12,02,,,,,,,,,2.52,2.31,0.99*08
2017-05-25T21:55:47 -->> $GLGSA,A,3,,,,,,,,,,,,,2.52,2.31,0.99*1B
2017-05-25T21:55:48 -->> $GPGSV,2,1,08,05,72,256,37,02,60,006,33,12,37,239,31,44,35,237,*78
2017-05-25T21:55:48 -->> $GPGSV,2,2,08,29,13,319,30,17,08,136,,193,,,,25,,,24*40
2017-05-25T21:55:48 -->> $GLGSV,1,1,00*65
2017-05-25T21:55:48 -->> $GNRMC,135548.000,A,3030.9425,N,10404.3003,E,0.00,283.67,250517,,,A*79
2017-05-25T21:55:48 -->> $GNVTG,283.67,T,,M,0.00,N,0.00,K,A*2B
2017-05-25T21:55:48 -->> $GNGGA,135549.000,3030.9425,N,10404.3003,E,1,4,2.31,550.6,M,-31.9,M,,*62
2017-05-25T21:55:48 -->> $GPGSA,A,3,05,29,12,02,,,,,,,,,2.52,2.31,0.99*08
2017-05-25T21:55:48 -->> $GLGSA,A,3,,,,,,,,,,,,,2.52,2.31,0.99*1B
2017-05-25T21:55:49 -->> $GPGSV,2,1,08,05,72,256,37,02,60,006,32,12,37,239,31,44,35,237,*79
2017-05-25T21:55:49 -->> $GPGSV,2,2,08,29,13,319,30,17,08,136,,193,,,,25,,,24*40
2017-05-25T21:55:49 -->> $GLGSV,1,1,00*65
2017-05-25T21:55:49 -->> $GNRMC,135549.000,A,3030.9425,N,10404.3003,E,0.00,283.67,250517,,,A*78
2017-05-25T21:55:49 -->> $GNVTG,283.67,T,,M,0.00,N,0.00,K,A*2B
2017-05-25T21:55:49 -->> $GNGGA,135550.000,3030.9425,N,10404.3003,E,1,4,2.31,550.6,M,-31.9,M,,*6A
2017-05-25T21:55:49 -->> $GPGSA,A,3,05,29,12,02,,,,,,,,,2.51,2.31,0.99*0B
2017-05-25T21:55:49 -->> $GLGSA,A,3,,,,,,,,,,,,,2.51,2.31,0.99*18
2017-05-25T21:55:50 -->> $GPGSV,2,1,08,05,72,256,37,02,60,006,32,12,37,239,31,40,34,238,*73
2017-05-25T21:55:50 -->> $GPGSV,2,2,08,29,13,319,30,17,08,136,,193,,,,25,,,24*40
2017-05-25T21:55:50 -->> $GLGSV,1,1,00*65
2017-05-25T21:55:50 -->> $GNRMC,135550.000,A,3030.9425,N,10404.3003,E,0.00,283.67,250517,,,A*70
2017-05-25T21:55:50 -->> $GNVTG,283.67,T,,M,0.00,N,0.00,K,A*2B
2017-05-25T21:55:50 -->> $GNGGA,135551.000,3030.9425,N,10404.3003,E,1,4,2.31,550.6,M,-31.9,M,,*6B
2017-05-25T21:55:50 -->> $GPGSA,A,3,05,29,12,02,,,,,,,,,2.52,2.31,0.99*08
2017-05-25T21:55:50 -->> $GLGSA,A,3,,,,,,,,,,,,,2.52,2.31,0.99*1B
2017-05-25T21:55:51 -->> $GPGSV,2,1,08,05,72,256,37,02,60,006,32,12,37,239,31,40,34,238,*73
2017-05-25T21:55:51 -->> $GPGSV,2,2,08,29,13,319,30,17,08,136,,193,,,26,25,,,24*44
2017-05-25T21:55:51 -->> $GLGSV,1,1,00*65
2017-05-25T21:55:51 -->> $GNRMC,135551.000,A,3030.9425,N,10404.3003,E,0.00,283.67,250517,,,A*71
2017-05-25T21:55:51 -->> $GNVTG,283.67,T,,M,0.00,N,0.00,K,A*2B
2017-05-25T21:55:51 -->> $GNGGA,135552.000,3030.9425,N,10404.3003,E,1,4,2.31,550.6,M,-31.9,M,,*68
2017-05-25T21:55:51 -->> $GPGSA,A,3,05,29,12,02,,,,,,,,,2.51,2.31,0.99*0B
2017-05-25T21:55:51 -->> $GLGSA,A,3,,,,,,,,,,,,,2.51,2.31,0.99*18
2017-05-25T21:55:52 -->> $GPGSV,2,1,08,05,72,256,37,02,60,006,32,12,37,239,31,40,34,238,*73
2017-05-25T21:55:52 -->> $GPGSV,2,2,08,29,13,319,30,17,08,136,,193,,,26,25,,,24*44
2017-05-25T21:55:52 -->> $GLGSV,1,1,00*65
2017-05-25T21:55:52 -->> $GNRMC,135552.000,A,3030.9425,N,10404.3003,E,0.00,283.67,250517,,,A*72
2017-05-25T21:55:52 -->> $GNVTG,283.67,T,,M,0.00,N,0.00,K,A*2B
2017-05-25T21:55:52 -->> $GNGGA,135553.000,3030.9425,N,10404.3003,E,1,4,2.31,550.6,M,-31.9,M,,*69
2017-05-25T21:55:52 -->> $GPGSA,A,3,05,29,12,02,,,,,,,,,2.52,2.31,0.99*08
2017-05-25T21:55:52 -->> $GLGSA,A,3,,,,,,,,,,,,,2.52,2.31,0.99*1B
2017-05-25T21:55:53 -->> $GPGSV,2,1,08,05,72,256,37,02,60,006,32,12,37,239,31,40,34,238,*73
2017-05-25T21:55:53 -->> $GPGSV,2,2,08,29,13,319,30,17,08,136,,193,,,25,25,,,24*47
2017-05-25T21:55:53 -->> $GLGSV,1,1,00*65
2017-05-25T21:55:53 -->> $GNRMC,135553.000,A,3030.9425,N,10404.3003,E,0.00,283.67,250517,,,A*73
2017-05-25T21:55:53 -->> $GNVTG,283.67,T,,M,0.00,N,0.00,K,A*2B
2017-05-25T21:55:53 -->> $GNGGA,135554.000,3030.9425,N,10404.3003,E,1,4,2.31,550.6,M,-31.9,M,,*6E
2017-05-25T21:55:53 -->> $GPGSA,A,3,05,29,12,02,,,,,,,,,2.51,2.31,0.99*0B
2017-05-25T21:55:53 -->> $GLGSA,A,3,,,,,,,,,,,,,2.51,2.31,0.99*18
2017-05-25T21:55:54 -->> $GPGSV,2,1,08,05,72,256,37,02,60,006,32,12,37,239,31,40,34,238,*73
2017-05-25T21:55:54 -->> $GPGSV,2,2,08,29,13,319,30,17,08,136,,193,,,25,25,,,24*47
2017-05-25T21:55:54 -->> $GLGSV,1,1,00*65
2017-05-25T21:55:54 -->> $GNRMC,135554.000,A,3030.9425,N,10404.3003,E,0.00,283.67,250517,,,A*74
2017-05-25T21:55:54 -->> $GNVTG,283.67,T,,M,0.00,N,0.00,K,A*2B
2017-05-25T21:55:54 -->> $GNGGA,135555.000,3030.9425,N,10404.3003,E,1,4,2.31,550.6,M,-31.9,M,,*6F
2017-05-25T21:55:54 -->> $GPGSA,A,3,05,29,12,02,,,,,,,,,2.51,2.31,0.99*0B
2017-05-25T21:55:54 -->> $GLGSA,A,3,,,,,,,,,,,,,2.51,2.31,0.99*18
2017-05-25T21:55:55 -->> $GPGSV,2,1,08,05,72,256,37,02,60,006,32,12,37,239,31,40,34,238,*73
2017-05-25T21:55:55 -->> $GPGSV,2,2,08,29,13,319,30,17,08,136,,193,,,27,25,,,24*45
2017-05-25T21:55:55 -->> $GLGSV,1,1,00*65
2017-05-25T21:55:55 -->> $GNRMC,135555.000,A,3030.9425,N,10404.3003,E,0.00,283.67,250517,,,A*75
2017-05-25T21:55:55 -->> $GNVTG,283.67,T,,M,0.00,N,0.00,K,A*2B
2017-05-25T21:55:55 -->> $GNGGA,135556.000,3030.9425,N,10404.3003,E,1,4,2.31,550.6,M,-31.9,M,,*6C
2017-05-25T21:55:55 -->> $GPGSA,A,3,05,29,12,02,,,,,,,,,2.51,2.31,0.99*0B
2017-05-25T21:55:55 -->> $GLGSA,A,3,,,,,,,,,,,,,2.51,2.31,0.99*18
2017-05-25T21:55:56 -->> $GPGSV,2,1,08,05,72,256,37,02,60,006,32,12,37,239,31,40,34,238,*73
2017-05-25T21:55:56 -->> $GPGSV,2,2,08,29,13,319,30,17,08,136,,193,,,25,25,,,24*47
2017-05-25T21:55:56 -->> $GLGSV,1,1,00*65
2017-05-25T21:55:56 -->> $GNRMC,135556.000,A,3030.9425,N,10404.3003,E,0.00,283.67,250517,,,A*76
2017-05-25T21:55:56 -->> $GNVTG,283.67,T,,M,0.00,N,0.00,K,A*2B
2017-05-25T21:55:56 -->> $GNGGA,135557.000,3030.9425,N,10404.3003,E,1,4,2.31,550.6,M,-31.9,M,,*6D
2017-05-25T21:55:56 -->> $GPGSA,A,3,05,29,12,02,,,,,,,,,2.51,2.31,0.99*0B
2017-05-25T21:55:56 -->> $GLGSA,A,3,,,,,,,,,,,,,2.51,2.31,0.99*18
2017-05-25T21:55:57 -->> $GPGSV,2,1,08,05,72,256,37,02,60,006,32,12,37,239,31,40,34,238,*73
2017-05-25T21:55:57 -->> $GPGSV,2,2,08,29,13,319,30,17,08,136,,193,,,25,25,,,24*47
2017-05-25T21:55:57 -->> $GLGSV,1,1,00*65
2017-05-25T21:55:57 -->> $GNRMC,135557.000,A,3030.9425,N,10404.3003,E,0.00,283.67,250517,,,A*77
2017-05-25T21:55:57 -->> $GNVTG,283.67,T,,M,0.00,N,0.00,K,A*2B
2017-05-25T21:55:57 -->> $GNGGA,135558.000,3030.9425,N,10404.3003,E,1,4,2.31,550.6,M,-31.9,M,,*62
2017-05-25T21:55:57 -->> $GPGSA,A,3,05,29,12,02,,,,,,,,,2.51,2.31,0.99*0B
2017-05-25T21:55:57 -->> $GLGSA,A,3,,,,,,,,,,,,,2.51,2.31,0.99*18
2017-05-25T21:55:58 -->> $GPGSV,2,1,08,05,72,256,37,02,60,006,32,12,37,239,31,40,34,238,*73
2017-05-25T21:55:58 -->> $GPGSV,2,2,08,29,13,319,30,17,08,136,,193,,,25,25,,,24*47
2017-05-25T21:55:58 -->> $GLGSV,1,1,00*65
2017-05-25T21:55:58 -->> $GNRMC,135558.000,A,3030.9425,N,10404.3003,E,0.00,283.67,250517,,,A*78
2017-05-25T21:55:58 -->> $GNVTG,283.67,T,,M,0.00,N,0.00,K,A*2B
2017-05-25T21:55:58 -->> $GNGGA,135559.000,3030.9425,N,10404.3003,E,1,4,2.31,550.6,M,-31.9,M,,*63
2017-05-25T21:55:58 -->> $GPGSA,A,3,05,29,12,02,,,,,,,,,2.51,2.31,0.99*0B
2017-05-25T21:55:58 -->> $GLGSA,A,3,,,,,,,,,,,,,2.51,2.31,0.99*18
2017-05-25T21:55:59 -->> $GPGSV,2,1,08,05,72,256,37,02,60,006,33,12,37,239,31,40,34,238,27*77
2017-05-25T21:55:59 -->> $GPGSV,2,2,08,29,13,319,30,17,08,136,,193,,,25,25,,,24*47
2017-05-25T21:55:59 -->> $GLGSV,1,1,00*65
2017-05-25T21:55:59 -->> $GNRMC,135559.000,A,3030.9425,N,10404.3003,E,0.00,283.67,250517,,,A*79
2017-05-25T21:55:59 -->> $GNVTG,283.67,T,,M,0.00,N,0.00,K,A*2B
2017-05-25T21:55:59 -->> $GNGGA,135600.000,3030.9425,N,10404.3003,E,1,4,2.31,550.6,M,-31.9,M,,*6C
2017-05-25T21:55:59 -->> $GPGSA,A,3,05,29,12,02,,,,,,,,,2.51,2.31,0.99*0B
2017-05-25T21:55:59 -->> $GLGSA,A,3,,,,,,,,,,,,,2.51,2.31,0.99*18
2017-05-25T21:56:00 -->> $GPGSV,2,1,08,05,72,256,37,02,60,006,33,12,37,239,31,40,34,238,27*77
2017-05-25T21:56:00 -->> $GPGSV,2,2,08,29,13,319,30,17,08,136,,193,,,25,25,,,24*47
2017-05-25T21:56:00 -->> $GLGSV,1,1,00*65
2017-05-25T21:56:00 -->> $GNRMC,135600.000,A,3030.9425,N,10404.3003,E,0.00,283.67,250517,,,A*76
2017-05-25T21:56:00 -->> $GNVTG,283.67,T,,M,0.00,N,0.00,K,A*2B
2017-05-25T21:56:00 -->> $GNGGA,135601.000,3030.9425,N,10404.3003,E,1,4,2.31,550.6,M,-31.9,M,,*6D
2017-05-25T21:56:00 -->> $GPGSA,A,3,05,29,12,02,,,,,,,,,2.51,2.31,0.99*0B
2017-05-25T21:56:00 -->> $GLGSA,A,3,,,,,,,,,,,,,2.51,2.31,0.99*18
2017-05-25T21:56:01 -->> $GPGSV,2,1,08,05,72,256,36,02,60,006,33,12,37,239,31,40,34,238,27*76
2017-05-25T21:56:01 -->> $GPGSV,2,2,08,29,13,319,30,17,08,136,,193,,,25,25,,,24*47
2017-05-25T21:56:01 -->> $GLGSV,1,1,00*65
2017-05-25T21:56:01 -->> $GNRMC,135601.000,A,3030.9425,N,10404.3003,E,0.00,283.67,250517,,,A*77
2017-05-25T21:56:01 -->> $GNVTG,283.67,T,,M,0.00,N,0.00,K,A*2B
2017-05-25T21:56:01 -->> $GNGGA,135602.000,3030.9425,N,10404.3003,E,1,4,2.31,550.6,M,-31.9,M,,*6E
2017-05-25T21:56:01 -->> $GPGSA,A,3,05,29,12,02,,,,,,,,,2.51,2.31,0.99*0B
2017-05-25T21:56:01 -->> $GLGSA,A,3,,,,,,,,,,,,,2.51,2.31,0.99*18
2017-05-25T21:56:02 -->> $GPGSV,2,1,08,05,72,256,36,02,60,006,33,12,37,239,31,40,34,238,27*76
2017-05-25T21:56:02 -->> $GPGSV,2,2,08,29,13,319,30,17,08,136,,193,,,26,25,,,24*44
2017-05-25T21:56:02 -->> $GLGSV,1,1,00*65
2017-05-25T21:56:02 -->> $GNRMC,135602.000,A,3030.9425,N,10404.3003,E,0.00,283.67,250517,,,A*74
2017-05-25T21:56:02 -->> $GNVTG,283.67,T,,M,0.00,N,0.00,K,A*2B
2017-05-25T21:56:02 -->> $GNGGA,135603.000,3030.9425,N,10404.3003,E,1,4,2.31,550.6,M,-31.9,M,,*6F
2017-05-25T21:56:02 -->> $GPGSA,A,3,05,29,12,02,,,,,,,,,2.51,2.31,0.99*0B
2017-05-25T21:56:02 -->> $GLGSA,A,3,,,,,,,,,,,,,2.51,2.31,0.99*18
2017-05-25T21:56:03 -->> $GPGSV,2,1,08,05,72,256,36,02,60,006,33,12,37,239,31,40,34,238,27*76
2017-05-25T21:56:03 -->> $GPGSV,2,2,08,29,13,319,30,17,08,136,,193,,,26,25,,,24*44
2017-05-25T21:56:03 -->> $GLGSV,1,1,00*65
2017-05-25T21:56:03 -->> $GNRMC,135603.000,A,3030.9425,N,10404.3003,E,0.00,283.67,250517,,,A*75
2017-05-25T21:56:03 -->> $GNVTG,283.67,T,,M,0.00,N,0.00,K,A*2B
2017-05-25T21:56:03 -->> $GNGGA,135604.000,3030.9425,N,10404.3003,E,1,4,2.31,550.6,M,-31.9,M,,*68
2017-05-25T21:56:03 -->> $GPGSA,A,3,05,29,12,02,,,,,,,,,2.51,2.31,0.99*0B
2017-05-25T21:56:03 -->> $GLGSA,A,3,,,,,,,,,,,,,2.51,2.31,0.99*18
2017-05-25T21:56:04 -->> $GPGSV,2,1,08,05,72,256,36,02,60,006,33,12,37,239,32,40,34,238,27*75
2017-05-25T21:56:04 -->> $GPGSV,2,2,08,29,13,319,30,17,08,136,,193,,,26,25,,,24*44
2017-05-25T21:56:04 -->> $GLGSV,1,1,00*65
2017-05-25T21:56:04 -->> $GNRMC,135604.000,A,3030.9425,N,10404.3003,E,0.00,283.67,250517,,,A*72
2017-05-25T21:56:04 -->> $GNVTG,283.67,T,,M,0.00,N,0.00,K,A*2B
2017-05-25T21:56:04 -->> $GNGGA,135605.000,3030.9425,N,10404.3003,E,1,4,2.31,550.6,M,-31.9,M,,*69
2017-05-25T21:56:04 -->> $GPGSA,A,3,05,29,12,02,,,,,,,,,2.51,2.31,0.99*0B
2017-05-25T21:56:04 -->> $GLGSA,A,3,,,,,,,,,,,,,2.51,2.31,0.99*18
2017-05-25T21:56:05 -->> $GPGSV,2,1,08,05,72,256,36,02,60,006,33,12,37,239,32,40,34,238,27*75
2017-05-25T21:56:05 -->> $GPGSV,2,2,08,29,13,319,30,17,08,136,,193,,,26,25,,,24*44
2017-05-25T21:56:05 -->> $GLGSV,1,1,00*65
2017-05-25T21:56:05 -->> $GNRMC,135605.000,A,3030.9425,N,10404.3003,E,0.00,283.67,250517,,,A*73
2017-05-25T21:56:05 -->> $GNVTG,283.67,T,,M,0.00,N,0.00,K,A*2B
2017-05-25T21:56:05 -->> $GNGGA,135606.000,3030.9425,N,10404.3003,E,1,4,2.31,550.6,M,-31.9,M,,*6A
2017-05-25T21:56:05 -->> $GPGSA,A,3,05,29,12,02,,,,,,,,,2.51,2.31,0.99*0B
2017-05-25T21:56:05 -->> $GLGSA,A,3,,,,,,,,,,,,,2.51,2.31,0.99*18
2017-05-25T21:56:06 -->> $GPGSV,2,1,08,05,72,256,36,02,60,006,33,12,37,239,32,50,33,120,*7C
2017-05-25T21:56:06 -->> $GPGSV,2,2,08,29,13,319,30,17,08,136,,193,,,26,25,,,24*44
2017-05-25T21:56:06 -->> $GLGSV,1,1,00*65
2017-05-25T21:56:06 -->> $GNRMC,135606.000,A,3030.9425,N,10404.3003,E,0.00,283.67,250517,,,A*70
2017-05-25T21:56:06 -->> $GNVTG,283.67,T,,M,0.00,N,0.00,K,A*2B
2017-05-25T21:56:06 -->> $GNGGA,135607.000,3030.9425,N,10404.3003,E,1,4,2.31,550.6,M,-31.9,M,,*6B
2017-05-25T21:56:06 -->> $GPGSA,A,3,05,29,12,02,,,,,,,,,2.51,2.31,0.99*0B
2017-05-25T21:56:06 -->> $GLGSA,A,3,,,,,,,,,,,,,2.51,2.31,0.99*18
2017-05-25T21:56:07 -->> $GPGSV,2,1,08,05,72,256,36,02,60,006,33,12,37,239,32,50,33,120,*7C
2017-05-25T21:56:07 -->> $GPGSV,2,2,08,29,13,319,30,17,08,136,,193,,,26,25,,,24*44
2017-05-25T21:56:07 -->> $GLGSV,1,1,00*65
2017-05-25T21:56:07 -->> $GNRMC,135607.000,A,3030.9425,N,10404.3003,E,0.00,283.67,250517,,,A*71
2017-05-25T21:56:07 -->> $GNVTG,283.67,T,,M,0.00,N,0.00,K,A*2B
2017-05-25T21:56:07 -->> $GNGGA,135608.000,3030.9425,N,10404.3003,E,1,4,2.31,550.6,M,-31.9,M,,*64
2017-05-25T21:56:07 -->> $GPGSA,A,3,05,29,12,02,,,,,,,,,2.51,2.31,0.99*0B
2017-05-25T21:56:07 -->> $GLGSA,A,3,,,,,,,,,,,,,2.51,2.31,0.99*18
2017-05-25T21:56:08 -->> $GPGSV,2,1,08,05,72,256,36,02,60,006,33,12,37,239,32,50,33,120,*7C
2017-05-25T21:56:08 -->> $GPGSV,2,2,08,29,13,319,30,17,08,136,,193,,,25,25,,,24*47
2017-05-25T21:56:08 -->> $GLGSV,1,1,00*65
2017-05-25T21:56:08 -->> $GNRMC,135608.000,A,3030.9425,N,10404.3003,E,0.00,283.67,250517,,,A*7E
2017-05-25T21:56:08 -->> $GNVTG,283.67,T,,M,0.00,N,0.00,K,A*2B
2017-05-25T21:56:08 -->> $GNGGA,135609.000,3030.9425,N,10404.3003,E,1,4,2.31,550.6,M,-31.9,M,,*65
2017-05-25T21:56:08 -->> $GPGSA,A,3,05,29,12,02,,,,,,,,,2.51,2.31,0.99*0B
2017-05-25T21:56:08 -->> $GLGSA,A,3,,,,,,,,,,,,,2.51,2.31,0.99*18
2017-05-25T21:56:09 -->> $GPGSV,2,1,08,05,72,256,36,02,60,006,33,12,37,239,31,50,33,120,*7F
2017-05-25T21:56:09 -->> $GPGSV,2,2,08,29,13,319,30,17,08,136,,193,,,25,25,,,24*47
2017-05-25T21:56:09 -->> $GLGSV,1,1,00*65
2017-05-25T21:56:09 -->> $GNRMC,135609.000,A,3030.9425,N,10404.3003,E,0.00,283.67,250517,,,A*7F
2017-05-25T21:56:09 -->> $GNVTG,283.67,T,,M,0.00,N,0.00,K,A*2B
2017-05-25T21:56:09 -->> $GNGGA,135610.000,3030.9425,N,10404.3003,E,1,4,2.31,550.6,M,-31.9,M,,*6D
2017-05-25T21:56:09 -->> $GPGSA,A,3,05,29,12,02,,,,,,,,,2.51,2.31,0.99*0B
2017-05-25T21:56:09 -->> $GLGSA,A,3,,,,,,,,,,,,,2.51,2.31,0.99*18
2017-05-25T21:56:10 -->> $GPGSV,2,1,08,05,72,256,36,02,60,006,33,12,37,239,31,50,33,120,*7F
2017-05-25T21:56:10 -->> $GPGSV,2,2,08,29,13,319,30,17,08,136,,193,,,25,25,,,24*47
2017-05-25T21:56:10 -->> $GLGSV,1,1,00*65
2017-05-25T21:56:10 -->> $GNRMC,135610.000,A,3030.9425,N,10404.3003,E,0.00,283.67,250517,,,A*77
2017-05-25T21:56:10 -->> $GNVTG,283.67,T,,M,0.00,N,0.00,K,A*2B
2017-05-25T21:56:10 -->> $GNGGA,135611.000,3030.9425,N,10404.3003,E,1,4,2.31,550.6,M,-31.9,M,,*6C
2017-05-25T21:56:10 -->> $GPGSA,A,3,05,29,12,02,,,,,,,,,2.51,2.31,0.99*0B
2017-05-25T21:56:10 -->> $GLGSA,A,3,,,,,,,,,,,,,2.51,2.31,0.99*18
2017-05-25T21:56:11 -->> $GPGSV,2,1,08,05,72,256,36,02,60,006,33,12,37,239,31,50,33,120,*7F
2017-05-25T21:56:11 -->> $GPGSV,2,2,08,29,13,319,30,17,08,136,,193,,,25,25,,,24*47
2017-05-25T21:56:11 -->> $GLGSV,1,1,00*65
2017-05-25T21:56:11 -->> $GNRMC,135611.000,A,3030.9425,N,10404.3003,E,0.00,283.67,250517,,,A*76
2017-05-25T21:56:11 -->> $GNVTG,283.67,T,,M,0.00,N,0.00,K,A*2B
2017-05-25T21:56:11 -->> $GNGGA,135612.000,3030.9425,N,10404.3003,E,1,4,2.31,550.6,M,-31.9,M,,*6F
2017-05-25T21:56:11 -->> $GPGSA,A,3,05,29,12,02,,,,,,,,,2.51,2.31,0.99*0B
2017-05-25T21:56:11 -->> $GLGSA,A,3,,,,,,,,,,,,,2.51,2.31,0.99*18
2017-05-25T21:56:12 -->> $GPGSV,2,1,08,05,72,256,36,02,60,006,33,12,37,239,31,50,33,120,*7F
2017-05-25T21:56:12 -->> $GPGSV,2,2,08,29,13,319,30,17,08,136,,193,,,25,25,,,24*47
2017-05-25T21:56:12 -->> $GLGSV,1,1,00*65
2017-05-25T21:56:12 -->> $GNRMC,135612.000,A,3030.9425,N,10404.3003,E,0.00,283.67,250517,,,A*75
2017-05-25T21:56:12 -->> $GNVTG,283.67,T,,M,0.00,N,0.00,K,A*2B
2017-05-25T21:56:12 -->> $GNGGA,135613.000,3030.9425,N,10404.3003,E,1,4,2.31,550.6,M,-31.9,M,,*6E
2017-05-25T21:56:12 -->> $GPGSA,A,3,05,29,12,02,,,,,,,,,2.51,2.31,0.99*0B
2017-05-25T21:56:12 -->> $GLGSA,A,3,,,,,,,,,,,,,2.51,2.31,0.99*18
2017-05-25T21:56:13 -->> $GPGSV,2,1,08,05,72,256,36,02,60,006,33,12,37,239,31,50,33,120,*7F
2017-05-25T21:56:13 -->> $GPGSV,2,2,08,29,13,319,30,17,08,136,,193,,,25,25,,,24*47
2017-05-25T21:56:13 -->> $GLGSV,1,1,00*65
2017-05-25T21:56:13 -->> $GNRMC,135613.000,A,3030.9425,N,10404.3003,E,0.00,283.67,250517,,,A*74
2017-05-25T21:56:13 -->> $GNVTG,283.67,T,,M,0.00,N,0.00,K,A*2B
2017-05-25T21:56:13 -->> $GNGGA,135614.000,3030.9425,N,10404.3003,E,1,4,2.31,550.6,M,-31.9,M,,*69
2017-05-25T21:56:13 -->> $GPGSA,A,3,05,29,12,02,,,,,,,,,2.51,2.31,0.99*0B
2017-05-25T21:56:13 -->> $GLGSA,A,3,,,,,,,,,,,,,2.51,2.31,0.99*18
2017-05-25T21:56:14 -->> $GPGSV,2,1,08,05,72,256,36,02,60,006,33,12,37,239,31,50,33,120,*7F
2017-05-25T21:56:14 -->> $GPGSV,2,2,08,29,13,319,30,17,08,136,,193,,,25,25,,,24*47
2017-05-25T21:56:14 -->> $GLGSV,1,1,00*65
2017-05-25T21:56:14 -->> $GNRMC,135614.000,A,3030.9425,N,10404.3003,E,0.00,283.67,250517,,,A*73
2017-05-25T21:56:14 -->> $GNVTG,283.67,T,,M,0.00,N,0.00,K,A*2B
2017-05-25T21:56:14 -->> $GNGGA,135615.000,3030.9425,N,10404.3003,E,1,4,2.31,550.6,M,-31.9,M,,*68
2017-05-25T21:56:14 -->> $GPGSA,A,3,05,29,12,02,,,,,,,,,2.51,2.31,0.99*0B
2017-05-25T21:56:14 -->> $GLGSA,A,3,,,,,,,,,,,,,2.51,2.31,0.99*18
2017-05-25T21:56:15 -->> $GPGSV,2,1,08,05,72,256,36,02,60,006,33,12,37,239,31,29,13,319,30*78
2017-05-25T21:56:15 -->> $GPGSV,2,2,08,17,08,136,,39,00,264,,193,,,25,25,,,24*4C
2017-05-25T21:56:15 -->> $GLGSV,1,1,00*65
2017-05-25T21:56:15 -->> $GNRMC,135615.000,A,3030.9425,N,10404.3003,E,0.00,283.67,250517,,,A*72
2017-05-25T21:56:15 -->> $GNVTG,283.67,T,,M,0.00,N,0.00,K,A*2B
2017-05-25T21:56:15 -->> $GNGGA,135616.000,3030.9425,N,10404.3003,E,1,4,2.31,550.6,M,-31.9,M,,*6B
2017-05-25T21:56:15 -->> $GPGSA,A,3,05,29,12,02,,,,,,,,,2.51,2.31,0.99*0B
2017-05-25T21:56:15 -->> $GLGSA,A,3,,,,,,,,,,,,,2.51,2.31,0.99*18
2017-05-25T21:56:16 -->> $GPGSV,2,1,08,05,72,256,37,02,60,006,33,12,37,239,31,29,13,319,30*79
2017-05-25T21:56:16 -->> $GPGSV,2,2,08,17,08,136,,39,00,264,,193,,,25,25,,,24*4C
2017-05-25T21:56:16 -->> $GLGSV,1,1,00*65
2017-05-25T21:56:16 -->> $GNRMC,135616.000,A,3030.9425,N,10404.3003,E,0.00,283.67,250517,,,A*71
2017-05-25T21:56:16 -->> $GNVTG,283.67,T,,M,0.00,N,0.00,K,A*2B
2017-05-25T21:56:16 -->> $GNGGA,135617.000,3030.9425,N,10404.3003,E,1,4,2.31,550.6,M,-31.9,M,,*6A
2017-05-25T21:56:16 -->> $GPGSA,A,3,05,29,12,02,,,,,,,,,2.51,2.31,0.99*0B
2017-05-25T21:56:16 -->> $GLGSA,A,3,,,,,,,,,,,,,2.51,2.31,0.99*18
2017-05-25T21:56:17 -->> $GPGSV,2,1,08,05,72,256,37,02,60,006,33,12,37,239,31,29,13,319,30*79
2017-05-25T21:56:17 -->> $GPGSV,2,2,08,17,08,136,,39,00,264,,193,,,25,25,,,24*4C
2017-05-25T21:56:17 -->> $GLGSV,1,1,00*65
2017-05-25T21:56:17 -->> $GNRMC,135617.000,A,3030.9425,N,10404.3003,E,0.00,283.67,250517,,,A*70
2017-05-25T21:56:17 -->> $GNVTG,283.67,T,,M,0.00,N,0.00,K,A*2B
2017-05-25T21:56:17 -->> $GNGGA,135618.000,3030.9425,N,10404.3003,E,1,4,2.30,550.6,M,-31.9,M,,*64
2017-05-25T21:56:17 -->> $GPGSA,A,3,05,29,12,02,,,,,,,,,2.51,2.30,0.99*0A
2017-05-25T21:56:17 -->> $GLGSA,A,3,,,,,,,,,,,,,2.51,2.30,0.99*19
2017-05-25T21:56:18 -->> $GPGSV,2,1,08,05,72,256,37,02,60,006,33,12,37,239,31,29,13,319,30*79
2017-05-25T21:56:18 -->> $GPGSV,2,2,08,17,08,136,,39,00,264,,193,,,26,25,,,24*4F
2017-05-25T21:56:18 -->> $GLGSV,1,1,00*65
2017-05-25T21:56:18 -->> $GNRMC,135618.000,A,3030.9425,N,10404.3003,E,0.00,283.67,250517,,,A*7F
2017-05-25T21:56:18 -->> $GNVTG,283.67,T,,M,0.00,N,0.00,K,A*2B
2017-05-25T21:56:18 -->> $GNGGA,135619.000,3030.9425,N,10404.3003,E,1,4,2.31,550.6,M,-31.9,M,,*64
2017-05-25T21:56:18 -->> $GPGSA,A,3,05,29,12,02,,,,,,,,,2.51,2.31,0.99*0B
2017-05-25T21:56:18 -->> $GLGSA,A,3,,,,,,,,,,,,,2.51,2.31,0.99*18
2017-05-25T21:56:19 -->> $GPGSV,2,1,08,05,72,256,36,02,60,006,33,12,37,239,32,29,13,319,30*7B
2017-05-25T21:56:19 -->> $GPGSV,2,2,08,17,08,136,,39,00,264,,193,,,26,25,,,24*4F
2017-05-25T21:56:19 -->> $GLGSV,1,1,00*65
2017-05-25T21:56:19 -->> $GNRMC,135619.000,A,3030.9425,N,10404.3003,E,0.00,283.67,250517,,,A*7E
2017-05-25T21:56:19 -->> $GNVTG,283.67,T,,M,0.00,N,0.00,K,A*2B
2017-05-25T21:56:19 -->> $GNGGA,135620.000,3030.9425,N,10404.3003,E,1,4,2.30,550.6,M,-31.9,M,,*6F
2017-05-25T21:56:19 -->> $GPGSA,A,3,05,29,12,02,,,,,,,,,2.51,2.30,0.99*0A
2017-05-25T21:56:19 -->> $GLGSA,A,3,,,,,,,,,,,,,2.51,2.30,0.99*19
2017-05-25T21:56:20 -->> $GPGSV,2,1,08,05,72,256,36,02,60,006,33,12,37,239,32,29,13,319,30*7B
2017-05-25T21:56:20 -->> $GPGSV,2,2,08,17,08,136,,39,00,264,,193,,,26,25,,,24*4F
2017-05-25T21:56:20 -->> $GLGSV,1,1,00*65
2017-05-25T21:56:20 -->> $GNRMC,135620.000,A,3030.9425,N,10404.3003,E,0.00,283.67,250517,,,A*74
2017-05-25T21:56:20 -->> $GNVTG,283.67,T,,M,0.00,N,0.00,K,A*2B
2017-05-25T21:56:20 -->> $GNGGA,135621.000,3030.9425,N,10404.3003,E,1,4,2.30,550.6,M,-31.9,M,,*6E
2017-05-25T21:56:20 -->> $GPGSA,A,3,05,29,12,02,,,,,,,,,2.51,2.30,0.99*0A
2017-05-25T21:56:20 -->> $GLGSA,A,3,,,,,,,,,,,,,2.51,2.30,0.99*19
2017-05-25T21:56:21 -->> $GPGSV,2,1,08,05,72,256,36,02,60,006,33,12,37,239,32,29,13,319,30*7B
2017-05-25T21:56:21 -->> $GPGSV,2,2,08,17,08,136,,39,00,264,,193,,,26,25,,,24*4F
2017-05-25T21:56:21 -->> $GLGSV,1,1,00*65
2017-05-25T21:56:21 -->> $GNRMC,135621.000,A,3030.9425,N,10404.3003,E,0.00,283.67,250517,,,A*75
2017-05-25T21:56:21 -->> $GNVTG,283.67,T,,M,0.00,N,0.00,K,A*2B
2017-05-25T21:56:21 -->> $GNGGA,135622.000,3030.9425,N,10404.3003,E,1,4,2.30,550.6,M,-31.9,M,,*6D
2017-05-25T21:56:21 -->> $GPGSA,A,3,05,29,12,02,,,,,,,,,2.51,2.30,0.99*0A
2017-05-25T21:56:21 -->> $GLGSA,A,3,,,,,,,,,,,,,2.51,2.30,0.99*19
2017-05-25T21:56:22 -->> $GPGSV,2,1,08,05,72,256,36,02,60,006,33,12,37,239,32,29,13,319,30*7B
2017-05-25T21:56:22 -->> $GPGSV,2,2,08,17,08,136,,39,00,264,,193,,,26,25,,,24*4F
2017-05-25T21:56:22 -->> $GLGSV,1,1,00*65
2017-05-25T21:56:22 -->> $GNRMC,135622.000,A,3030.9425,N,10404.3003,E,0.00,283.67,250517,,,A*76
2017-05-25T21:56:22 -->> $GNVTG,283.67,T,,M,0.00,N,0.00,K,A*2B
2017-05-25T21:56:22 -->> $GNGGA,135623.000,3030.9425,N,10404.3003,E,1,4,2.30,550.6,M,-31.9,M,,*6C
2017-05-25T21:56:22 -->> $GPGSA,A,3,05,29,12,02,,,,,,,,,2.51,2.30,0.99*0A
2017-05-25T21:56:22 -->> $GLGSA,A,3,,,,,,,,,,,,,2.51,2.30,0.99*19
2017-05-25T21:56:23 -->> $GPGSV,2,1,08,05,72,256,36,02,60,006,33,12,37,239,32,29,13,319,30*7B
2017-05-25T21:56:23 -->> $GPGSV,2,2,08,17,08,136,,39,00,264,,193,,,26,25,,,24*4F
2017-05-25T21:56:23 -->> $GLGSV,1,1,00*65
2017-05-25T21:56:23 -->> $GNRMC,135623.000,A,3030.9425,N,10404.3003,E,0.00,283.67,250517,,,A*77
2017-05-25T21:56:23 -->> $GNVTG,283.67,T,,M,0.00,N,0.00,K,A*2B
2017-05-25T21:56:23 -->> $GNGGA,135624.000,3030.9425,N,10404.3003,E,1,4,2.30,550.6,M,-31.9,M,,*6B
2017-05-25T21:56:23 -->> $GPGSA,A,3,05,29,12,02,,,,,,,,,2.51,2.30,0.99*0A
2017-05-25T21:56:23 -->> $GLGSA,A,3,,,,,,,,,,,,,2.51,2.30,0.99*19
2017-05-25T21:56:24 -->> $GPGSV,2,1,08,05,72,256,36,02,60,006,33,12,37,239,32,29,13,319,30*7B
2017-05-25T21:56:24 -->> $GPGSV,2,2,08,17,08,136,,39,00,264,,193,,,26,25,,,24*4F
2017-05-25T21:56:24 -->> $GLGSV,1,1,00*65
2017-05-25T21:56:24 -->> $GNRMC,135624.000,A,3030.9425,N,10404.3003,E,0.00,283.67,250517,,,A*70
2017-05-25T21:56:24 -->> $GNVTG,283.67,T,,M,0.00,N,0.00,K,A*2B
2017-05-25T21:56:24 -->> $GNGGA,135625.000,3030.9425,N,10404.3003,E,1,6,1.52,550.6,M,-31.9,M,,*6F
2017-05-25T21:56:24 -->> $GPGSA,A,3,05,29,12,02,25,193,,,,,,,1.80,1.52,0.95*32
2017-05-25T21:56:25 -->> $GLGSA,A,3,,,,,,,,,,,,,1.80,1.52,0.95*1D
2017-05-25T21:56:25 -->> $GPGSV,2,1,08,05,72,256,36,02,60,006,33,12,37,239,32,25,27,288,24*7C
2017-05-25T21:56:25 -->> $GPGSV,2,2,08,29,13,319,30,17,08,136,,39,00,264,,193,,,26*7F
2017-05-25T21:56:25 -->> $GLGSV,1,1,00*65
2017-05-25T21:56:25 -->> $GNRMC,135625.000,A,3030.9425,N,10404.3003,E,0.00,283.67,250517,,,A*71
2017-05-25T21:56:25 -->> $GNVTG,283.67,T,,M,0.00,N,0.00,K,A*2B
2017-05-25T21:56:25 -->> $GNGGA,135626.000,3030.9425,N,10404.3003,E,1,6,1.52,550.6,M,-31.9,M,,*6C
2017-05-25T21:56:25 -->> $GPGSA,A,3,05,29,12,02,25,193,,,,,,,1.80,1.52,0.95*32
2017-05-25T21:56:26 -->> $GLGSA,A,3,,,,,,,,,,,,,1.80,1.52,0.95*1D
2017-05-25T21:56:26 -->> $GPGSV,2,1,08,05,72,256,36,02,60,006,33,12,37,239,32,25,27,288,24*7C
2017-05-25T21:56:26 -->> $GPGSV,2,2,08,29,13,319,30,17,08,136,,39,00,264,,193,,,26*7F
2017-05-25T21:56:26 -->> $GLGSV,1,1,00*65
2017-05-25T21:56:26 -->> $GNRMC,135626.000,A,3030.9425,N,10404.3003,E,0.00,283.67,250517,,,A*72
2017-05-25T21:56:26 -->> $GNVTG,283.67,T,,M,0.00,N,0.00,K,A*2B
2017-05-25T21:56:26 -->> $GNGGA,135627.000,3030.9425,N,10404.3003,E,1,6,1.52,550.6,M,-31.9,M,,*6D
2017-05-25T21:56:26 -->> $GPGSA,A,3,05,29,12,02,25,193,,,,,,,1.80,1.52,0.95*32
2017-05-25T21:56:27 -->> $GLGSA,A,3,,,,,,,,,,,,,1.80,1.52,0.95*1D
2017-05-25T21:56:27 -->> $GPGSV,2,1,08,05,72,256,36,02,60,006,33,12,37,239,32,25,27,288,24*7C
2017-05-25T21:56:27 -->> $GPGSV,2,2,08,29,13,319,30,17,08,136,,39,00,264,,193,,,25*7C
2017-05-25T21:56:27 -->> $GLGSV,1,1,00*65
2017-05-25T21:56:27 -->> $GNRMC,135627.000,A,3030.9425,N,10404.3003,E,0.00,283.67,250517,,,A*73
2017-05-25T21:56:27 -->> $GNVTG,283.67,T,,M,0.00,N,0.00,K,A*2B
2017-05-25T21:56:27 -->> $GNGGA,135628.000,3030.9425,N,10404.3003,E,1,6,1.52,550.6,M,-31.9,M,,*62
2017-05-25T21:56:27 -->> $GPGSA,A,3,05,29,12,02,25,193,,,,,,,1.80,1.52,0.95*32
2017-05-25T21:56:28 -->> $GLGSA,A,3,,,,,,,,,,,,,1.80,1.52,0.95*1D
2017-05-25T21:56:28 -->> $GPGSV,2,1,08,05,72,256,36,02,60,006,33,12,37,239,32,25,27,288,25*7D
2017-05-25T21:56:28 -->> $GPGSV,2,2,08,29,13,319,30,17,08,136,,39,00,264,,193,,,25*7C
2017-05-25T21:56:28 -->> $GLGSV,1,1,00*65
2017-05-25T21:56:28 -->> $GNRMC,135628.000,A,3030.9425,N,10404.3003,E,0.00,283.67,250517,,,A*7C
2017-05-25T21:56:28 -->> $GNVTG,283.67,T,,M,0.00,N,0.00,K,A*2B
2017-05-25T21:56:28 -->> $GNGGA,135629.000,3030.9425,N,10404.3003,E,1,6,1.52,550.6,M,-31.9,M,,*63
2017-05-25T21:56:28 -->> $GPGSA,A,3,05,29,12,02,25,193,,,,,,,1.80,1.52,0.95*32
2017-05-25T21:56:29 -->> $GLGSA,A,3,,,,,,,,,,,,,1.80,1.52,0.95*1D
2017-05-25T21:56:29 -->> $GPGSV,2,1,08,05,72,256,36,02,60,006,33,12,37,239,32,25,27,288,25*7D
2017-05-25T21:56:29 -->> $GPGSV,2,2,08,29,13,319,30,17,08,136,,39,00,264,,193,,,25*7C
2017-05-25T21:56:29 -->> $GLGSV,1,1,00*65
2017-05-25T21:56:29 -->> $GNRMC,135629.000,A,3030.9425,N,10404.3003,E,0.00,283.67,250517,,,A*7D
2017-05-25T21:56:29 -->> $GNVTG,283.67,T,,M,0.00,N,0.00,K,A*2B
2017-05-25T21:56:29 -->> $GNGGA,135630.000,3030.9425,N,10404.3003,E,1,6,1.52,550.6,M,-31.9,M,,*6B
2017-05-25T21:56:29 -->> $GPGSA,A,3,05,29,12,02,25,193,,,,,,,1.80,1.52,0.95*32
2017-05-25T21:56:30 -->> $GLGSA,A,3,,,,,,,,,,,,,1.80,1.52,0.95*1D
2017-05-25T21:56:30 -->> $GPGSV,2,1,08,05,72,256,36,02,60,006,33,12,37,239,32,25,27,288,25*7D
2017-05-25T21:56:30 -->> $GPGSV,2,2,08,29,13,319,30,17,08,136,,39,00,264,,193,,,26*7F
2017-05-25T21:56:30 -->> $GLGSV,1,1,00*65
2017-05-25T21:56:30 -->> $GNRMC,135630.000,A,3030.9425,N,10404.3003,E,0.00,283.67,250517,,,A*75
2017-05-25T21:56:30 -->> $GNVTG,283.67,T,,M,0.00,N,0.00,K,A*2B
2017-05-25T21:56:30 -->> $GNGGA,135631.000,3030.9425,N,10404.3003,E,1,6,1.52,550.6,M,-31.9,M,,*6A
2017-05-25T21:56:30 -->> $GPGSA,A,3,05,29,12,02,25,193,,,,,,,1.80,1.52,0.95*32
2017-05-25T21:56:31 -->> $GLGSA,A,3,,,,,,,,,,,,,1.80,1.52,0.95*1D
2017-05-25T21:56:31 -->> $GPGSV,2,1,08,05,72,256,36,02,60,006,33,12,37,239,32,25,27,288,25*7D
2017-05-25T21:56:31 -->> $GPGSV,2,2,08,29,13,319,30,17,08,136,,39,00,264,,193,,,25*7C
2017-05-25T21:56:31 -->> $GLGSV,1,1,00*65
2017-05-25T21:56:31 -->> $GNRMC,135631.000,A,3030.9425,N,10404.3003,E,0.00,283.67,250517,,,A*74
2017-05-25T21:56:31 -->> $GNVTG,283.67,T,,M,0.00,N,0.00,K,A*2B
2017-05-25T21:56:31 -->> $GNGGA,135632.000,3030.9425,N,10404.3003,E,1,6,1.52,550.6,M,-31.9,M,,*69
2017-05-25T21:56:31 -->> $GPGSA,A,3,05,29,12,02,25,193,,,,,,,1.80,1.52,0.95*32
2017-05-25T21:56:32 -->> $GLGSA,A,3,,,,,,,,,,,,,1.80,1.52,0.95*1D
2017-05-25T21:56:32 -->> $GPGSV,2,1,08,05,72,256,36,02,60,006,33,12,37,239,32,25,27,288,25*7D
2017-05-25T21:56:32 -->> $GPGSV,2,2,08,29,13,319,30,17,08,136,,39,00,264,,193,,,25*7C
2017-05-25T21:56:32 -->> $GLGSV,1,1,00*65
2017-05-25T21:56:32 -->> $GNRMC,135632.000,A,3030.9425,N,10404.3003,E,0.00,283.67,250517,,,A*77
2017-05-25T21:56:32 -->> $GNVTG,283.67,T,,M,0.00,N,0.00,K,A*2B
2017-05-25T21:56:32 -->> $GNGGA,135633.000,3030.9425,N,10404.3003,E,1,6,1.52,550.6,M,-31.9,M,,*68
2017-05-25T21:56:33 -->> $GPGSA,A,3,05,29,12,02,25,193,,,,,,,1.80,1.52,0.95*32
2017-05-25T21:56:33 -->> $GLGSA,A,3,,,,,,,,,,,,,1.80,1.52,0.95*1D
2017-05-25T21:56:33 -->> $GPGSV,2,1,08,05,72,256,36,02,60,006,33,12,37,239,32,25,27,288,25*7D
2017-05-25T21:56:33 -->> $GPGSV,2,2,08,29,13,319,30,17,08,136,,39,00,264,,193,,,25*7C
2017-05-25T21:56:33 -->> $GLGSV,1,1,00*65
2017-05-25T21:56:33 -->> $GNRMC,135633.000,A,3030.9425,N,10404.3003,E,0.00,283.67,250517,,,A*76
2017-05-25T21:56:33 -->> $GNVTG,283.67,T,,M,0.00,N,0.00,K,A*2B
2017-05-25T21:56:33 -->> $GNGGA,135634.000,3030.9448,N,10404.2944,E,1,6,1.52,553.7,M,-31.9,M,,*6D
2017-05-25T21:56:33 -->> $GPGSA,A,3,05,29,12,02,25,193,,,,,,,1.80,1.52,0.95*32
2017-05-25T21:56:34 -->> $GLGSA,A,3,,,,,,,,,,,,,1.80,1.52,0.95*1D
2017-05-25T21:56:34 -->> $GPGSV,2,1,08,05,72,256,36,02,60,006,33,12,37,239,32,25,27,288,25*7D
2017-05-25T21:56:34 -->> $GPGSV,2,2,08,29,13,319,30,17,08,136,,39,00,264,,193,,,26*7F
2017-05-25T21:56:34 -->> $GLGSV,1,1,00*65
2017-05-25T21:56:34 -->> $GNRMC,135634.000,A,3030.9448,N,10404.2944,E,0.10,270.95,250517,,,A*71
2017-05-25T21:56:34 -->> $GNVTG,270.95,T,,M,0.10,N,0.19,K,A*23
2017-05-25T21:56:34 -->> $GNGGA,135635.000,3030.9448,N,10404.2943,E,1,6,1.52,553.8,M,-31.9,M,,*64
2017-05-25T21:56:34 -->> $GPGSA,A,3,05,29,12,02,25,193,,,,,,,1.80,1.52,0.95*32
2017-05-25T21:56:35 -->> $GLGSA,A,3,,,,,,,,,,,,,1.80,1.52,0.95*1D
2017-05-25T21:56:35 -->> $GPGSV,2,1,08,05,72,256,36,02,60,006,33,12,37,239,32,42,37,124,*7F
2017-05-25T21:56:35 -->> $GPGSV,2,2,08,25,27,288,25,29,13,319,30,17,08,136,,193,,,26*72
2017-05-25T21:56:35 -->> $GLGSV,1,1,00*65
2017-05-25T21:56:35 -->> $GNRMC,135635.000,A,3030.9448,N,10404.2943,E,0.00,270.95,250517,,,A*76
2017-05-25T21:56:35 -->> $GNVTG,270.95,T,,M,0.00,N,0.00,K,A*2A
2017-05-25T21:56:35 -->> $GNGGA,135636.000,3030.9449,N,10404.2941,E,1,6,1.52,553.9,M,-31.9,M,,*65
2017-05-25T21:56:35 -->> $GPGSA,A,3,05,29,12,02,25,193,,,,,,,1.80,1.52,0.95*32
2017-05-25T21:56:36 -->> $GLGSA,A,3,,,,,,,,,,,,,1.80,1.52,0.95*1D
2017-05-25T21:56:36 -->> $GPGSV,2,1,08,05,72,256,35,02,60,006,33,12,37,239,32,42,37,124,*7C
2017-05-25T21:56:36 -->> $GPGSV,2,2,08,25,27,288,25,29,13,319,30,17,08,136,,193,,,26*72
2017-05-25T21:56:36 -->> $GLGSV,1,1,00*65
2017-05-25T21:56:36 -->> $GNRMC,135636.000,A,3030.9449,N,10404.2941,E,0.00,270.95,250517,,,A*76
2017-05-25T21:56:36 -->> $GNVTG,270.95,T,,M,0.00,N,0.00,K,A*2A
2017-05-25T21:56:36 -->> $GNGGA,135637.000,3030.9449,N,10404.2940,E,1,6,1.52,554.3,M,-31.9,M,,*68
2017-05-25T21:56:36 -->> $GPGSA,A,3,05,29,12,02,25,193,,,,,,,1.80,1.52,0.95*32
2017-05-25T21:56:37 -->> $GLGSA,A,3,,,,,,,,,,,,,1.80,1.52,0.95*1D
2017-05-25T21:56:37 -->> $GPGSV,2,1,08,05,72,256,35,02,60,006,33,12,37,239,32,42,37,124,*7C
2017-05-25T21:56:37 -->> $GPGSV,2,2,08,25,27,288,25,29,13,319,30,17,08,136,,193,,,26*72
2017-05-25T21:56:37 -->> $GLGSV,1,1,00*65
2017-05-25T21:56:37 -->> $GNRMC,135637.000,A,3030.9449,N,10404.2940,E,0.00,270.95,250517,,,A*76
2017-05-25T21:56:37 -->> $GNVTG,270.95,T,,M,0.00,N,0.00,K,A*2A
2017-05-25T21:56:37 -->> $GNGGA,135638.000,3030.9449,N,10404.2940,E,1,6,1.52,554.3,M,-31.9,M,,*67
2017-05-25T21:56:37 -->> $GPGSA,A,3,05,29,12,02,25,193,,,,,,,1.80,1.52,0.95*32
2017-05-25T21:56:38 -->> $GLGSA,A,3,,,,,,,,,,,,,1.80,1.52,0.95*1D
2017-05-25T21:56:38 -->> $GPGSV,2,1,08,05,72,256,35,02,60,006,33,12,37,239,32,42,37,124,*7C
2017-05-25T21:56:38 -->> $GPGSV,2,2,08,25,27,288,25,29,13,319,30,17,08,136,,193,,,26*72
2017-05-25T21:56:38 -->> $GLGSV,1,1,00*65
2017-05-25T21:56:38 -->> $GNRMC,135638.000,A,3030.9449,N,10404.2940,E,0.00,270.95,250517,,,A*79
2017-05-25T21:56:38 -->> $GNVTG,270.95,T,,M,0.00,N,0.00,K,A*2A
2017-05-25T21:56:38 -->> $GNGGA,135639.000,3030.9449,N,10404.2940,E,1,6,1.52,554.3,M,-31.9,M,,*66
2017-05-25T21:56:38 -->> $GPGSA,A,3,05,29,12,02,25,193,,,,,,,1.80,1.52,0.95*32
2017-05-25T21:56:39 -->> $GLGSA,A,3,,,,,,,,,,,,,1.80,1.52,0.95*1D
2017-05-25T21:56:39 -->> $GPGSV,2,1,08,05,72,256,35,02,60,006,33,12,37,239,32,42,37,124,*7C
2017-05-25T21:56:39 -->> $GPGSV,2,2,08,25,27,288,25,29,13,319,30,17,08,136,,193,,,26*72
2017-05-25T21:56:39 -->> $GLGSV,1,1,00*65
2017-05-25T21:56:39 -->> $GNRMC,135639.000,A,3030.9449,N,10404.2940,E,0.00,270.95,250517,,,A*78
2017-05-25T21:56:39 -->> $GNVTG,270.95,T,,M,0.00,N,0.00,K,A*2A
2017-05-25T21:56:39 -->> $GNGGA,135640.000,3030.9449,N,10404.2940,E,1,8,1.44,554.3,M,-31.9,M,,*61
2017-05-25T21:56:40 -->> $GPGSA,A,3,05,29,12,02,25,193,,,,,,,1.73,1.44,0.95*39
2017-05-25T21:56:40 -->> $GLGSA,A,3,86,71,,,,,,,,,,,1.73,1.44,0.95*1E
2017-05-25T21:56:40 -->> $GPGSV,2,1,08,05,72,256,35,02,60,006,33,12,37,239,32,42,37,124,*7C
2017-05-25T21:56:40 -->> $GPGSV,2,2,08,25,27,288,25,29,13,319,30,17,08,136,,193,,,26*72
2017-05-25T21:56:40 -->> $GLGSV,1,1,02,71,68,040,26,86,61,034,27*64
2017-05-25T21:56:40 -->> $GNRMC,135640.000,A,3030.9449,N,10404.2940,E,0.00,270.95,250517,,,A*76
2017-05-25T21:56:40 -->> $GNVTG,270.95,T,,M,0.00,N,0.00,K,A*2A
2017-05-25T21:56:40 -->> $GNGGA,135641.000,3030.9449,N,10404.2940,E,1,8,1.44,554.3,M,-31.9,M,,*60
2017-05-25T21:56:41 -->> $GPGSA,A,3,05,29,12,02,25,193,,,,,,,1.73,1.44,0.95*39
2017-05-25T21:56:41 -->> $GLGSA,A,3,86,71,,,,,,,,,,,1.73,1.44,0.95*1E
2017-05-25T21:56:41 -->> $GPGSV,2,1,08,05,72,256,35,02,60,006,33,12,37,239,32,42,37,124,*7C
2017-05-25T21:56:41 -->> $GPGSV,2,2,08,25,27,288,25,29,13,319,30,17,08,136,,193,,,26*72
2017-05-25T21:56:41 -->> $GLGSV,1,1,02,71,68,040,26,86,61,034,27*64
2017-05-25T21:56:41 -->> $GNRMC,135641.000,A,3030.9449,N,10404.2940,E,0.00,270.95,250517,,,A*77
2017-05-25T21:56:41 -->> $GNVTG,270.95,T,,M,0.00,N,0.00,K,A*2A
2017-05-25T21:56:41 -->> $GNGGA,135642.000,3030.9449,N,10404.2940,E,1,8,1.44,554.3,M,-31.9,M,,*63
2017-05-25T21:56:42 -->> $GPGSA,A,3,05,29,12,02,25,193,,,,,,,1.73,1.44,0.95*39
2017-05-25T21:56:42 -->> $GLGSA,A,3,86,71,,,,,,,,,,,1.73,1.44,0.95*1E
2017-05-25T21:56:42 -->> $GPGSV,2,1,08,05,72,256,35,02,60,006,33,12,37,239,32,42,37,124,*7C
2017-05-25T21:56:42 -->> $GPGSV,2,2,08,25,27,288,25,29,13,319,30,17,08,136,,193,,,26*72
2017-05-25T21:56:42 -->> $GLGSV,1,1,02,71,68,040,26,86,61,034,27*64
2017-05-25T21:56:42 -->> $GNRMC,135642.000,A,3030.9449,N,10404.2940,E,0.00,270.95,250517,,,A*74
2017-05-25T21:56:42 -->> $GNVTG,270.95,T,,M,0.00,N,0.00,K,A*2A
2017-05-25T21:56:42 -->> $GNGGA,135643.000,3030.9449,N,10404.2940,E,1,8,1.44,554.3,M,-31.9,M,,*62
2017-05-25T21:56:43 -->> $GPGSA,A,3,05,29,12,02,25,193,,,,,,,1.73,1.44,0.95*39
2017-05-25T21:56:43 -->> $GLGSA,A,3,86,71,,,,,,,,,,,1.73,1.44,0.95*1E
2017-05-25T21:56:43 -->> $GPGSV,3,1,09,05,72,256,35,02,60,006,33,12,37,239,32,42,37,124,*7C
2017-05-25T21:56:43 -->> $GPGSV,3,2,09,19,28,132,,25,27,288,25,29,13,319,30,17,08,136,*7F
2017-05-25T21:56:43 -->> $GPGSV,3,3,09,193,,,26*4F
2017-05-25T21:56:43 -->> $GLGSV,1,1,02,71,68,040,26,86,61,034,27*64
2017-05-25T21:56:43 -->> $GNRMC,135643.000,A,3030.9449,N,10404.2940,E,0.00,270.95,250517,,,A*75
2017-05-25T21:56:43 -->> $GNVTG,270.95,T,,M,0.00,N,0.00,K,A*2A
2017-05-25T21:56:43 -->> $GNGGA,135644.000,3030.9449,N,10404.2940,E,1,8,1.44,554.3,M,-31.9,M,,*65
2017-05-25T21:56:44 -->> $GPGSA,A,3,05,29,12,02,25,193,,,,,,,1.73,1.44,0.95*39
2017-05-25T21:56:44 -->> $GLGSA,A,3,86,71,,,,,,,,,,,1.73,1.44,0.95*1E
2017-05-25T21:56:44 -->> $GPGSV,3,1,09,05,72,256,35,02,60,006,33,12,37,239,32,44,35,237,*79
2017-05-25T21:56:44 -->> $GPGSV,3,2,09,19,28,132,,25,27,288,25,29,13,319,30,17,08,136,*7F
2017-05-25T21:56:44 -->> $GPGSV,3,3,09,193,,,26*4F
2017-05-25T21:56:44 -->> $GLGSV,1,1,02,71,68,040,26,86,61,034,28*6B
2017-05-25T21:56:44 -->> $GNRMC,135644.000,A,3030.9449,N,10404.2940,E,0.00,270.95,250517,,,A*72
2017-05-25T21:56:44 -->> $GNVTG,270.95,T,,M,0.00,N,0.00,K,A*2A
2017-05-25T21:56:44 -->> $GNGGA,135645.000,3030.9449,N,10404.2940,E,1,8,1.44,554.3,M,-31.9,M,,*64
2017-05-25T21:56:45 -->> $GPGSA,A,3,05,29,12,02,25,193,,,,,,,1.73,1.44,0.95*39
2017-05-25T21:56:45 -->> $GLGSA,A,3,86,71,,,,,,,,,,,1.73,1.44,0.95*1E
2017-05-25T21:56:45 -->> $GPGSV,3,1,09,05,72,256,35,02,60,006,33,12,37,239,32,44,35,237,*79
2017-05-25T21:56:45 -->> $GPGSV,3,2,09,19,28,132,,25,27,288,25,29,13,319,30,17,08,136,*7F
2017-05-25T21:56:45 -->> $GPGSV,3,3,09,193,,,26*4F
2017-05-25T21:56:45 -->> $GLGSV,1,1,02,71,68,040,26,86,61,034,28*6B
2017-05-25T21:56:45 -->> $GNRMC,135645.000,A,3030.9449,N,10404.2940,E,0.00,270.95,250517,,,A*73
2017-05-25T21:56:45 -->> $GNVTG,270.95,T,,M,0.00,N,0.00,K,A*2A
2017-05-25T21:56:45 -->> $GNGGA,135646.000,3030.9449,N,10404.2940,E,1,8,1.44,554.3,M,-31.9,M,,*67
2017-05-25T21:56:46 -->> $GPGSA,A,3,05,29,12,02,25,193,,,,,,,1.73,1.44,0.95*39
2017-05-25T21:56:46 -->> $GLGSA,A,3,86,71,,,,,,,,,,,1.73,1.44,0.95*1E
2017-05-25T21:56:46 -->> $GPGSV,3,1,09,05,72,256,35,02,60,006,33,12,37,239,32,44,35,237,*79
2017-05-25T21:56:46 -->> $GPGSV,3,2,09,19,28,132,25,25,27,288,25,29,13,319,30,17,08,136,*78
2017-05-25T21:56:46 -->> $GPGSV,3,3,09,193,,,26*4F
2017-05-25T21:56:46 -->> $GLGSV,1,1,02,71,68,040,26,86,61,034,27*64
2017-05-25T21:56:46 -->> $GNRMC,135646.000,A,3030.9449,N,10404.2940,E,0.00,270.95,250517,,,A*70
2017-05-25T21:56:46 -->> $GNVTG,270.95,T,,M,0.00,N,0.00,K,A*2A
2017-05-25T21:56:46 -->> $GNGGA,135647.000,3030.9449,N,10404.2940,E,1,8,1.44,554.3,M,-31.9,M,,*66
2017-05-25T21:56:47 -->> $GPGSA,A,3,05,29,12,02,25,193,,,,,,,1.73,1.44,0.95*39
2017-05-25T21:56:47 -->> $GLGSA,A,3,86,71,,,,,,,,,,,1.73,1.44,0.95*1E
2017-05-25T21:56:47 -->> $GPGSV,3,1,09,05,72,256,35,02,60,006,33,12,37,239,32,44,35,237,*79
2017-05-25T21:56:47 -->> $GPGSV,3,2,09,19,28,132,25,25,27,288,25,29,13,319,30,17,08,136,*78
2017-05-25T21:56:47 -->> $GPGSV,3,3,09,193,,,26*4F
2017-05-25T21:56:47 -->> $GLGSV,1,1,02,71,68,040,26,86,61,034,28*6B
2017-05-25T21:56:47 -->> $GNRMC,135647.000,A,3030.9449,N,10404.2940,E,0.00,270.95,250517,,,A*71
2017-05-25T21:56:47 -->> $GNVTG,270.95,T,,M,0.00,N,0.00,K,A*2A
2017-05-25T21:56:47 -->> $GNGGA,135648.000,3030.9449,N,10404.2940,E,1,8,1.44,554.3,M,-31.9,M,,*69
2017-05-25T21:56:48 -->> $GPGSA,A,3,05,29,12,02,25,193,,,,,,,1.73,1.44,0.95*39
2017-05-25T21:56:48 -->> $GLGSA,A,3,86,71,,,,,,,,,,,1.73,1.44,0.95*1E
2017-05-25T21:56:48 -->> $GPGSV,3,1,09,05,72,256,35,02,60,006,33,12,37,239,32,44,35,237,*79
2017-05-25T21:56:48 -->> $GPGSV,3,2,09,19,28,132,25,25,27,288,25,29,13,319,30,17,08,136,*78
2017-05-25T21:56:48 -->> $GPGSV,3,3,09,193,,,26*4F
2017-05-25T21:56:48 -->> $GLGSV,1,1,02,71,68,040,25,86,61,034,28*68
2017-05-25T21:56:48 -->> $GNRMC,135648.000,A,3030.9449,N,10404.2940,E,0.00,270.95,250517,,,A*7E
2017-05-25T21:56:48 -->> $GNVTG,270.95,T,,M,0.00,N,0.00,K,A*2A
2017-05-25T21:56:48 -->> $GNGGA,135649.000,3030.9449,N,10404.2940,E,1,8,1.44,554.3,M,-31.9,M,,*68
2017-05-25T21:56:49 -->> $GPGSA,A,3,05,29,12,02,25,193,,,,,,,1.73,1.44,0.95*39
2017-05-25T21:56:49 -->> $GLGSA,A,3,86,71,,,,,,,,,,,1.73,1.44,0.95*1E
2017-05-25T21:56:49 -->> $GPGSV,3,1,09,05,72,256,35,02,60,006,33,12,37,239,32,44,35,237,*79
2017-05-25T21:56:49 -->> $GPGSV,3,2,09,19,28,132,24,25,27,288,25,29,13,319,30,17,08,136,*79
2017-05-25T21:56:49 -->> $GPGSV,3,3,09,193,,,26*4F
2017-05-25T21:56:49 -->> $GLGSV,1,1,02,71,68,040,26,86,61,034,28*6B
2017-05-25T21:56:49 -->> $GNRMC,135649.000,A,3030.9449,N,10404.2940,E,0.00,270.95,250517,,,A*7F
2017-05-25T21:56:49 -->> $GNVTG,270.95,T,,M,0.00,N,0.00,K,A*2A
2017-05-25T21:56:49 -->> $GNGGA,135650.000,3030.9449,N,10404.2940,E,1,8,1.44,554.3,M,-31.9,M,,*60
2017-05-25T21:56:50 -->> $GPGSA,A,3,05,29,12,02,25,193,,,,,,,1.73,1.44,0.95*39
2017-05-25T21:56:50 -->> $GLGSA,A,3,86,71,,,,,,,,,,,1.73,1.44,0.95*1E
2017-05-25T21:56:50 -->> $GPGSV,3,1,09,05,72,256,36,02,60,006,33,12,37,239,32,44,35,237,*7A
2017-05-25T21:56:50 -->> $GPGSV,3,2,09,19,28,132,25,25,27,288,27,29,13,319,30,17,08,136,*7A
2017-05-25T21:56:50 -->> $GPGSV,3,3,09,193,,,26*4F
