2017-05-25T22:14:21
2017-05-25T22:15:02 -->> ============================
2017-05-25T22:15:04 -->> $PMTK011,MTKGPS*08
2017-05-25T22:15:04 -->> $PMTK010,001*2E
2017-05-25T22:15:04 -->> $PMTK011,MTKGPS*08
2017-05-25T22:15:04 -->> $PMTK010,002*2D
2017-05-25T22:15:04 -->> $GNGGA,235942.800,,,,,0,0,,,M,,M,,*55
2017-05-25T22:15:04 -->> $GPGSA,A,1,,,,,,,,,,,,,,,*1E
2017-05-25T22:15:04 -->> $GLGSA,A,1,,,,,,,,,,,,,,,*02
2017-05-25T22:15:05 -->> $GPGSV,1,1,00*79
2017-05-25T22:15:05 -->> $GLGSV,1,1,00*65
2017-05-25T22:15:05 -->> $GNRMC,235942.800,V,,,,,0.00,0.00,050180,,,N*5C
2017-05-25T22:15:05 -->> $GNVTG,0.00,T,,M,0.00,N,0.00,K,N*2C
2017-05-25T22:15:05 -->> $GNGGA,235943.800,,,,,0,0,,,M,,M,,*54
2017-05-25T22:15:05 -->> $GPGSA,A,1,,,,,,,,,,,,,,,*1E
2017-05-25T22:15:06 -->> $GLGSA,A,1,,,,,,,,,,,,,,,*02
2017-05-25T22:15:06 -->> $GPGSV,1,1,01,05,,,35*7B
2017-05-25T22:15:06 -->> $GLGSV,1,1,00*65
2017-05-25T22:15:06 -->> $GNRMC,235943.800,V,,,,,0.00,0.00,050180,,,N*5D
2017-05-25T22:15:06 -->> $GNVTG,0.00,T,,M,0.00,N,0.00,K,N*2C
2017-05-25T22:15:06 -->> $GNGGA,235944.799,,,,,0,0,,,M,,M,,*5C
2017-05-25T22:15:06 -->> $GPGSA,A,1,,,,,,,,,,,,,,,*1E
2017-05-25T22:15:07 -->> $GLGSA,A,1,,,,,,,,,,,,,,,*02
2017-05-25T22:15:07 -->> $GPGSV,1,1,02,05,,,36,25,,,34*7B
2017-05-25T22:15:07 -->> $GLGSV,1,1,00*65
2017-05-25T22:15:07 -->> $GNRMC,235944.799,V,,,,,0.00,0.00,050180,,,N*55
2017-05-25T22:15:07 -->> $GNVTG,0.00,T,,M,0.00,N,0.00,K,N*2C
2017-05-25T22:15:07 -->> $GNGGA,235945.799,,,,,0,0,,,M,,M,,*5D
2017-05-25T22:15:07 -->> $GPGSA,A,1,,,,,,,,,,,,,,,*1E
2017-05-25T22:15:08 -->> $GLGSA,A,1,,,,,,,,,,,,,,,*02
2017-05-25T22:15:08 -->> $GPGSV,1,1,03,05,,,36,25,,,36,12,,,29*70
2017-05-25T22:15:08 -->> $GLGSV,1,1,00*65
2017-05-25T22:15:08 -->> $GNRMC,235945.799,V,,,,,0.00,0.00,050180,,,N*54
2017-05-25T22:15:08 -->> $GNVTG,0.00,T,,M,0.00,N,0.00,K,N*2C
2017-05-25T22:15:08 -->> $GNGGA,235946.799,,,,,0,0,,,M,,M,,*5E
2017-05-25T22:15:08 -->> $GPGSA,A,1,,,,,,,,,,,,,,,*1E
2017-05-25T22:15:09 -->> $GLGSA,A,1,,,,,,,,,,,,,,,*02
2017-05-25T22:15:09 -->> $GPGSV,1,1,03,05,,,37,25,,,37,12,,,32*7A
2017-05-25T22:15:09 -->> $GLGSV,1,1,00*65
2017-05-25T22:15:09 -->> $GNRMC,235946.799,V,,,,,0.00,0.00,050180,,,N*57
2017-05-25T22:15:09 -->> $GNVTG,0.00,T,,M,0.00,N,0.00,K,N*2C
2017-05-25T22:15:09 -->> $GNGGA,235947.799,,,,,0,0,,,M,,M,,*5F
2017-05-25T22:15:09 -->> $GPGSA,A,1,,,,,,,,,,,,,,,*1E
2017-05-25T22:15:10 -->> $GLGSA,A,1,,,,,,,,,,,,,,,*02
2017-05-25T22:15:10 -->> $GPGSV,1,1,04,05,,,37,25,,,37,12,,,35,02,,,29*73
2017-05-25T22:15:10 -->> $GLGSV,1,1,00*65
2017-05-25T22:15:10 -->> $GNRMC,235947.799,V,,,,,0.00,0.00,050180,,,N*56
2017-05-25T22:15:10 -->> $GNVTG,0.00,T,,M,0.00,N,0.00,K,N*2C
2017-05-25T22:15:10 -->> $GNGGA,235948.799,,,,,0,0,,,M,,M,,*50
2017-05-25T22:15:10 -->> $GPGSA,A,1,,,,,,,,,,,,,,,*1E
2017-05-25T22:15:10 -->> $GLGSA,A,1,,,,,,,,,,,,,,,*02
2017-05-25T22:15:11 -->> $GPGSV,1,1,04,05,,,36,25,,,37,12,,,35,02,,,33*79
2017-05-25T22:15:11 -->> $GLGSV,1,1,00*65
2017-05-25T22:15:11 -->> $GNRMC,235948.799,V,,,,,0.00,0.00,050180,,,N*59
2017-05-25T22:15:11 -->> $GNVTG,0.00,T,,M,0.00,N,0.00,K,N*2C
2017-05-25T22:15:11 -->> $GNGGA,235949.799,,,,,0,0,,,M,,M,,*51
2017-05-25T22:15:11 -->> $GPGSA,A,1,,,,,,,,,,,,,,,*1E
2017-05-25T22:15:12 -->> $GLGSA,A,1,,,,,,,,,,,,,,,*02
2017-05-25T22:15:12 -->> $GPGSV,2,1,05,05,,,36,25,,,37,12,,,36,02,,,32*79
2017-05-25T22:15:12 -->> $GPGSV,2,2,05,20,,,28*74
2017-05-25T22:15:12 -->> $GLGSV,1,1,00*65
2017-05-25T22:15:12 -->> $GNRMC,235949.799,V,,,,,0.00,0.00,050180,,,N*58
2017-05-25T22:15:12 -->> $GNVTG,0.00,T,,M,0.00,N,0.00,K,N*2C
2017-05-25T22:15:12 -->> $GNGGA,235950.800,,,,,0,0,,,M,,M,,*56
2017-05-25T22:15:12 -->> $GPGSA,A,1,,,,,,,,,,,,,,,*1E
2017-05-25T22:15:13 -->> $GLGSA,A,1,,,,,,,,,,,,,,,*02
2017-05-25T22:15:13 -->> $GPGSV,2,1,07,05,,,36,25,,,37,12,,,36,02,,,34*7D
2017-05-25T22:15:13 -->> $GPGSV,2,2,07,20,,,32,06,,,32,19,,,30*71
2017-05-25T22:15:13 -->> $GLGSV,1,1,00*65
2017-05-25T22:15:13 -->> $GNRMC,235950.800,V,,,,,0.00,0.00,050180,,,N*5F
2017-05-25T22:15:13 -->> $GNVTG,0.00,T,,M,0.00,N,0.00,K,N*2C
2017-05-25T22:15:13 -->> $GNGGA,235951.800,,,,,0,0,,,M,,M,,*57
2017-05-25T22:15:13 -->> $GPGSA,A,1,,,,,,,,,,,,,,,*1E
2017-05-25T22:15:14 -->> $GLGSA,A,1,,,,,,,,,,,,,,,*02
2017-05-25T22:15:14 -->> $GPGSV,2,1,07,05,,,36,25,,,37,12,,,36,02,,,33*7A
2017-05-25T22:15:14 -->> $GPGSV,2,2,07,20,,,31,06,,,32,19,,,33*71
2017-05-25T22:15:14 -->> $GLGSV,1,1,00*65
2017-05-25T22:15:14 -->> $GNRMC,235951.800,V,,,,,0.00,0.00,050180,,,N*5E
2017-05-25T22:15:14 -->> $GNVTG,0.00,T,,M,0.00,N,0.00,K,N*2C
2017-05-25T22:15:14 -->> $GNGGA,235952.800,,,,,0,0,,,M,,M,,*54
2017-05-25T22:15:14 -->> $GPGSA,A,1,,,,,,,,,,,,,,,*1E
2017-05-25T22:15:14 -->> $GLGSA,A,1,,,,,,,,,,,,,,,*02
2017-05-25T22:15:15 -->> $GPGSV,2,1,07,05,,,36,25,,,37,12,,,36,02,,,33*7A
2017-05-25T22:15:15 -->> $GPGSV,2,2,07,20,,,32,06,,,33,19,,,33*73
2017-05-25T22:15:15 -->> $GLGSV,1,1,00*65
2017-05-25T22:15:15 -->> $GNRMC,235952.800,V,,,,,0.00,0.00,050180,,,N*5D
2017-05-25T22:15:15 -->> $GNVTG,0.00,T,,M,0.00,N,0.00,K,N*2C
2017-05-25T22:15:15 -->> $GNGGA,235953.800,,,,,0,0,,,M,,M,,*55
2017-05-25T22:15:15 -->> $GPGSA,A,1,,,,,,,,,,,,,,,*1E
2017-05-25T22:15:16 -->> $GLGSA,A,1,,,,,,,,,,,,,,,*02
2017-05-25T22:15:16 -->> $GPGSV,2,1,07,05,,,36,25,,,37,12,,,36,02,,,33*7A
2017-05-25T22:15:16 -->> $GPGSV,2,2,07,20,,,31,06,,,32,19,,,33*71
2017-05-25T22:15:16 -->> $GLGSV,1,1,00*65
2017-05-25T22:15:16 -->> $GNRMC,235953.800,V,,,,,0.00,0.00,050180,,,N*5C
2017-05-25T22:15:16 -->> $GNVTG,0.00,T,,M,0.00,N,0.00,K,N*2C
2017-05-25T22:15:16 -->> $GNGGA,235954.800,,,,,0,0,,,M,,M,,*52
2017-05-25T22:15:16 -->> $GPGSA,A,1,,,,,,,,,,,,,,,*1E
2017-05-25T22:15:17 -->> $GLGSA,A,1,,,,,,,,,,,,,,,*02
2017-05-25T22:15:17 -->> $GPGSV,2,1,07,05,,,37,25,,,37,12,,,36,02,,,33*7B
2017-05-25T22:15:17 -->> $GPGSV,2,2,07,20,,,31,06,,,32,19,,,33*71
2017-05-25T22:15:17 -->> $GLGSV,1,1,00*65
2017-05-25T22:15:17 -->> $GNRMC,235954.800,V,,,,,0.00,0.00,050180,,,N*5B
2017-05-25T22:15:17 -->> $GNVTG,0.00,T,,M,0.00,N,0.00,K,N*2C
2017-05-25T22:15:17 -->> $GNGGA,235955.711,,,,,0,0,,,M,,M,,*5C
2017-05-25T22:15:17 -->> $GPGSA,A,1,,,,,,,,,,,,,,,*1E
2017-05-25T22:15:17 -->> $GLGSA,A,1,,,,,,,,,,,,,,,*02
2017-05-25T22:15:17 -->> $GPGSV,2,1,07,05,,,37,25,,,37,12,,,36,02,,,33*7B
2017-05-25T22:15:18 -->> $GPGSV,2,2,07,20,,,31,06,,,32,19,,,34*76
2017-05-25T22:15:18 -->> $GLGSV,1,1,00*65
2017-05-25T22:15:18 -->> $GNRMC,235955.711,V,,,,,0.00,0.00,050180,,,N*55
2017-05-25T22:15:18 -->> $GNVTG,0.00,T,,M,0.00,N,0.00,K,N*2C
2017-05-25T22:15:18 -->> $GNGGA,235956.711,,,,,0,0,,,M,,M,,*5F
2017-05-25T22:15:18 -->> $GPGSA,A,1,,,,,,,,,,,,,,,*1E
2017-05-25T22:15:18 -->> $GLGSA,A,1,,,,,,,,,,,,,,,*02
2017-05-25T22:15:18 -->> $GPGSV,2,1,07,05,,,37,25,,,37,12,,,36,02,,,33*7B
2017-05-25T22:15:19 -->> $GPGSV,2,2,07,20,,,31,06,,,32,19,,,34*76
2017-05-25T22:15:19 -->> $GLGSV,1,1,00*65
2017-05-25T22:15:19 -->> $GNRMC,235956.711,V,,,,,0.00,0.00,050180,,,N*56
2017-05-25T22:15:19 -->> $GNVTG,0.00,T,,M,0.00,N,0.00,K,N*2C
2017-05-25T22:15:19 -->> $GNGGA,141520.080,,,,,0,0,,,M,,M,,*5D
2017-05-25T22:15:19 -->> $GPGSA,A,1,,,,,,,,,,,,,,,*1E
2017-05-25T22:15:19 -->> $GLGSA,A,1,,,,,,,,,,,,,,,*02
2017-05-25T22:15:19 -->> $GPGSV,2,1,07,05,,,37,25,,,37,12,,,36,02,,,33*7B
2017-05-25T22:15:20 -->> $GPGSV,2,2,07,20,,,31,06,,,32,19,,,34*76
2017-05-25T22:15:20 -->> $GLGSV,1,1,00*65
2017-05-25T22:15:20 -->> $GNRMC,141520.080,V,,,,,0.00,0.00,100180,,,N*50
2017-05-25T22:15:20 -->> $GNVTG,0.00,T,,M,0.00,N,0.00,K,N*2C
2017-05-25T22:15:20 -->> $GNGGA,141521.080,,,,,0,0,,,M,,M,,*5C
2017-05-25T22:15:20 -->> $GPGSA,A,1,,,,,,,,,,,,,,,*1E
2017-05-25T22:15:20 -->> $GLGSA,A,1,,,,,,,,,,,,,,,*02
2017-05-25T22:15:20 -->> $GPGSV,2,1,07,05,,,37,25,,,37,12,,,36,02,,,33*7B
2017-05-25T22:15:21 -->> $GPGSV,2,2,07,20,,,31,06,,,32,19,,,33*71
2017-05-25T22:15:21 -->> $GLGSV,1,1,00*65
2017-05-25T22:15:21 -->> $GNRMC,141521.080,V,,,,,0.00,0.00,100180,,,N*51
2017-05-25T22:15:21 -->> $GNVTG,0.00,T,,M,0.00,N,0.00,K,N*2C
2017-05-25T22:15:21 -->> $GNGGA,141522.080,,,,,0,0,,,M,,M,,*5F
2017-05-25T22:15:21 -->> $GPGSA,A,1,,,,,,,,,,,,,,,*1E
2017-05-25T22:15:21 -->> $GLGSA,A,1,,,,,,,,,,,,,,,*02
2017-05-25T22:15:21 -->> $GPGSV,2,1,07,05,,,37,25,,,37,12,,,36,02,,,33*7B
2017-05-25T22:15:22 -->> $GPGSV,2,2,07,20,,,31,06,,,32,19,,,33*71
2017-05-25T22:15:22 -->> $GLGSV,1,1,00*65
2017-05-25T22:15:22 -->> $GNRMC,141522.080,V,,,,,0.00,0.00,100180,,,N*52
2017-05-25T22:15:22 -->> $GNVTG,0.00,T,,M,0.00,N,0.00,K,N*2C
2017-05-25T22:15:22 -->> $GNGGA,141523.080,,,,,0,0,,,M,,M,,*5E
2017-05-25T22:15:22 -->> $GPGSA,A,1,,,,,,,,,,,,,,,*1E
2017-05-25T22:15:22 -->> $GLGSA,A,1,,,,,,,,,,,,,,,*02
2017-05-25T22:15:22 -->> $GPGSV,2,1,07,05,,,37,25,,,37,12,,,36,02,,,33*7B
2017-05-25T22:15:23 -->> $GPGSV,2,2,07,20,,,31,06,,,32,19,,,33*71
2017-05-25T22:15:23 -->> $GLGSV,1,1,00*65
2017-05-25T22:15:23 -->> $GNRMC,141523.080,V,,,,,0.00,0.00,100180,,,N*53
2017-05-25T22:15:23 -->> $GNVTG,0.00,T,,M,0.00,N,0.00,K,N*2C
2017-05-25T22:15:23 -->> $GNGGA,141524.080,,,,,0,0,,,M,,M,,*59
2017-05-25T22:15:23 -->> $GPGSA,A,1,,,,,,,,,,,,,,,*1E
2017-05-25T22:15:23 -->> $GLGSA,A,1,,,,,,,,,,,,,,,*02
2017-05-25T22:15:23 -->> $GPGSV,2,1,07,05,,,37,25,,,37,12,,,36,02,,,33*7B
2017-05-25T22:15:24 -->> $GPGSV,2,2,07,20,,,31,06,,,32,19,,,33*71
2017-05-25T22:15:24 -->> $GLGSV,1,1,00*65
2017-05-25T22:15:24 -->> $GNRMC,141524.080,V,,,,,0.00,0.00,100180,,,N*54
2017-05-25T22:15:24 -->> $GNVTG,0.00,T,,M,0.00,N,0.00,K,N*2C
2017-05-25T22:15:24 -->> $GNGGA,141525.080,,,,,0,0,,,M,,M,,*58
2017-05-25T22:15:24 -->> $GPGSA,A,1,,,,,,,,,,,,,,,*1E
2017-05-25T22:15:24 -->> $GLGSA,A,1,,,,,,,,,,,,,,,*02
2017-05-25T22:15:24 -->> $GPGSV,2,1,07,05,,,36,25,,,37,12,,,36,02,,,33*7A
2017-05-25T22:15:25 -->> $GPGSV,2,2,07,20,,,31,06,,,32,19,,,33*71
2017-05-25T22:15:25 -->> $GLGSV,1,1,00*65
2017-05-25T22:15:25 -->> $GNRMC,141525.080,V,,,,,0.00,0.00,100180,,,N*55
2017-05-25T22:15:25 -->> $GNVTG,0.00,T,,M,0.00,N,0.00,K,N*2C
2017-05-25T22:15:25 -->> $GNGGA,141526.080,,,,,0,0,,,M,,M,,*5B
2017-05-25T22:15:25 -->> $GPGSA,A,1,,,,,,,,,,,,,,,*1E
2017-05-25T22:15:25 -->> $GLGSA,A,1,,,,,,,,,,,,,,,*02
2017-05-25T22:15:25 -->> $GPGSV,2,1,07,05,,,36,25,,,37,12,,,36,02,,,33*7A
2017-05-25T22:15:26 -->> $GPGSV,2,2,07,20,,,31,06,,,32,19,,,33*71
2017-05-25T22:15:26 -->> $GLGSV,1,1,00*65
2017-05-25T22:15:26 -->> $GNRMC,141526.080,V,,,,,0.00,0.00,100180,,,N*56
2017-05-25T22:15:26 -->> $GNVTG,0.00,T,,M,0.00,N,0.00,K,N*2C
2017-05-25T22:15:26 -->> $GNGGA,141527.080,,,,,0,0,,,M,,M,,*5A
2017-05-25T22:15:26 -->> $GPGSA,A,1,,,,,,,,,,,,,,,*1E
2017-05-25T22:15:26 -->> $GLGSA,A,1,,,,,,,,,,,,,,,*02
2017-05-25T22:15:26 -->> $GPGSV,2,1,07,05,,,37,25,,,37,12,,,36,02,,,33*7B
2017-05-25T22:15:27 -->> $GPGSV,2,2,07,20,,,31,06,,,32,19,,,33*71
2017-05-25T22:15:27 -->> $GLGSV,1,1,00*65
2017-05-25T22:15:27 -->> $GNRMC,141527.080,V,,,,,0.00,0.00,100180,,,N*57
2017-05-25T22:15:27 -->> $GNVTG,0.00,T,,M,0.00,N,0.00,K,N*2C
2017-05-25T22:15:27 -->> $GNGGA,141528.080,,,,,0,0,,,M,,M,,*55
2017-05-25T22:15:27 -->> $GPGSA,A,1,,,,,,,,,,,,,,,*1E
2017-05-25T22:15:27 -->> $GLGSA,A,1,,,,,,,,,,,,,,,*02
2017-05-25T22:15:27 -->> $GPGSV,2,1,07,05,,,37,25,,,37,12,,,36,02,,,33*7B
2017-05-25T22:15:28 -->> $GPGSV,2,2,07,20,,,31,06,,,32,19,,,33*71
2017-05-25T22:15:28 -->> $GLGSV,1,1,00*65
2017-05-25T22:15:28 -->> $GNRMC,141528.080,V,,,,,0.00,0.00,100180,,,N*58
2017-05-25T22:15:28 -->> $GNVTG,0.00,T,,M,0.00,N,0.00,K,N*2C
2017-05-25T22:15:28 -->> $GNGGA,141529.080,,,,,0,0,,,M,,M,,*54
2017-05-25T22:15:28 -->> $GPGSA,A,1,,,,,,,,,,,,,,,*1E
2017-05-25T22:15:28 -->> $GLGSA,A,1,,,,,,,,,,,,,,,*02
2017-05-25T22:15:28 -->> $GPGSV,2,1,07,05,,,37,25,,,37,12,,,36,02,,,33*7B
2017-05-25T22:15:29 -->> $GPGSV,2,2,07,20,,,31,06,,,32,19,,,33*71
2017-05-25T22:15:29 -->> $GLGSV,1,1,00*65
2017-05-25T22:15:29 -->> $GNRMC,141529.080,V,,,,,0.00,0.00,100180,,,N*59
2017-05-25T22:15:29 -->> $GNVTG,0.00,T,,M,0.00,N,0.00,K,N*2C
2017-05-25T22:15:29 -->> $GNGGA,141530.081,,,,,0,0,,,M,,M,,*5D
2017-05-25T22:15:29 -->> $GPGSA,A,1,,,,,,,,,,,,,,,*1E
2017-05-25T22:15:29 -->> $GLGSA,A,1,,,,,,,,,,,,,,,*02
2017-05-25T22:15:30 -->> $GPGSV,2,1,07,05,,,36,25,,,37,12,,,36,02,,,33*7A
2017-05-25T22:15:30 -->> $GPGSV,2,2,07,20,,,32,06,,,32,19,,,33*72
2017-05-25T22:15:30 -->> $GLGSV,1,1,00*65
2017-05-25T22:15:30 -->> $GNRMC,141530.081,V,,,,,0.06,0.00,250517,,,N*5A
2017-05-25T22:15:30 -->> $GNVTG,0.00,T,,M,0.06,N,0.10,K,N*2B
2017-05-25T22:15:30 -->> $GNGGA,141531.081,3030.9437,N,10404.2975,E,1,4,2.32,559.0,M,-31.9,M,,*61
2017-05-25T22:15:30 -->> $GPGSA,A,3,05,25,12,02,,,,,,,,,2.52,2.32,0.97*09
2017-05-25T22:15:31 -->> $GLGSA,A,3,,,,,,,,,,,,,2.52,2.32,0.97*16
2017-05-25T22:15:31 -->> $GPGSV,3,1,09,05,76,290,36,02,60,023,33,42,37,124,,12,31,230,36*7D
2017-05-25T22:15:31 -->> $GPGSV,3,2,09,25,27,279,37,193,,,,20,,,32,06,,,32*74
2017-05-25T22:15:31 -->> $GPGSV,3,3,09,19,,,33*78
2017-05-25T22:15:31 -->> $GLGSV,1,1,00*65
2017-05-25T22:15:31 -->> $GNRMC,141531.081,A,3030.9437,N,10404.2975,E,0.26,0.00,250517,,,A*7B
2017-05-25T22:15:31 -->> $GNVTG,0.00,T,,M,0.26,N,0.48,K,A*2B
2017-05-25T22:15:32 -->> $GNGGA,141533.000,3030.9432,N,10404.2984,E,1,4,2.32,559.3,M,-31.9,M,,*62
2017-05-25T22:15:32 -->> $GPGSA,A,3,05,25,12,02,,,,,,,,,2.52,2.32,0.97*09
2017-05-25T22:15:32 -->> $GLGSA,A,3,,,,,,,,,,,,,2.52,2.32,0.97*16
2017-05-25T22:15:33 -->> $GPGSV,3,1,10,05,76,290,36,02,60,023,33,42,37,124,,12,31,230,36*75
2017-05-25T22:15:33 -->> $GPGSV,3,2,10,25,27,279,37,193,,,,20,,,32,06,,,32*7C
2017-05-25T22:15:33 -->> $GPGSV,3,3,10,19,,,33,29,,,25*7C
2017-05-25T22:15:33 -->> $GLGSV,1,1,00*65
2017-05-25T22:15:33 -->> $GNRMC,141533.000,A,3030.9432,N,10404.2984,E,0.48,0.00,250517,,,A*73
2017-05-25T22:15:33 -->> $GNVTG,0.00,T,,M,0.48,N,0.90,K,A*26
2017-05-25T22:15:33 -->> $GNGGA,141534.000,3030.9431,N,10404.2992,E,1,4,2.32,558.2,M,-31.9,M,,*61
2017-05-25T22:15:33 -->> $GPGSA,A,3,05,25,12,02,,,,,,,,,2.52,2.32,0.97*09
2017-05-25T22:15:33 -->> $GLGSA,A,3,,,,,,,,,,,,,2.52,2.32,0.97*16
2017-05-25T22:15:34 -->> $GPGSV,3,1,10,05,76,290,36,02,60,023,33,42,37,124,,12,31,230,36*75
2017-05-25T22:15:34 -->> $GPGSV,3,2,10,25,27,279,37,193,,,,20,,,32,06,,,32*7C
2017-05-25T22:15:34 -->> $GPGSV,3,3,10,19,,,33,29,,,26*7F
2017-05-25T22:15:34 -->> $GLGSV,1,1,00*65
2017-05-25T22:15:34 -->> $GNRMC,141534.000,A,3030.9431,N,10404.2992,E,0.48,0.00,250517,,,A*70
2017-05-25T22:15:34 -->> $GNVTG,0.00,T,,M,0.48,N,0.89,K,A*2E
2017-05-25T22:15:34 -->> $GNGGA,141535.000,3030.9433,N,10404.2991,E,1,4,2.32,558.7,M,-31.9,M,,*64
2017-05-25T22:15:34 -->> $GPGSA,A,3,05,25,12,02,,,,,,,,,2.52,2.32,0.97*09
2017-05-25T22:15:34 -->> $GLGSA,A,3,,,,,,,,,,,,,2.52,2.32,0.97*16
2017-05-25T22:15:35 -->> $GPGSV,3,1,10,05,76,290,36,02,60,023,33,42,37,124,,12,31,230,36*75
2017-05-25T22:15:35 -->> $GPGSV,3,2,10,25,27,279,37,193,,,31,20,,,32,06,,,32*7E
2017-05-25T22:15:35 -->> $GPGSV,3,3,10,19,,,33,29,,,26*7F
2017-05-25T22:15:35 -->> $GLGSV,1,1,00*65
2017-05-25T22:15:35 -->> $GNRMC,141535.000,A,3030.9433,N,10404.2991,E,0.00,0.00,250517,,,A*7C
2017-05-25T22:15:35 -->> $GNVTG,0.00,T,,M,0.00,N,0.00,K,A*23
2017-05-25T22:15:35 -->> $GNGGA,141536.000,3030.9435,N,10404.2985,E,1,4,2.32,560.4,M,-31.9,M,,*6C
2017-05-25T22:15:35 -->> $GPGSA,A,3,05,25,12,02,,,,,,,,,2.52,2.32,0.97*09
2017-05-25T22:15:35 -->> $GLGSA,A,3,,,,,,,,,,,,,2.52,2.32,0.97*16
2017-05-25T22:15:36 -->> $GPGSV,3,1,10,05,76,290,36,02,60,023,33,42,37,124,,12,31,230,36*75
2017-05-25T22:15:36 -->> $GPGSV,3,2,10,25,27,279,37,193,,,32,20,,,32,06,,,32*7D
2017-05-25T22:15:36 -->> $GPGSV,3,3,10,19,,,33,29,,,27*7E
2017-05-25T22:15:36 -->> $GLGSV,1,1,00*65
2017-05-25T22:15:36 -->> $GNRMC,141536.000,A,3030.9435,N,10404.2985,E,0.00,0.00,250517,,,A*7C
2017-05-25T22:15:36 -->> $GNVTG,0.00,T,,M,0.00,N,0.00,K,A*23
2017-05-25T22:15:36 -->> $GNGGA,141537.000,3030.9436,N,10404.2980,E,1,4,2.32,562.1,M,-31.9,M,,*6C
2017-05-25T22:15:36 -->> $GPGSA,A,3,05,25,12,02,,,,,,,,,2.52,2.32,0.97*09
2017-05-25T22:15:36 -->> $GLGSA,A,3,,,,,,,,,,,,,2.52,2.32,0.97*16
2017-05-25T22:15:37 -->> $GPGSV,3,1,10,05,76,290,36,02,60,023,33,42,37,124,,12,31,230,36*75
2017-05-25T22:15:37 -->> $GPGSV,3,2,10,25,27,279,37,29,20,320,27,193,,,31,20,,,32*44
2017-05-25T22:15:37 -->> $GPGSV,3,3,10,06,,,32,19,,,33*77
2017-05-25T22:15:37 -->> $GLGSV,1,1,00*65
2017-05-25T22:15:37 -->> $GNRMC,141537.000,A,3030.9436,N,10404.2980,E,0.00,0.00,250517,,,A*7B
2017-05-25T22:15:37 -->> $GNVTG,0.00,T,,M,0.00,N,0.00,K,A*23
2017-05-25T22:15:37 -->> $GNGGA,141538.000,3030.9436,N,10404.2980,E,1,4,2.32,562.1,M,-31.9,M,,*63
2017-05-25T22:15:37 -->> $GPGSA,A,3,05,25,12,02,,,,,,,,,2.52,2.32,0.97*09
2017-05-25T22:15:37 -->> $GLGSA,A,3,,,,,,,,,,,,,2.52,2.32,0.97*16
2017-05-25T22:15:38 -->> $GPGSV,3,1,10,05,76,290,36,02,60,023,33,42,37,124,,12,31,230,36*75
2017-05-25T22:15:38 -->> $GPGSV,3,2,10,25,27,279,37,29,20,320,27,193,,,31,20,,,32*44
2017-05-25T22:15:38 -->> $GPGSV,3,3,10,06,,,32,19,,,33*77
2017-05-25T22:15:38 -->> $GLGSV,1,1,00*65
2017-05-25T22:15:38 -->> $GNRMC,141538.000,A,3030.9436,N,10404.2980,E,0.00,0.00,250517,,,A*74
2017-05-25T22:15:38 -->> $GNVTG,0.00,T,,M,0.00,N,0.00,K,A*23
2017-05-25T22:15:38 -->> $GNGGA,141539.000,3030.9436,N,10404.2980,E,1,4,2.32,562.1,M,-31.9,M,,*62
2017-05-25T22:15:38 -->> $GPGSA,A,3,05,25,12,02,,,,,,,,,2.52,2.32,0.97*09
2017-05-25T22:15:38 -->> $GLGSA,A,3,,,,,,,,,,,,,2.52,2.32,0.97*16
2017-05-25T22:15:39 -->> $GPGSV,3,1,10,05,76,290,36,02,60,023,33,42,37,124,,12,31,230,36*75
2017-05-25T22:15:39 -->> $GPGSV,3,2,10,25,27,279,37,29,20,320,27,193,,,30,20,,,32*45
2017-05-25T22:15:39 -->> $GPGSV,3,3,10,06,,,32,19,,,33*77
2017-05-25T22:15:39 -->> $GLGSV,1,1,00*65
2017-05-25T22:15:39 -->> $GNRMC,141539.000,A,3030.9436,N,10404.2980,E,0.00,0.00,250517,,,A*75
2017-05-25T22:15:39 -->> $GNVTG,0.00,T,,M,0.00,N,0.00,K,A*23
2017-05-25T22:15:39 -->> $GNGGA,141540.000,3030.9436,N,10404.2980,E,1,6,2.01,562.1,M,-31.9,M,,*6E
2017-05-25T22:15:39 -->> $GPGSA,A,3,05,25,12,02,,,,,,,,,2.23,2.01,0.97*0F
2017-05-25T22:15:40 -->> $GLGSA,A,3,86,71,,,,,,,,,,,2.23,2.01,0.97*18
2017-05-25T22:15:40 -->> $GPGSV,3,1,10,05,76,290,36,02,60,023,33,44,35,237,,12,31,230,36*70
2017-05-25T22:15:40 -->> $GPGSV,3,2,10,25,27,279,37,29,20,320,27,193,,,31,20,,,32*44
2017-05-25T22:15:40 -->> $GPGSV,3,3,10,06,,,32,19,,,33*77
2017-05-25T22:15:40 -->> $GLGSV,1,1,02,86,64,057,30,71,58,030,30*61
2017-05-25T22:15:40 -->> $GNRMC,141540.000,A,3030.9436,N,10404.2980,E,0.00,0.00,250517,,,A*7B
2017-05-25T22:15:40 -->> $GNVTG,0.00,T,,M,0.00,N,0.00,K,A*23
2017-05-25T22:15:40 -->> $GNGGA,141541.000,3030.9436,N,10404.2980,E,1,6,2.01,562.1,M,-31.9,M,,*6F
2017-05-25T22:15:40 -->> $GPGSA,A,3,05,25,12,02,,,,,,,,,2.23,2.01,0.97*0F
2017-05-25T22:15:41 -->> $GLGSA,A,3,86,71,,,,,,,,,,,2.23,2.01,0.97*18
2017-05-25T22:15:41 -->> $GPGSV,3,1,10,05,76,290,36,02,60,023,33,44,35,237,,12,31,230,36*70
2017-05-25T22:15:41 -->> $GPGSV,3,2,10,25,27,279,37,29,20,320,27,193,,,31,20,,,32*44
2017-05-25T22:15:41 -->> $GPGSV,3,3,10,06,,,32,19,,,33*77
2017-05-25T22:15:41 -->> $GLGSV,1,1,02,86,64,057,31,71,58,030,31*61
2017-05-25T22:15:41 -->> $GNRMC,141541.000,A,3030.9436,N,10404.2980,E,0.00,0.00,250517,,,A*7A
2017-05-25T22:15:41 -->> $GNVTG,0.00,T,,M,0.00,N,0.00,K,A*23
2017-05-25T22:15:41 -->> $GNGGA,141542.000,3030.9436,N,10404.2980,E,1,6,2.01,562.1,M,-31.9,M,,*6C
2017-05-25T22:15:41 -->> $GPGSA,A,3,05,25,12,02,,,,,,,,,2.23,2.01,0.97*0F
2017-05-25T22:15:42 -->> $GLGSA,A,3,86,71,,,,,,,,,,,2.23,2.01,0.97*18
2017-05-25T22:15:42 -->> $GPGSV,3,1,10,05,76,290,36,02,60,023,33,44,35,237,,12,31,230,36*70
2017-05-25T22:15:42 -->> $GPGSV,3,2,10,25,27,279,37,29,20,320,26,193,,,31,20,,,32*45
2017-05-25T22:15:42 -->> $GPGSV,3,3,10,06,,,32,19,,,33*77
2017-05-25T22:15:42 -->> $GLGSV,1,1,02,86,64,057,31,71,58,030,31*61
2017-05-25T22:15:42 -->> $GNRMC,141542.000,A,3030.9436,N,10404.2980,E,0.00,0.00,250517,,,A*79
2017-05-25T22:15:42 -->> $GNVTG,0.00,T,,M,0.00,N,0.00,K,A*23
2017-05-25T22:15:42 -->> $GNGGA,141543.000,3030.9436,N,10404.2980,E,1,6,2.01,562.1,M,-31.9,M,,*6D
2017-05-25T22:15:43 -->> $GPGSA,A,3,05,25,12,02,,,,,,,,,2.23,2.01,0.97*0F
2017-05-25T22:15:43 -->> $GLGSA,A,3,86,71,,,,,,,,,,,2.23,2.01,0.97*18
2017-05-25T22:15:43 -->> $GPGSV,3,1,10,05,76,290,36,02,60,023,33,44,35,237,,12,31,230,36*70
2017-05-25T22:15:43 -->> $GPGSV,3,2,10,25,27,279,37,29,20,320,26,193,,,31,20,,,32*45
2017-05-25T22:15:43 -->> $GPGSV,3,3,10,06,,,32,19,,,33*77
2017-05-25T22:15:43 -->> $GLGSV,1,1,02,86,64,057,31,71,58,030,31*61
2017-05-25T22:15:43 -->> $GNRMC,141543.000,A,3030.9436,N,10404.2980,E,0.00,0.00,250517,,,A*78
2017-05-25T22:15:43 -->> $GNVTG,0.00,T,,M,0.00,N,0.00,K,A*23
2017-05-25T22:15:43 -->> $GNGGA,141544.000,3030.9436,N,10404.2980,E,1,6,2.01,562.1,M,-31.9,M,,*6A
2017-05-25T22:15:44 -->> $GPGSA,A,3,05,25,12,02,,,,,,,,,2.23,2.01,0.97*0F
2017-05-25T22:15:44 -->> $GLGSA,A,3,86,71,,,,,,,,,,,2.23,2.01,0.97*18
2017-05-25T22:15:44 -->> $GPGSV,3,1,10,05,76,290,36,02,60,023,33,44,35,237,,12,31,230,36*70
2017-05-25T22:15:44 -->> $GPGSV,3,2,10,25,27,279,37,29,20,320,26,193,,,31,20,,,32*45
2017-05-25T22:15:44 -->> $GPGSV,3,3,10,06,,,32,19,,,33*77
2017-05-25T22:15:44 -->> $GLGSV,1,1,03,86,64,057,31,71,58,030,31,70,08,030,*5C
2017-05-25T22:15:44 -->> $GNRMC,141544.000,A,3030.9436,N,10404.2980,E,0.00,0.00,250517,,,A*7F
2017-05-25T22:15:44 -->> $GNVTG,0.00,T,,M,0.00,N,0.00,K,A*23
2017-05-25T22:15:44 -->> $GNGGA,141545.000,3030.9436,N,10404.2980,E,1,6,2.01,562.1,M,-31.9,M,,*6B
2017-05-25T22:15:44 -->> $GPGSA,A,3,05,25,12,02,,,,,,,,,2.23,2.01,0.97*0F
2017-05-25T22:15:45 -->> $GLGSA,A,3,86,71,,,,,,,,,,,2.23,2.01,0.97*18
2017-05-25T22:15:45 -->> $GPGSV,3,1,10,05,76,290,36,02,60,023,33,44,35,237,,12,31,230,36*70
2017-05-25T22:15:45 -->> $GPGSV,3,2,10,25,27,279,37,29,20,320,27,193,,,31,20,,,32*44
2017-05-25T22:15:45 -->> $GPGSV,3,3,10,06,,,32,19,,,32*76
2017-05-25T22:15:45 -->> $GLGSV,1,1,03,86,64,057,31,71,58,030,31,70,08,030,*5C
2017-05-25T22:15:45 -->> $GNRMC,141545.000,A,3030.9436,N,10404.2980,E,0.00,0.00,250517,,,A*7E
2017-05-25T22:15:45 -->> $GNVTG,0.00,T,,M,0.00,N,0.00,K,A*23
2017-05-25T22:15:45 -->> $GNGGA,141546.000,3030.9436,N,10404.2980,E,1,6,2.01,562.1,M,-31.9,M,,*68
2017-05-25T22:15:46 -->> $GPGSA,A,3,05,25,12,02,,,,,,,,,2.23,2.01,0.97*0F
2017-05-25T22:15:46 -->> $GLGSA,A,3,86,71,,,,,,,,,,,2.23,2.01,0.97*18
2017-05-25T22:15:46 -->> $GPGSV,3,1,10,05,76,290,36,02,60,023,33,44,35,237,,12,31,230,36*70
2017-05-25T22:15:46 -->> $GPGSV,3,2,10,25,27,279,37,29,20,320,28,193,,,31,20,,,32*4B
2017-05-25T22:15:46 -->> $GPGSV,3,3,10,06,,,32,19,,,32*76
2017-05-25T22:15:46 -->> $GLGSV,1,1,03,86,64,057,31,71,58,030,31,70,08,030,*5C
2017-05-25T22:15:46 -->> $GNRMC,141546.000,A,3030.9436,N,10404.2980,E,0.00,0.00,250517,,,A*7D
2017-05-25T22:15:46 -->> $GNVTG,0.00,T,,M,0.00,N,0.00,K,A*23
2017-05-25T22:15:46 -->> $GNGGA,141547.000,3030.9436,N,10404.2980,E,1,6,2.01,562.1,M,-31.9,M,,*69
2017-05-25T22:15:46 -->> $GPGSA,A,3,05,25,12,02,,,,,,,,,2.23,2.01,0.97*0F
2017-05-25T22:15:47 -->> $GLGSA,A,3,86,71,,,,,,,,,,,2.23,2.01,0.97*18
2017-05-25T22:15:47 -->> $GPGSV,3,1,10,05,76,290,36,02,60,023,33,44,35,237,,12,31,230,36*70
2017-05-25T22:15:47 -->> $GPGSV,3,2,10,25,27,279,37,29,20,320,28,193,,,31,20,,,32*4B
2017-05-25T22:15:47 -->> $GPGSV,3,3,10,06,,,32,19,,,32*76
2017-05-25T22:15:47 -->> $GLGSV,1,1,03,86,64,057,31,71,58,030,31,70,08,030,*5C
2017-05-25T22:15:47 -->> $GNRMC,141547.000,A,3030.9436,N,10404.2980,E,0.00,0.00,250517,,,A*7C
2017-05-25T22:15:47 -->> $GNVTG,0.00,T,,M,0.00,N,0.00,K,A*23
2017-05-25T22:15:47 -->> $GNGGA,141548.000,3030.9436,N,10404.2980,E,1,6,2.01,562.1,M,-31.9,M,,*66
2017-05-25T22:15:48 -->> $GPGSA,A,3,05,25,12,02,,,,,,,,,2.23,2.01,0.97*0F
2017-05-25T22:15:48 -->> $GLGSA,A,3,86,71,,,,,,,,,,,2.23,2.01,0.97*18
2017-05-25T22:15:48 -->> $GPGSV,3,1,10,05,76,290,36,02,60,023,33,44,35,237,,12,31,230,36*70
2017-05-25T22:15:48 -->> $GPGSV,3,2,10,25,27,279,37,29,20,320,28,193,,,31,20,,,32*4B
2017-05-25T22:15:48 -->> $GPGSV,3,3,10,06,,,32,19,,,32*76
2017-05-25T22:15:48 -->> $GLGSV,1,1,03,86,64,057,31,71,58,030,31,70,08,030,*5C
2017-05-25T22:15:48 -->> $GNRMC,141548.000,A,3030.9436,N,10404.2980,E,0.00,0.00,250517,,,A*73
2017-05-25T22:15:48 -->> $GNVTG,0.00,T,,M,0.00,N,0.00,K,A*23
2017-05-25T22:15:49 -->> $GNGGA,141549.000,3030.9436,N,10404.2980,E,1,9,1.08,562.1,M,-31.9,M,,*62
2017-05-25T22:15:49 -->> $GPGSA,A,3,05,25,12,02,20,06,19,,,,,,1.40,1.08,0.89*00
2017-05-25T22:15:49 -->> $GLGSA,A,3,86,71,,,,,,,,,,,1.40,1.08,0.89*1B
2017-05-25T22:15:49 -->> $GPGSV,3,1,10,05,76,290,36,02,60,023,33,40,34,238,,12,31,230,36*7A
2017-05-25T22:15:49 -->> $GPGSV,3,2,10,20,29,245,32,06,27,077,32,25,27,279,37,19,20,138,32*7B
2017-05-25T22:15:49 -->> $GPGSV,3,3,10,29,20,320,28,193,,,31*73
2017-05-25T22:15:49 -->> $GLGSV,1,1,03,86,64,057,31,71,58,030,31,70,08,030,*5C
2017-05-25T22:15:49 -->> $GNRMC,141549.000,A,3030.9436,N,10404.2980,E,0.00,0.00,250517,,,A*72
2017-05-25T22:15:49 -->> $GNVTG,0.00,T,,M,0.00,N,0.00,K,A*23
2017-05-25T22:15:49 -->> $GNGGA,141550.000,3030.9436,N,10404.2980,E,1,9,1.08,562.1,M,-31.9,M,,*6A
2017-05-25T22:15:50 -->> $GPGSA,A,3,05,25,12,02,20,06,19,,,,,,1.40,1.08,0.89*00
2017-05-25T22:15:50 -->> $GLGSA,A,3,86,71,,,,,,,,,,,1.40,1.08,0.89*1B
2017-05-25T22:15:50 -->> $GPGSV,3,1,10,05,76,290,36,02,60,023,33,40,34,238,,12,31,230,36*7A
2017-05-25T22:15:50 -->> $GPGSV,3,2,10,20,29,245,32,06,27,077,32,25,27,279,37,19,20,138,32*7B
2017-05-25T22:15:50 -->> $GPGSV,3,3,10,29,20,320,28,193,,,31*73
2017-05-25T22:15:50 -->> $GLGSV,1,1,03,86,64,057,31,71,58,030,31,70,08,030,*5C
2017-05-25T22:15:50 -->> $GNRMC,141550.000,A,3030.9436,N,10404.2980,E,0.00,0.00,250517,,,A*7A
2017-05-25T22:15:50 -->> $GNVTG,0.00,T,,M,0.00,N,0.00,K,A*23
2017-05-25T22:15:51 -->> $GNGGA,141551.000,3030.9436,N,10404.2980,E,1,9,1.08,562.1,M,-31.9,M,,*6B
2017-05-25T22:15:51 -->> $GPGSA,A,3,05,25,12,02,20,06,19,,,,,,1.40,1.08,0.89*00
2017-05-25T22:15:51 -->> $GLGSA,A,3,86,71,,,,,,,,,,,1.40,1.08,0.89*1B
2017-05-25T22:15:51 -->> $GPGSV,3,1,10,05,76,290,36,02,60,023,33,40,34,238,,12,31,230,35*79
2017-05-25T22:15:51 -->> $GPGSV,3,2,10,20,29,245,32,06,27,077,32,25,27,279,37,19,20,138,32*7B
2017-05-25T22:15:51 -->> $GPGSV,3,3,10,29,20,320,27,193,,,31*7C
2017-05-25T22:15:51 -->> $GLGSV,1,1,03,86,64,057,32,71,58,030,31,70,08,030,*5F
2017-05-25T22:15:51 -->> $GNRMC,141551.000,A,3030.9436,N,10404.2980,E,0.00,0.00,250517,,,A*7B
2017-05-25T22:15:51 -->> $GNVTG,0.00,T,,M,0.00,N,0.00,K,A*23
2017-05-25T22:15:51 -->> $GNGGA,141552.000,3030.9436,N,10404.2980,E,1,9,1.08,562.1,M,-31.9,M,,*68
2017-05-25T22:15:52 -->> $GPGSA,A,3,05,25,12,02,20,06,19,,,,,,1.40,1.08,0.89*00
2017-05-25T22:15:52 -->> $GLGSA,A,3,86,71,,,,,,,,,,,1.40,1.08,0.89*1B
2017-05-25T22:15:52 -->> $GPGSV,3,1,10,05,76,290,36,02,60,023,33,40,34,238,,12,31,230,35*79
2017-05-25T22:15:52 -->> $GPGSV,3,2,10,20,29,245,32,06,27,077,32,25,27,279,37,19,20,138,32*7B
2017-05-25T22:15:52 -->> $GPGSV,3,3,10,29,20,320,27,193,,,31*7C
2017-05-25T22:15:52 -->> $GLGSV,1,1,04,72,65,210,,86,64,057,31,71,58,030,31,70,08,030,*6E
2017-05-25T22:15:52 -->> $GNRMC,141552.000,A,3030.9436,N,10404.2980,E,0.00,0.00,250517,,,A*78
2017-05-25T22:15:52 -->> $GNVTG,0.00,T,,M,0.00,N,0.00,K,A*23
2017-05-25T22:15:52 -->> $GNGGA,141553.000,3030.9436,N,10404.2980,E,1,9,1.08,562.1,M,-31.9,M,,*69
2017-05-25T22:15:53 -->> $GPGSA,A,3,05,25,12,02,20,06,19,,,,,,1.40,1.08,0.89*00
2017-05-25T22:15:53 -->> $GLGSA,A,3,86,71,,,,,,,,,,,1.40,1.08,0.89*1B
2017-05-25T22:15:53 -->> $GPGSV,3,1,10,05,76,290,36,02,60,023,33,40,34,238,31,12,31,230,35*7B
2017-05-25T22:15:53 -->> $GPGSV,3,2,10,20,29,245,32,06,27,077,32,25,27,279,37,19,20,138,32*7B
2017-05-25T22:15:53 -->> $GPGSV,3,3,10,29,20,320,27,193,,,31*7C
2017-05-25T22:15:53 -->> $GLGSV,1,1,04,72,65,210,,86,64,057,31,71,58,030,31,70,08,030,*6E
2017-05-25T22:15:53 -->> $GNRMC,141553.000,A,3030.9436,N,10404.2980,E,0.00,0.00,250517,,,A*79
2017-05-25T22:15:53 -->> $GNVTG,0.00,T,,M,0.00,N,0.00,K,A*23
2017-05-25T22:15:53 -->> $GNGGA,141554.000,3030.9436,N,10404.2980,E,1,9,1.08,562.1,M,-31.9,M,,*6E
2017-05-25T22:15:54 -->> $GPGSA,A,3,05,25,12,02,20,06,19,,,,,,1.40,1.08,0.89*00
2017-05-25T22:15:54 -->> $GLGSA,A,3,86,71,,,,,,,,,,,1.40,1.08,0.89*1B
2017-05-25T22:15:54 -->> $GPGSV,3,1,10,05,76,290,36,02,60,023,33,40,34,238,31,12,31,230,35*7B
2017-05-25T22:15:54 -->> $GPGSV,3,2,10,20,29,245,32,06,27,077,32,25,27,279,37,19,20,138,32*7B
2017-05-25T22:15:54 -->> $GPGSV,3,3,10,29,20,320,28,193,,,31*73
2017-05-25T22:15:54 -->> $GLGSV,1,1,04,72,65,210,,86,64,057,31,71,58,030,31,70,08,030,*6E
2017-05-25T22:15:54 -->> $GNRMC,141554.000,A,3030.9436,N,10404.2980,E,0.00,0.00,250517,,,A*7E
2017-05-25T22:15:54 -->> $GNVTG,0.00,T,,M,0.00,N,0.00,K,A*23
2017-05-25T22:15:55 -->> $GNGGA,141555.000,3030.9446,N,10404.2918,E,1,9,1.08,575.3,M,-31.9,M,,*6D
2017-05-25T22:15:55 -->> $GPGSA,A,3,05,25,12,02,20,06,19,,,,,,1.40,1.08,0.89*00
2017-05-25T22:15:55 -->> $GLGSA,A,3,86,71,,,,,,,,,,,1.40,1.08,0.89*1B
2017-05-25T22:15:55 -->> $GPGSV,3,1,10,05,76,290,36,02,60,023,33,40,34,238,30,12,31,230,35*7A
2017-05-25T22:15:55 -->> $GPGSV,3,2,10,20,29,245,32,06,27,077,32,25,27,279,37,19,20,138,32*7B
2017-05-25T22:15:55 -->> $GPGSV,3,3,10,29,20,320,28,193,,,31*73
2017-05-25T22:15:55 -->> $GLGSV,1,1,04,72,65,210,,86,64,057,31,71,58,030,31,70,08,030,*6E
2017-05-25T22:15:55 -->> $GNRMC,141555.000,A,3030.9446,N,10404.2918,E,0.01,96.84,250517,,,A*4B
2017-05-25T22:15:55 -->> $GNVTG,96.84,T,,M,0.01,N,0.03,K,A*12
2017-05-25T22:15:56 -->> $GNGGA,141556.000,3030.9446,N,10404.2917,E,1,9,1.08,575.5,M,-31.9,M,,*67
2017-05-25T22:15:56 -->> $GPGSA,A,3,05,25,12,02,20,06,19,,,,,,1.40,1.08,0.89*00
2017-05-25T22:15:56 -->> $GLGSA,A,3,86,71,,,,,,,,,,,1.40,1.08,0.89*1B
2017-05-25T22:15:56 -->> $GPGSV,3,1,10,05,76,290,36,02,60,023,33,40,34,238,30,12,31,230,35*7A
2017-05-25T22:15:56 -->> $GPGSV,3,2,10,20,29,245,32,06,27,077,32,25,27,279,37,19,20,138,33*7A
2017-05-25T22:15:56 -->> $GPGSV,3,3,10,29,20,320,29,193,,,31*72
2017-05-25T22:15:56 -->> $GLGSV,1,1,04,72,65,210,,86,64,057,31,71,58,030,31,70,08,030,*6E
2017-05-25T22:15:56 -->> $GNRMC,141556.000,A,3030.9446,N,10404.2917,E,0.00,96.84,250517,,,A*46
2017-05-25T22:15:56 -->> $GNVTG,96.84,T,,M,0.00,N,0.00,K,A*10
2017-05-25T22:15:56 -->> $GNGGA,141557.000,3030.9446,N,10404.2916,E,1,9,1.28,575.5,M,-31.9,M,,*65
2017-05-25T22:15:57 -->> $GPGSA,A,3,05,25,12,02,20,06,19,,,,,,2.38,1.28,2.00*0D
2017-05-25T22:15:57 -->> $GLGSA,A,3,86,71,,,,,,,,,,,2.38,1.28,2.00*16
2017-05-25T22:15:57 -->> $GPGSV,3,1,10,05,76,290,36,02,60,023,33,40,34,238,30,12,31,230,35*7A
2017-05-25T22:15:57 -->> $GPGSV,3,2,10,20,29,245,32,06,27,077,32,25,27,279,37,19,20,138,33*7A
2017-05-25T22:15:57 -->> $GPGSV,3,3,10,29,20,320,29,193,,,31*72
2017-05-25T22:15:57 -->> $GLGSV,1,1,04,72,65,210,,86,64,057,31,71,58,030,31,70,08,030,*6E
2017-05-25T22:15:57 -->> $GNRMC,141557.000,A,3030.9446,N,10404.2916,E,0.00,96.84,250517,,,A*46
2017-05-25T22:15:57 -->> $GNVTG,96.84,T,,M,0.00,N,0.00,K,A*10
2017-05-25T22:15:58 -->> $GNGGA,141558.000,3030.9446,N,10404.2915,E,1,9,1.08,575.7,M,-31.9,M,,*69
2017-05-25T22:15:58 -->> $GPGSA,A,3,05,25,12,02,20,06,19,,,,,,1.40,1.08,0.89*00
2017-05-25T22:15:58 -->> $GLGSA,A,3,86,71,,,,,,,,,,,1.40,1.08,0.89*1B
2017-05-25T22:15:58 -->> $GPGSV,3,1,10,05,76,290,36,02,60,023,33,40,34,238,31,12,31,230,35*7B
2017-05-25T22:15:58 -->> $GPGSV,3,2,10,20,29,245,32,06,27,077,32,25,27,279,37,19,20,138,33*7A
2017-05-25T22:15:58 -->> $GPGSV,3,3,10,29,20,320,29,193,,,31*72
2017-05-25T22:15:58 -->> $GLGSV,1,1,04,72,65,210,,86,64,057,31,71,58,030,31,70,08,030,*6E
2017-05-25T22:15:58 -->> $GNRMC,141558.000,A,3030.9446,N,10404.2915,E,0.00,96.84,250517,,,A*4A
2017-05-25T22:15:58 -->> $GNVTG,96.84,T,,M,0.00,N,0.00,K,A*10
2017-05-25T22:15:58 -->> $GNGGA,141559.000,3030.9446,N,10404.2915,E,1,9,1.08,575.7,M,-31.9,M,,*68
2017-05-25T22:15:59 -->> $GPGSA,A,3,05,25,12,02,20,06,19,,,,,,1.40,1.08,0.89*00
2017-05-25T22:15:59 -->> $GLGSA,A,3,86,71,,,,,,,,,,,1.40,1.08,0.89*1B
2017-05-25T22:15:59 -->> $GPGSV,3,1,10,05,76,290,36,02,60,023,33,40,34,238,31,12,31,230,35*7B
2017-05-25T22:15:59 -->> $GPGSV,3,2,10,20,30,245,32,06,27,077,32,25,27,279,37,19,20,138,33*72
2017-05-25T22:15:59 -->> $GPGSV,3,3,10,29,20,320,28,193,,,31*73
2017-05-25T22:15:59 -->> $GLGSV,1,1,04,72,65,210,,86,64,057,31,71,58,030,31,70,08,030,*6E
2017-05-25T22:15:59 -->> $GNRMC,141559.000,A,3030.9446,N,10404.2915,E,0.00,96.84,250517,,,A*4B
2017-05-25T22:15:59 -->> $GNVTG,96.84,T,,M,0.00,N,0.00,K,A*10
2017-05-25T22:15:59 -->> $GNGGA,141600.000,3030.9446,N,10404.2915,E,1,9,1.29,575.7,M,-31.9,M,,*64
2017-05-25T22:16:00 -->> $GPGSA,A,3,05,25,12,02,20,06,19,,,,,,2.38,1.29,2.00*0C
2017-05-25T22:16:00 -->> $GLGSA,A,3,86,71,,,,,,,,,,,2.38,1.29,2.00*17
2017-05-25T22:16:00 -->> $GPGSV,3,1,10,05,76,290,36,02,60,023,33,40,34,238,30,12,31,230,35*7A
2017-05-25T22:16:00 -->> $GPGSV,3,2,10,20,30,245,32,06,27,077,32,25,27,279,37,19,20,138,33*72
2017-05-25T22:16:00 -->> $GPGSV,3,3,10,29,20,320,28,193,,,31*73
2017-05-25T22:16:00 -->> $GLGSV,1,1,04,72,65,210,,86,64,057,31,71,58,030,31,70,08,030,*6E
2017-05-25T22:16:00 -->> $GNRMC,141600.000,A,3030.9446,N,10404.2915,E,0.00,96.84,250517,,,A*44
2017-05-25T22:16:00 -->> $GNVTG,96.84,T,,M,0.00,N,0.00,K,A*10
2017-05-25T22:16:01 -->> $GNGGA,141601.000,3030.9446,N,10404.2915,E,1,11,0.90,575.7,M,-31.9,M,,*5F
2017-05-25T22:16:01 -->> $GPGSA,A,3,05,25,12,02,20,06,19,29,193,,,,1.22,0.90,0.82*3F
2017-05-25T22:16:01 -->> $GLGSA,A,3,86,71,,,,,,,,,,,1.22,0.90,0.82*14
2017-05-25T22:16:01 -->> $GPGSV,3,1,10,05,76,290,36,02,60,023,33,40,34,238,30,12,31,230,35*7A
2017-05-25T22:16:01 -->> $GPGSV,3,2,10,20,30,245,32,06,27,077,32,25,27,279,37,29,20,320,28*70
2017-05-25T22:16:01 -->> $GPGSV,3,3,10,19,20,138,33,193,,,31*71
2017-05-25T22:16:01 -->> $GLGSV,1,1,04,72,65,210,,86,64,057,31,71,58,030,31,70,08,030,*6E
2017-05-25T22:16:01 -->> $GNRMC,141601.000,A,3030.9446,N,10404.2915,E,0.00,96.84,250517,,,A*45
2017-05-25T22:16:01 -->> $GNVTG,96.84,T,,M,0.00,N,0.00,K,A*10
2017-05-25T22:16:02 -->> $GNGGA,141602.000,3030.9446,N,10404.2915,E,1,11,0.90,575.7,M,-31.9,M,,*5C
2017-05-25T22:16:02 -->> $GPGSA,A,3,05,25,12,02,20,06,19,29,193,,,,1.22,0.90,0.82*3F
2017-05-25T22:16:02 -->> $GLGSA,A,3,86,71,,,,,,,,,,,1.22,0.90,0.82*14
2017-05-25T22:16:02 -->> $GPGSV,3,1,10,05,76,290,36,02,60,023,33,40,34,238,30,12,31,230,35*7A
2017-05-25T22:16:02 -->> $GPGSV,3,2,10,20,30,245,32,06,27,077,32,25,27,279,37,29,20,320,28*70
2017-05-25T22:16:02 -->> $GPGSV,3,3,10,19,20,138,33,193,,,31*71
2017-05-25T22:16:02 -->> $GLGSV,1,1,04,72,65,210,24,86,64,057,31,71,58,030,31,70,08,030,*68
2017-05-25T22:16:02 -->> $GNRMC,141602.000,A,3030.9446,N,10404.2915,E,0.00,96.84,250517,,,A*46
2017-05-25T22:16:02 -->> $GNVTG,96.84,T,,M,0.00,N,0.00,K,A*10
2017-05-25T22:16:03 -->> $GNGGA,141603.000,3030.9446,N,10404.2915,E,1,11,0.90,575.7,M,-31.9,M,,*5D
2017-05-25T22:16:03 -->> $GPGSA,A,3,05,25,12,02,20,06,19,29,193,,,,1.22,0.90,0.82*3F
2017-05-25T22:16:03 -->> $GLGSA,A,3,86,71,,,,,,,,,,,1.22,0.90,0.82*14
2017-05-25T22:16:03 -->> $GPGSV,3,1,10,05,76,290,36,02,60,023,33,40,34,238,30,12,31,230,35*7A
2017-05-25T22:16:03 -->> $GPGSV,3,2,10,20,30,245,32,06,27,077,32,25,27,279,37,29,20,320,28*70
2017-05-25T22:16:03 -->> $GPGSV,3,3,10,19,20,138,33,193,,,31*71
2017-05-25T22:16:03 -->> $GLGSV,1,1,04,72,65,210,,86,64,057,31,71,58,030,31,70,08,030,*6E
2017-05-25T22:16:03 -->> $GNRMC,141603.000,A,3030.9446,N,10404.2915,E,0.00,96.84,250517,,,A*47
2017-05-25T22:16:03 -->> $GNVTG,96.84,T,,M,0.00,N,0.00,K,A*10
2017-05-25T22:16:04 -->> $GNGGA,141604.000,3030.9446,N,10404.2915,E,1,11,0.90,575.7,M,-31.9,M,,*5A
2017-05-25T22:16:04 -->> $GPGSA,A,3,05,25,12,02,20,06,19,29,193,,,,1.22,0.90,0.82*3F
2017-05-25T22:16:04 -->> $GLGSA,A,3,86,71,,,,,,,,,,,1.22,0.90,0.82*14
2017-05-25T22:16:04 -->> $GPGSV,3,1,10,05,76,290,36,02,60,023,33,40,34,238,31,12,31,230,35*7B
2017-05-25T22:16:04 -->> $GPGSV,3,2,10,20,30,245,32,06,27,077,32,25,27,279,36,29,20,320,28*71
2017-05-25T22:16:04 -->> $GPGSV,3,3,10,19,20,138,33,193,,,31*71
2017-05-25T22:16:04 -->> $GLGSV,1,1,04,72,65,210,27,86,64,057,31,71,58,030,31,70,08,030,*6B
2017-05-25T22:16:04 -->> $GNRMC,141604.000,A,3030.9446,N,10404.2915,E,0.00,96.84,250517,,,A*40
2017-05-25T22:16:04 -->> $GNVTG,96.84,T,,M,0.00,N,0.00,K,A*10
2017-05-25T22:16:05 -->> $GNGGA,141605.000,3030.9446,N,10404.2915,E,1,11,0.90,575.7,M,-31.9,M,,*5B
2017-05-25T22:16:05 -->> $GPGSA,A,3,05,25,12,02,20,06,19,29,193,,,,1.22,0.90,0.82*3F
2017-05-25T22:16:05 -->> $GLGSA,A,3,86,71,,,,,,,,,,,1.22,0.90,0.82*14
2017-05-25T22:16:05 -->> $GPGSV,3,1,10,05,76,290,36,02,60,023,33,40,34,238,31,12,31,230,35*7B
2017-05-25T22:16:05 -->> $GPGSV,3,2,10,20,30,245,32,06,27,077,32,25,26,278,36,29,20,320,29*70
2017-05-25T22:16:05 -->> $GPGSV,3,3,10,19,20,138,33,193,,,31*71
2017-05-25T22:16:05 -->> $GLGSV,1,1,04,72,65,210,28,86,64,057,31,71,58,030,31,70,08,030,*64
2017-05-25T22:16:05 -->> $GNRMC,141605.000,A,3030.9446,N,10404.2915,E,0.00,96.84,250517,,,A*41
2017-05-25T22:16:05 -->> $GNVTG,96.84,T,,M,0.00,N,0.00,K,A*10
2017-05-25T22:16:06 -->> $GNGGA,141606.000,3030.9446,N,10404.2915,E,1,11,0.90,575.7,M,-31.9,M,,*58
2017-05-25T22:16:06 -->> $GPGSA,A,3,05,25,12,02,20,06,19,29,193,,,,1.22,0.90,0.82*3F
2017-05-25T22:16:06 -->> $GLGSA,A,3,86,71,,,,,,,,,,,1.22,0.90,0.82*14
2017-05-25T22:16:06 -->> $GPGSV,3,1,10,05,76,290,36,02,60,023,33,40,34,238,31,12,31,230,35*7B
2017-05-25T22:16:06 -->> $GPGSV,3,2,10,20,30,245,32,06,27,077,32,25,26,278,36,29,20,320,29*70
2017-05-25T22:16:06 -->> $GPGSV,3,3,10,19,20,138,33,193,,,31*71
2017-05-25T22:16:06 -->> $GLGSV,1,1,04,72,65,210,28,86,64,057,31,71,58,030,31,70,08,030,*64
2017-05-25T22:16:06 -->> $GNRMC,141606.000,A,3030.9446,N,10404.2915,E,0.00,96.84,250517,,,A*42
2017-05-25T22:16:06 -->> $GNVTG,96.84,T,,M,0.00,N,0.00,K,A*10
2017-05-25T22:16:07 -->> $GNGGA,141607.000,3030.9446,N,10404.2915,E,1,11,0.90,575.7,M,-31.9,M,,*59
2017-05-25T22:16:07 -->> $GPGSA,A,3,05,25,12,02,20,06,19,29,193,,,,1.22,0.90,0.82*3F
2017-05-25T22:16:07 -->> $GLGSA,A,3,86,71,,,,,,,,,,,1.22,0.90,0.82*14
2017-05-25T22:16:07 -->> $GPGSV,3,1,10,05,76,290,36,02,60,023,33,40,34,238,30,12,31,230,35*7A
2017-05-25T22:16:07 -->> $GPGSV,3,2,10,20,30,245,32,06,27,077,32,25,26,278,36,29,20,320,29*70
2017-05-25T22:16:07 -->> $GPGSV,3,3,10,19,20,138,33,193,,,31*71
2017-05-25T22:16:07 -->> $GLGSV,1,1,04,72,65,210,27,86,64,057,31,71,58,030,31,70,08,030,*6B
2017-05-25T22:16:07 -->> $GNRMC,141607.000,A,3030.9446,N,10404.2915,E,0.00,96.84,250517,,,A*43
2017-05-25T22:16:07 -->> $GNVTG,96.84,T,,M,0.00,N,0.00,K,A*10
2017-05-25T22:16:08 -->> $GNGGA,141608.000,3030.9446,N,10404.2915,E,1,11,0.90,575.7,M,-31.9,M,,*56
2017-05-25T22:16:08 -->> $GPGSA,A,3,05,25,12,02,20,06,19,29,193,,,,1.22,0.90,0.82*3F
2017-05-25T22:16:08 -->> $GLGSA,A,3,86,71,,,,,,,,,,,1.22,0.90,0.82*14
2017-05-25T22:16:08 -->> $GPGSV,3,1,10,05,76,290,36,02,60,023,34,40,34,238,30,12,31,230,35*7D
2017-05-25T22:16:08 -->> $GPGSV,3,2,10,20,30,245,32,06,27,077,32,25,26,278,36,29,20,320,29*70
2017-05-25T22:16:08 -->> $GPGSV,3,3,10,19,20,138,33,193,,,31*71
2017-05-25T22:16:08 -->> $GLGSV,1,1,04,72,65,210,27,86,64,057,31,71,58,030,31,70,08,030,*6B
2017-05-25T22:16:08 -->> $GNRMC,141608.000,A,3030.9446,N,10404.2915,E,0.00,96.84,250517,,,A*4C
2017-05-25T22:16:08 -->> $GNVTG,96.84,T,,M,0.00,N,0.00,K,A*10
2017-05-25T22:16:09 -->> $GNGGA,141609.000,3030.9446,N,10404.2915,E,1,11,0.90,575.7,M,-31.9,M,,*57
2017-05-25T22:16:09 -->> $GPGSA,A,3,05,25,12,02,20,06,19,29,193,,,,1.22,0.90,0.82*3F
2017-05-25T22:16:09 -->> $GLGSA,A,3,86,71,,,,,,,,,,,1.22,0.90,0.82*14
2017-05-25T22:16:09 -->> $GPGSV,3,1,10,05,76,290,36,02,60,023,34,40,34,238,30,12,31,230,35*7D
2017-05-25T22:16:09 -->> $GPGSV,3,2,10,20,30,245,32,06,27,077,33,25,26,278,36,29,20,320,29*71
2017-05-25T22:16:09 -->> $GPGSV,3,3,10,19,20,138,33,193,,,31*71
2017-05-25T22:16:09 -->> $GLGSV,1,1,04,72,65,210,27,86,64,057,31,71,58,030,31,70,08,030,*6B
2017-05-25T22:16:09 -->> $GNRMC,141609.000,A,3030.9446,N,10404.2915,E,0.00,96.84,250517,,,A*4D
2017-05-25T22:16:09 -->> $GNVTG,96.84,T,,M,0.00,N,0.00,K,A*10
2017-05-25T22:16:10 -->> $GNGGA,141610.000,3030.9446,N,10404.2915,E,1,12,0.85,575.7,M,-31.9,M,,*58
2017-05-25T22:16:10 -->> $GPGSA,A,3,05,25,12,02,20,06,19,29,193,,,,1.17,0.85,0.81*3E
2017-05-25T22:16:10 -->> $GLGSA,A,3,86,71,85,,,,,,,,,,1.17,0.85,0.81*18
2017-05-25T22:16:10 -->> $GPGSV,3,1,10,05,76,290,36,02,60,023,34,40,34,238,30,12,31,230,35*7D
2017-05-25T22:16:10 -->> $GPGSV,3,2,10,20,30,245,32,06,27,077,33,25,26,278,36,29,20,320,29*71
2017-05-25T22:16:10 -->> $GPGSV,3,3,10,19,20,138,33,193,,,32*72
2017-05-25T22:16:10 -->> $GLGSV,2,1,05,72,65,210,27,86,64,057,31,71,58,030,31,85,23,119,30*63
2017-05-25T22:16:10 -->> $GLGSV,2,2,05,70,08,030,*5C
2017-05-25T22:16:10 -->> $GNRMC,141610.000,A,3030.9446,N,10404.2915,E,0.00,96.84,250517,,,A*45
2017-05-25T22:16:10 -->> $GNVTG,96.84,T,,M,0.00,N,0.00,K,A*10
2017-05-25T22:16:11 -->> $GNGGA,141611.000,3030.9446,N,10404.2915,E,1,12,0.85,575.7,M,-31.9,M,,*59
2017-05-25T22:16:11 -->> $GPGSA,A,3,05,25,12,02,20,06,19,29,193,,,,1.17,0.85,0.81*3E
2017-05-25T22:16:11 -->> $GLGSA,A,3,86,71,85,,,,,,,,,,1.17,0.85,0.81*18
2017-05-25T22:16:11 -->> $GPGSV,3,1,10,05,76,290,36,02,60,023,34,40,34,238,30,12,31,230,35*7D
2017-05-25T22:16:11 -->> $GPGSV,3,2,10,20,30,245,32,06,27,077,33,25,26,278,36,29,21,320,29*70
2017-05-25T22:16:11 -->> $GPGSV,3,3,10,19,20,138,33,193,,,31*71
2017-05-25T22:16:11 -->> $GLGSV,2,1,05,72,65,210,27,86,64,057,31,71,58,030,31,85,23,119,30*63
2017-05-25T22:16:11 -->> $GLGSV,2,2,05,70,08,030,*5C
2017-05-25T22:16:11 -->> $GNRMC,141611.000,A,3030.9446,N,10404.2915,E,0.00,96.84,250517,,,A*44
2017-05-25T22:16:11 -->> $GNVTG,96.84,T,,M,0.00,N,0.00,K,A*10
2017-05-25T22:16:12 -->> $GNGGA,141612.000,3030.9446,N,10404.2915,E,1,12,0.85,575.7,M,-31.9,M,,*5A
2017-05-25T22:16:12 -->> $GPGSA,A,3,05,25,12,02,20,06,19,29,193,,,,1.17,0.85,0.81*3E
2017-05-25T22:16:12 -->> $GLGSA,A,3,86,71,85,,,,,,,,,,1.17,0.85,0.81*18
2017-05-25T22:16:12 -->> $GPGSV,3,1,10,05,76,290,36,02,60,023,34,40,34,238,30,12,31,230,35*7D
2017-05-25T22:16:12 -->> $GPGSV,3,2,10,20,30,245,32,06,27,077,33,25,26,278,36,29,21,320,29*70
2017-05-25T22:16:12 -->> $GPGSV,3,3,10,19,20,138,33,193,,,31*71
2017-05-25T22:16:12 -->> $GLGSV,2,1,05,72,65,210,27,86,64,057,31,71,58,030,31,85,23,119,30*63
2017-05-25T22:16:12 -->> $GLGSV,2,2,05,70,08,030,*5C
2017-05-25T22:16:12 -->> $GNRMC,141612.000,A,3030.9446,N,10404.2915,E,0.00,96.84,250517,,,A*47
2017-05-25T22:16:12 -->> $GNVTG,96.84,T,,M,0.00,N,0.00,K,A*10
2017-05-25T22:16:13 -->> $GNGGA,141613.000,3030.9446,N,10404.2915,E,1,12,0.85,575.7,M,-31.9,M,,*5B
2017-05-25T22:16:13 -->> $GPGSA,A,3,05,25,12,02,20,06,19,29,193,,,,1.17,0.85,0.81*3E
2017-05-25T22:16:13 -->> $GLGSA,A,3,86,71,85,,,,,,,,,,1.17,0.85,0.81*18
2017-05-25T22:16:13 -->> $GPGSV,3,1,10,05,76,290,35,02,60,023,34,40,34,238,30,12,31,230,35*7E
2017-05-25T22:16:13 -->> $GPGSV,3,2,10,20,30,245,32,06,27,077,33,25,26,278,36,29,21,320,29*70
2017-05-25T22:16:13 -->> $GPGSV,3,3,10,19,20,138,33,193,,,31*71
2017-05-25T22:16:13 -->> $GLGSV,2,1,05,72,65,210,27,86,64,057,31,71,58,030,31,85,23,119,30*63
2017-05-25T22:16:13 -->> $GLGSV,2,2,05,70,08,030,*5C
2017-05-25T22:16:13 -->> $GNRMC,141613.000,A,3030.9446,N,10404.2915,E,0.00,96.84,250517,,,A*46
2017-05-25T22:16:13 -->> $GNVTG,96.84,T,,M,0.00,N,0.00,K,A*10
2017-05-25T22:16:14 -->> $GNGGA,141614.000,3030.9446,N,10404.2915,E,1,12,0.89,575.7,M,-31.9,M,,*50
2017-05-25T22:16:14 -->> $GPGSA,A,3,05,25,12,02,20,06,19,29,193,,,,1.66,0.89,1.40*38
2017-05-25T22:16:14 -->> $GLGSA,A,3,86,71,85,,,,,,,,,,1.66,0.89,1.40*1E
2017-05-25T22:16:14 -->> $GPGSV,3,1,10,05,76,290,35,02,60,023,34,40,34,238,30,12,31,230,35*7E
2017-05-25T22:16:14 -->> $GPGSV,3,2,10,20,30,245,32,06,27,077,33,25,26,278,36,29,21,320,29*70
2017-05-25T22:16:14 -->> $GPGSV,3,3,10,19,20,138,33,193,,,31*71
2017-05-25T22:16:14 -->> $GLGSV,2,1,05,72,65,210,27,86,64,057,31,71,58,030,31,85,23,119,30*63
2017-05-25T22:16:14 -->> $GLGSV,2,2,05,70,08,030,*5C
2017-05-25T22:16:14 -->> $GNRMC,141614.000,A,3030.9446,N,10404.2915,E,0.00,96.84,250517,,,A*41
2017-05-25T22:16:14 -->> $GNVTG,96.84,T,,M,0.00,N,0.00,K,A*10
2017-05-25T22:16:15 -->> $GNGGA,141615.000,3030.9446,N,10404.2915,E,1,12,0.89,575.7,M,-31.9,M,,*51
2017-05-25T22:16:15 -->> $GPGSA,A,3,05,25,12,02,20,06,19,29,193,,,,1.66,0.89,1.40*38
2017-05-25T22:16:15 -->> $GLGSA,A,3,86,71,85,,,,,,,,,,1.66,0.89,1.40*1E
2017-05-25T22:16:15 -->> $GPGSV,3,1,10,05,76,290,35,02,60,023,34,40,34,238,30,12,31,230,35*7E
2017-05-25T22:16:15 -->> $GPGSV,3,2,10,20,30,245,32,06,27,077,33,25,26,278,36,29,21,320,29*70
2017-05-25T22:16:15 -->> $GPGSV,3,3,10,19,20,138,33,193,,,31*71
2017-05-25T22:16:15 -->> $GLGSV,2,1,05,72,65,210,27,86,64,057,31,71,58,030,31,85,23,119,30*63
2017-05-25T22:16:15 -->> $GLGSV,2,2,05,70,08,030,*5C
2017-05-25T22:16:15 -->> $GNRMC,141615.000,A,3030.9446,N,10404.2915,E,0.00,96.84,250517,,,A*40
2017-05-25T22:16:15 -->> $GNVTG,96.84,T,,M,0.00,N,0.00,K,A*10
2017-05-25T22:16:16 -->> $GNGGA,141616.000,3030.9446,N,10404.2915,E,1,12,0.89,575.7,M,-31.9,M,,*52
2017-05-25T22:16:16 -->> $GPGSA,A,3,05,25,12,02,20,06,19,29,193,,,,1.66,0.89,1.40*38
2017-05-25T22:16:16 -->> $GLGSA,A,3,86,71,85,,,,,,,,,,1.66,0.89,1.40*1E
2017-05-25T22:16:16 -->> $GPGSV,3,1,10,05,76,290,35,02,60,023,34,193,59,062,31,40,34,238,30*49
2017-05-25T22:16:16 -->> $GPGSV,3,2,10,12,31,230,35,20,30,245,32,06,27,077,33,25,26,278,36*74
2017-05-25T22:16:16 -->> $GPGSV,3,3,10,29,21,320,29,19,20,138,33*7A
2017-05-25T22:16:16 -->> $GLGSV,2,1,05,72,65,210,27,86,64,057,31,71,58,030,31,85,23,119,30*63
2017-05-25T22:16:16 -->> $GLGSV,2,2,05,70,08,030,*5C
2017-05-25T22:16:16 -->> $GNRMC,141616.000,A,3030.9446,N,10404.2915,E,0.00,96.84,250517,,,A*43
2017-05-25T22:16:16 -->> $GNVTG,96.84,T,,M,0.00,N,0.00,K,A*10
2017-05-25T22:16:17 -->> $GNGGA,141617.000,3030.9446,N,10404.2915,E,1,12,0.89,575.7,M,-31.9,M,,*53
2017-05-25T22:16:17 -->> $GPGSA,A,3,05,25,12,02,20,06,19,29,193,,,,1.66,0.89,1.40*38
2017-05-25T22:16:17 -->> $GLGSA,A,3,86,71,85,,,,,,,,,,1.66,0.89,1.40*1E
2017-05-25T22:16:17 -->> $GPGSV,3,1,10,05,76,290,35,02,60,023,34,193,59,062,31,40,34,238,31*48
2017-05-25T22:16:17 -->> $GPGSV,3,2,10,12,31,230,35,20,30,245,32,06,27,077,33,25,26,278,36*74
2017-05-25T22:16:17 -->> $GPGSV,3,3,10,29,21,320,29,19,20,138,33*7A
2017-05-25T22:16:17 -->> $GLGSV,2,1,05,72,65,210,27,86,64,057,31,71,58,030,31,85,23,119,30*63
2017-05-25T22:16:17 -->> $GLGSV,2,2,05,70,08,030,*5C
2017-05-25T22:16:17 -->> $GNRMC,141617.000,A,3030.9446,N,10404.2915,E,0.00,96.84,250517,,,A*42
2017-05-25T22:16:17 -->> $GNVTG,96.84,T,,M,0.00,N,0.00,K,A*10
2017-05-25T22:16:18 -->> $GNGGA,141618.000,3030.9446,N,10404.2915,E,1,12,0.89,575.7,M,-31.9,M,,*5C
2017-05-25T22:16:18 -->> $GPGSA,A,3,05,25,12,02,20,06,19,29,193,,,,1.66,0.89,1.40*38
2017-05-25T22:16:18 -->> $GLGSA,A,3,86,71,85,,,,,,,,,,1.66,0.89,1.40*1E
2017-05-25T22:16:18 -->> $GPGSV,3,1,10,05,76,290,36,02,60,023,34,193,59,062,31,40,34,238,31*4B
2017-05-25T22:16:18 -->> $GPGSV,3,2,10,12,31,230,35,20,30,245,32,06,27,077,33,25,26,278,36*74
2017-05-25T22:16:18 -->> $GPGSV,3,3,10,29,21,320,29,19,20,138,33*7A
2017-05-25T22:16:18 -->> $GLGSV,2,1,05,72,65,210,27,86,64,057,31,71,58,030,31,85,23,119,30*63
2017-05-25T22:16:18 -->> $GLGSV,2,2,05,70,08,030,*5C
2017-05-25T22:16:18 -->> $GNRMC,141618.000,A,3030.9446,N,10404.2915,E,0.00,96.84,250517,,,A*4D
2017-05-25T22:16:18 -->> $GNVTG,96.84,T,,M,0.00,N,0.00,K,A*10
2017-05-25T22:16:19 -->> $GNGGA,141619.000,3030.9446,N,10404.2915,E,1,12,0.89,575.7,M,-31.9,M,,*5D
2017-05-25T22:16:19 -->> $GPGSA,A,3,05,25,12,02,20,06,19,29,193,,,,1.66,0.89,1.40*38
2017-05-25T22:16:19 -->> $GLGSA,A,3,86,71,85,,,,,,,,,,1.66,0.89,1.40*1E
2017-05-25T22:16:19 -->> $GPGSV,3,1,10,05,76,290,36,02,60,023,34,193,59,062,31,40,34,238,31*4B
2017-05-25T22:16:19 -->> $GPGSV,3,2,10,12,31,230,35,20,30,245,32,06,27,077,33,25,26,278,36*74
2017-05-25T22:16:19 -->> $GPGSV,3,3,10,29,21,320,29,19,20,138,33*7A
2017-05-25T22:16:19 -->> $GLGSV,2,1,05,72,65,210,27,86,64,057,31,71,58,030,31,85,23,119,30*63
2017-05-25T22:16:19 -->> $GLGSV,2,2,05,70,08,030,*5C
2017-05-25T22:16:19 -->> $GNRMC,141619.000,A,3030.9446,N,10404.2915,E,0.00,96.84,250517,,,A*4C
2017-05-25T22:16:19 -->> $GNVTG,96.84,T,,M,0.00,N,0.00,K,A*10
2017-05-25T22:16:20 -->> $GNGGA,141620.000,3030.9446,N,10404.2915,E,1,12,0.89,575.7,M,-31.9,M,,*57
2017-05-25T22:16:20 -->> $GPGSA,A,3,05,25,12,02,20,06,19,29,193,,,,1.66,0.89,1.40*38
2017-05-25T22:16:20 -->> $GLGSA,A,3,86,71,85,,,,,,,,,,1.66,0.89,1.40*1E
2017-05-25T22:16:20 -->> $GPGSV,3,1,10,05,76,290,36,02,60,023,34,193,59,062,31,40,34,238,31*4B
2017-05-25T22:16:20 -->> $GPGSV,3,2,10,12,31,230,35,20,30,245,32,06,27,077,33,25,26,278,36*74
2017-05-25T22:16:20 -->> $GPGSV,3,3,10,29,21,320,29,19,20,138,33*7A
2017-05-25T22:16:20 -->> $GLGSV,2,1,05,72,65,210,27,86,64,057,31,71,58,030,31,85,23,119,30*63
2017-05-25T22:16:20 -->> $GLGSV,2,2,05,70,08,030,*5C
2017-05-25T22:16:20 -->> $GNRMC,141620.000,A,3030.9446,N,10404.2915,E,0.00,96.84,250517,,,A*46
2017-05-25T22:16:20 -->> $GNVTG,96.84,T,,M,0.00,N,0.00,K,A*10
2017-05-25T22:16:21 -->> $GNGGA,141621.000,3030.9446,N,10404.2915,E,1,12,0.89,575.7,M,-31.9,M,,*56
2017-05-25T22:16:21 -->> $GPGSA,A,3,05,25,12,02,20,06,19,29,193,,,,1.66,0.89,1.40*38
2017-05-25T22:16:21 -->> $GLGSA,A,3,86,71,85,,,,,,,,,,1.66,0.89,1.40*1E
2017-05-25T22:16:21 -->> $GPGSV,3,1,10,05,76,290,36,02,60,023,34,193,59,062,31,40,34,238,31*4B
2017-05-25T22:16:21 -->> $GPGSV,3,2,10,12,31,230,35,20,30,245,32,06,27,077,33,25,26,278,36*74
2017-05-25T22:16:21 -->> $GPGSV,3,3,10,29,21,320,29,19,20,138,33*7A
2017-05-25T22:16:21 -->> $GLGSV,2,1,05,72,65,210,27,86,64,057,31,71,58,030,31,85,23,119,30*63
2017-05-25T22:16:21 -->> $GLGSV,2,2,05,70,08,030,*5C
2017-05-25T22:16:21 -->> $GNRMC,141621.000,A,3030.9446,N,10404.2915,E,0.00,96.84,250517,,,A*47
2017-05-25T22:16:21 -->> $GNVTG,96.84,T,,M,0.00,N,0.00,K,A*10
2017-05-25T22:16:22 -->> $GNGGA,141622.000,3030.9446,N,10404.2915,E,1,12,0.89,575.7,M,-31.9,M,,*55
2017-05-25T22:16:22 -->> $GPGSA,A,3,05,25,12,02,20,06,19,29,193,,,,1.66,0.89,1.40*38
2017-05-25T22:16:22 -->> $GLGSA,A,3,86,71,85,,,,,,,,,,1.66,0.89,1.40*1E
2017-05-25T22:16:22 -->> $GPGSV,3,1,10,05,76,290,36,02,60,023,34,193,59,062,31,40,34,238,31*4B
2017-05-25T22:16:22 -->> $GPGSV,3,2,10,12,31,230,35,20,30,245,32,06,27,077,33,25,26,278,36*74
2017-05-25T22:16:22 -->> $GPGSV,3,3,10,29,21,320,29,19,20,138,33*7A
2017-05-25T22:16:22 -->> $GLGSV,2,1,05,72,65,210,27,86,64,057,31,71,58,030,31,85,23,119,30*63
2017-05-25T22:16:22 -->> $GLGSV,2,2,05,70,08,030,*5C
2017-05-25T22:16:22 -->> $GNRMC,141622.000,A,3030.9446,N,10404.2915,E,0.00,96.84,250517,,,A*44
2017-05-25T22:16:22 -->> $GNVTG,96.84,T,,M,0.00,N,0.00,K,A*10
2017-05-25T22:16:23 -->> $GNGGA,141623.000,3030.9446,N,10404.2915,E,1,12,0.89,575.7,M,-31.9,M,,*54
2017-05-25T22:16:23 -->> $GPGSA,A,3,05,25,12,02,20,06,19,29,193,,,,1.66,0.89,1.40*38
2017-05-25T22:16:23 -->> $GLGSA,A,3,86,71,85,,,,,,,,,,1.66,0.89,1.40*1E
2017-05-25T22:16:23 -->> $GPGSV,3,1,10,05,76,290,36,02,60,023,33,193,59,062,31,40,34,238,30*4D
2017-05-25T22:16:23 -->> $GPGSV,3,2,10,12,31,230,35,20,30,245,32,06,27,077,33,25,26,278,36*74
2017-05-25T22:16:23 -->> $GPGSV,3,3,10,29,21,320,30,19,20,138,33*72
2017-05-25T22:16:23 -->> $GLGSV,2,1,05,72,65,210,27,86,64,057,31,71,58,030,31,85,23,119,30*63
2017-05-25T22:16:23 -->> $GLGSV,2,2,05,70,08,030,*5C
2017-05-25T22:16:23 -->> $GNRMC,141623.000,A,3030.9446,N,10404.2915,E,0.00,96.84,250517,,,A*45
2017-05-25T22:16:23 -->> $GNVTG,96.84,T,,M,0.00,N,0.00,K,A*10
2017-05-25T22:16:24 -->> $GNGGA,141624.000,3030.9446,N,10404.2915,E,1,12,0.89,575.7,M,-31.9,M,,*53
2017-05-25T22:16:24 -->> $GPGSA,A,3,05,25,12,02,20,06,19,29,193,,,,1.66,0.89,1.40*38
2017-05-25T22:16:24 -->> $GLGSA,A,3,86,71,85,,,,,,,,,,1.66,0.89,1.40*1E
2017-05-25T22:16:24 -->> $GPGSV,3,1,10,05,76,290,36,02,60,023,33,193,59,062,31,40,34,238,30*4D
2017-05-25T22:16:24 -->> $GPGSV,3,2,10,12,31,230,35,20,30,245,32,06,27,077,33,25,26,278,36*74
2017-05-25T22:16:24 -->> $GPGSV,3,3,10,29,21,320,30,19,20,138,33*72
2017-05-25T22:16:24 -->> $GLGSV,2,1,05,72,65,210,27,86,64,057,31,71,58,030,31,85,23,119,30*63
2017-05-25T22:16:24 -->> $GLGSV,2,2,05,70,08,030,*5C
2017-05-25T22:16:24 -->> $GNRMC,141624.000,A,3030.9446,N,10404.2915,E,0.00,96.84,250517,,,A*42
2017-05-25T22:16:24 -->> $GNVTG,96.84,T,,M,0.00,N,0.00,K,A*10
2017-05-25T22:16:25 -->> $GNGGA,141625.000,3030.9446,N,10404.2915,E,1,12,0.89,575.7,M,-31.9,M,,*52
2017-05-25T22:16:25 -->> $GPGSA,A,3,05,25,12,02,20,06,19,29,193,,,,1.66,0.89,1.40*38
2017-05-25T22:16:25 -->> $GLGSA,A,3,86,71,85,,,,,,,,,,1.66,0.89,1.40*1E
2017-05-25T22:16:25 -->> $GPGSV,3,1,10,05,76,290,36,02,60,023,33,193,59,062,31,40,34,238,30*4D
2017-05-25T22:16:25 -->> $GPGSV,3,2,10,12,31,230,35,20,30,245,32,06,27,077,33,25,26,278,36*74
2017-05-25T22:16:25 -->> $GPGSV,3,3,10,29,21,320,30,19,20,138,33*72
2017-05-25T22:16:25 -->> $GLGSV,2,1,05,72,65,210,27,86,64,057,32,71,58,030,31,85,23,119,30*60
2017-05-25T22:16:25 -->> $GLGSV,2,2,05,70,08,030,*5C
2017-05-25T22:16:25 -->> $GNRMC,141625.000,A,3030.9446,N,10404.2915,E,0.00,96.84,250517,,,A*43
2017-05-25T22:16:25 -->> $GNVTG,96.84,T,,M,0.00,N,0.00,K,A*10
2017-05-25T22:16:26 -->> $GNGGA,141626.000,3030.9446,N,10404.2915,E,1,12,0.89,575.7,M,-31.9,M,,*51
2017-05-25T22:16:26 -->> $GPGSA,A,3,05,25,12,02,20,06,19,29,193,,,,1.66,0.89,1.40*38
2017-05-25T22:16:26 -->> $GLGSA,A,3,86,71,85,,,,,,,,,,1.66,0.89,1.40*1E
2017-05-25T22:16:26 -->> $GPGSV,3,1,10,05,76,290,36,02,60,023,33,193,59,062,31,40,34,238,31*4C
2017-05-25T22:16:26 -->> $GPGSV,3,2,10,12,31,230,35,20,30,245,32,06,27,077,33,25,26,278,36*74
2017-05-25T22:16:26 -->> $GPGSV,3,3,10,29,21,320,30,19,20,138,33*72
2017-05-25T22:16:26 -->> $GLGSV,2,1,05,72,65,210,27,86,64,057,31,71,58,030,31,85,23,119,30*63
2017-05-25T22:16:26 -->> $GLGSV,2,2,05,70,08,030,*5C
2017-05-25T22:16:26 -->> $GNRMC,141626.000,A,3030.9446,N,10404.2915,E,0.00,96.84,250517,,,A*40
2017-05-25T22:16:26 -->> $GNVTG,96.84,T,,M,0.00,N,0.00,K,A*10
2017-05-25T22:16:27 -->> $GNGGA,141627.000,3030.9446,N,10404.2915,E,1,12,0.89,575.7,M,-31.9,M,,*50
2017-05-25T22:16:27 -->> $GPGSA,A,3,05,25,12,02,20,06,19,29,193,,,,1.66,0.89,1.40*38
2017-05-25T22:16:27 -->> $GLGSA,A,3,86,71,85,,,,,,,,,,1.66,0.89,1.40*1E
2017-05-25T22:16:27 -->> $GPGSV,3,1,10,05,76,290,36,02,60,023,33,193,59,062,31,40,34,238,31*4C
2017-05-25T22:16:27 -->> $GPGSV,3,2,10,12,31,230,35,20,30,245,32,06,27,077,33,25,26,278,36*74
2017-05-25T22:16:27 -->> $GPGSV,3,3,10,29,21,320,30,19,20,138,33*72
2017-05-25T22:16:27 -->> $GLGSV,2,1,05,72,65,210,27,86,64,057,31,71,58,030,31,85,23,119,30*63
2017-05-25T22:16:27 -->> $GLGSV,2,2,05,70,08,030,*5C
2017-05-25T22:16:27 -->> $GNRMC,141627.000,A,3030.9446,N,10404.2915,E,0.00,96.84,250517,,,A*41
2017-05-25T22:16:27 -->> $GNVTG,96.84,T,,M,0.00,N,0.00,K,A*10
2017-05-25T22:16:28 -->> $GNGGA,141628.000,3030.9446,N,10404.2915,E,1,12,0.89,575.7,M,-31.9,M,,*5F
2017-05-25T22:16:28 -->> $GPGSA,A,3,05,25,12,02,20,06,19,29,193,,,,1.66,0.89,1.40*38
2017-05-25T22:16:28 -->> $GLGSA,A,3,86,71,85,,,,,,,,,,1.66,0.89,1.40*1E
2017-05-25T22:16:28 -->> $GPGSV,3,1,10,05,76,290,36,02,60,023,33,193,59,062,31,40,34,238,31*4C
2017-05-25T22:16:28 -->> $GPGSV,3,2,10,12,31,230,35,20,30,245,32,06,27,077,33,25,26,278,36*74
2017-05-25T22:16:28 -->> $GPGSV,3,3,10,29,21,320,30,19,20,138,33*72
2017-05-25T22:16:28 -->> $GLGSV,2,1,05,72,65,210,27,86,64,057,31,71,58,030,31,85,23,119,30*63
2017-05-25T22:16:28 -->> $GLGSV,2,2,05,70,08,030,*5C
2017-05-25T22:16:28 -->> $GNRMC,141628.000,A,3030.9446,N,10404.2915,E,0.00,96.84,250517,,,A*4E
2017-05-25T22:16:28 -->> $GNVTG,96.84,T,,M,0.00,N,0.00,K,A*10
2017-05-25T22:16:29 -->> $GNGGA,141629.000,3030.9446,N,10404.2915,E,2,12,0.85,575.7,M,-31.9,M,,*51
2017-05-25T22:16:29 -->> $GPGSA,A,3,05,25,12,02,20,06,19,29,193,,,,1.17,0.85,0.81*3E
2017-05-25T22:16:29 -->> $GLGSA,A,3,86,71,85,,,,,,,,,,1.17,0.85,0.81*18
2017-05-25T22:16:29 -->> $GPGSV,3,1,10,05,76,290,35,02,60,023,33,193,59,062,31,40,34,238,31*4F
2017-05-25T22:16:29 -->> $GPGSV,3,2,10,12,31,230,35,20,30,245,32,06,27,077,33,25,26,278,36*74
2017-05-25T22:16:29 -->> $GPGSV,3,3,10,29,21,320,30,19,20,138,33*72
2017-05-25T22:16:29 -->> $GLGSV,2,1,05,72,65,210,27,86,64,057,32,71,58,030,31,85,23,119,30*60
2017-05-25T22:16:29 -->> $GLGSV,2,2,05,70,08,030,*5C
2017-05-25T22:16:29 -->> $GNRMC,141629.000,A,3030.9446,N,10404.2915,E,0.00,96.84,250517,,,D*4A
2017-05-25T22:16:29 -->> $GNVTG,96.84,T,,M,0.00,N,0.00,K,D*15
2017-05-25T22:16:30 -->> $GNGGA,141630.000,3030.9446,N,10404.2915,E,2,12,0.85,575.7,M,-31.9,M,,*59
2017-05-25T22:16:30 -->> $GPGSA,A,3,05,25,12,02,20,06,19,29,193,,,,1.17,0.85,0.81*3E
2017-05-25T22:16:30 -->> $GLGSA,A,3,86,71,85,,,,,,,,,,1.17,0.85,0.81*18
2017-05-25T22:16:30 -->> $GPGSV,3,1,10,05,76,290,35,02,60,023,33,193,59,062,31,40,34,238,31*4F
2017-05-25T22:16:30 -->> $GPGSV,3,2,10,12,31,230,35,20,30,245,32,06,27,077,33,25,26,278,35*77
2017-05-25T22:16:30 -->> $GPGSV,3,3,10,29,21,320,30,19,20,138,33*72
2017-05-25T22:16:30 -->> $GLGSV,2,1,05,72,65,210,26,86,64,057,31,71,58,030,32,85,23,119,30*61
2017-05-25T22:16:30 -->> $GLGSV,2,2,05,70,08,030,*5C
2017-05-25T22:16:30 -->> $GNRMC,141630.000,A,3030.9446,N,10404.2915,E,0.00,96.84,250517,,,D*42
2017-05-25T22:16:30 -->> $GNVTG,96.84,T,,M,0.00,N,0.00,K,D*15
2017-05-25T22:16:31 -->> $GNGGA,141631.000,3030.9446,N,10404.2915,E,2,12,0.85,575.7,M,-31.9,M,,*58
2017-05-25T22:16:31 -->> $GPGSA,A,3,05,25,12,02,20,06,19,29,193,,,,1.17,0.85,0.81*3E
2017-05-25T22:16:31 -->> $GLGSA,A,3,86,71,85,,,,,,,,,,1.17,0.85,0.81*18
2017-05-25T22:16:31 -->> $GPGSV,3,1,10,05,76,290,35,02,60,023,33,193,59,062,31,40,34,238,31*4F
2017-05-25T22:16:31 -->> $GPGSV,3,2,10,12,31,230,35,20,30,245,32,06,27,077,33,25,26,278,35*77
2017-05-25T22:16:31 -->> $GPGSV,3,3,10,29,21,320,30,19,20,138,33*72
2017-05-25T22:16:31 -->> $GLGSV,2,1,05,72,65,210,26,86,64,057,31,71,58,030,31,85,23,119,30*62
2017-05-25T22:16:31 -->> $GLGSV,2,2,05,70,08,030,*5C
2017-05-25T22:16:31 -->> $GNRMC,141631.000,A,3030.9446,N,10404.2915,E,0.00,96.84,250517,,,D*43
2017-05-25T22:16:31 -->> $GNVTG,96.84,T,,M,0.00,N,0.00,K,D*15
2017-05-25T22:16:32 -->> $GNGGA,141632.000,3030.9446,N,10404.2915,E,2,12,0.85,575.7,M,-31.9,M,,*5B
2017-05-25T22:16:32 -->> $GPGSA,A,3,05,25,12,02,20,06,19,29,193,,,,1.17,0.85,0.81*3E
2017-05-25T22:16:32 -->> $GLGSA,A,3,86,71,85,,,,,,,,,,1.17,0.85,0.81*18
2017-05-25T22:16:32 -->> $GPGSV,3,1,10,05,76,290,35,02,60,023,33,193,59,062,31,40,34,238,31*4F
2017-05-25T22:16:32 -->> $GPGSV,3,2,10,12,31,230,35,20,30,245,32,06,27,077,33,25,26,278,35*77
2017-05-25T22:16:32 -->> $GPGSV,3,3,10,29,21,320,30,19,20,138,33*72
2017-05-25T22:16:32 -->> $GLGSV,2,1,05,72,65,210,27,86,64,057,31,71,58,030,31,85,23,119,30*63
2017-05-25T22:16:32 -->> $GLGSV,2,2,05,70,08,030,*5C
2017-05-25T22:16:32 -->> $GNRMC,141632.000,A,3030.9446,N,10404.2915,E,0.00,96.84,250517,,,D*40
2017-05-25T22:16:32 -->> $GNVTG,96.84,T,,M,0.00,N,0.00,K,D*15
2017-05-25T22:16:33 -->> $GNGGA,141633.000,3030.9446,N,10404.2915,E,2,12,0.85,575.7,M,-31.9,M,,*5A
2017-05-25T22:16:33 -->> $GPGSA,A,3,05,25,12,02,20,06,19,29,193,,,,1.17,0.85,0.81*3E
2017-05-25T22:16:33 -->> $GLGSA,A,3,86,71,85,,,,,,,,,,1.17,0.85,0.81*18
2017-05-25T22:16:33 -->> $GPGSV,3,1,10,05,76,290,35,02,60,023,33,193,59,062,31,40,34,238,31*4F
2017-05-25T22:16:33 -->> $GPGSV,3,2,10,12,31,230,35,20,30,245,32,06,27,077,33,25,26,278,35*77
2017-05-25T22:16:33 -->> $GPGSV,3,3,10,29,21,320,30,19,20,138,34*75
2017-05-25T22:16:33 -->> $GLGSV,2,1,05,72,65,210,26,86,64,057,31,71,58,030,31,85,23,119,30*62
2017-05-25T22:16:33 -->> $GLGSV,2,2,05,70,08,030,*5C
2017-05-25T22:16:33 -->> $GNRMC,141633.000,A,3030.9446,N,10404.2915,E,0.00,96.84,250517,,,D*41
2017-05-25T22:16:33 -->> $GNVTG,96.84,T,,M,0.00,N,0.00,K,D*15
2017-05-25T22:16:34 -->> $GNGGA,141634.000,3030.9446,N,10404.2915,E,2,12,0.85,575.7,M,-31.9,M,,*5D
2017-05-25T22:16:34 -->> $GPGSA,A,3,05,25,12,02,20,06,19,29,193,,,,1.17,0.85,0.81*3E
2017-05-25T22:16:34 -->> $GLGSA,A,3,86,71,85,,,,,,,,,,1.17,0.85,0.81*18
2017-05-25T22:16:34 -->> $GPGSV,3,1,10,05,76,290,35,02,60,023,33,193,59,062,31,40,34,238,31*4F
2017-05-25T22:16:34 -->> $GPGSV,3,2,10,12,31,230,35,20,30,245,32,06,27,077,33,25,26,278,35*77
2017-05-25T22:16:34 -->> $GPGSV,3,3,10,29,21,320,30,19,20,138,34*75
2017-05-25T22:16:34 -->> $GLGSV,2,1,05,72,65,210,26,86,64,057,31,71,58,030,31,85,23,119,30*62
2017-05-25T22:16:34 -->> $GLGSV,2,2,05,70,08,030,*5C
