2017-05-25T22:34:35
2017-05-25T22:35:02 -->> ============================
2017-05-25T22:35:04 -->> $PMTK011,MTKGPS*08
2017-05-25T22:35:04 -->> $PMTK010,001*2E
2017-05-25T22:35:04 -->> $PMTK011,MTKGPS*08
2017-05-25T22:35:04 -->> $PMTK010,002*2D
2017-05-25T22:35:04 -->> $GNGGA,235942.800,,,,,0,0,,,M,,M,,*55
2017-05-25T22:35:04 -->> $GPGSA,A,1,,,,,,,,,,,,,,,*1E
2017-05-25T22:35:04 -->> $GLGSA,A,1,,,,,,,,,,,,,,,*02
2017-05-25T22:35:04 -->> $GPGSV,1,1,00*79
2017-05-25T22:35:04 -->> $GLGSV,1,1,00*65
2017-05-25T22:35:04 -->> $GNRMC,235942.800,V,,,,,0.00,0.00,050180,,,N*5C
2017-05-25T22:35:05 -->> $GNVTG,0.00,T,,M,0.00,N,0.00,K,N*2C
2017-05-25T22:35:05 -->> $GNGGA,235943.800,,,,,0,0,,,M,,M,,*54
2017-05-25T22:35:05 -->> $GPGSA,A,1,,,,,,,,,,,,,,,*1E
2017-05-25T22:35:05 -->> $GLGSA,A,1,,,,,,,,,,,,,,,*02
2017-05-25T22:35:05 -->> $GPGSV,1,1,01,29,,,38*78
2017-05-25T22:35:05 -->> $GLGSV,1,1,00*65
2017-05-25T22:35:05 -->> $GNRMC,235943.800,V,,,,,0.00,0.00,050180,,,N*5D
2017-05-25T22:35:06 -->> $GNVTG,0.00,T,,M,0.00,N,0.00,K,N*2C
2017-05-25T22:35:06 -->> $GNGGA,235944.799,,,,,0,0,,,M,,M,,*5C
2017-05-25T22:35:06 -->> $GPGSA,A,1,,,,,,,,,,,,,,,*1E
2017-05-25T22:35:06 -->> $GLGSA,A,1,,,,,,,,,,,,,,,*02
2017-05-25T22:35:06 -->> $GPGSV,1,1,03,05,,,32,29,,,36,09,,,32*78
2017-05-25T22:35:06 -->> $GLGSV,1,1,00*65
2017-05-25T22:35:07 -->> $GNRMC,235944.799,V,,,,,0.00,0.00,050180,,,N*55
2017-05-25T22:35:07 -->> $GNVTG,0.00,T,,M,0.00,N,0.00,K,N*2C
2017-05-25T22:35:07 -->> $GNGGA,235945.799,,,,,0,0,,,M,,M,,*5D
2017-05-25T22:35:07 -->> $GPGSA,A,1,,,,,,,,,,,,,,,*1E
2017-05-25T22:35:07 -->> $GLGSA,A,1,,,,,,,,,,,,,,,*02
2017-05-25T22:35:07 -->> $GPGSV,1,1,03,05,,,34,29,,,36,09,,,35*79
2017-05-25T22:35:07 -->> $GLGSV,1,1,00*65
2017-05-25T22:35:08 -->> $GNRMC,235945.799,V,,,,,0.00,0.00,050180,,,N*54
2017-05-25T22:35:08 -->> $GNVTG,0.00,T,,M,0.00,N,0.00,K,N*2C
2017-05-25T22:35:08 -->> $GNGGA,235946.799,,,,,0,0,,,M,,M,,*5E
2017-05-25T22:35:08 -->> $GPGSA,A,1,,,,,,,,,,,,,,,*1E
2017-05-25T22:35:08 -->> $GLGSA,A,1,,,,,,,,,,,,,,,*02
2017-05-25T22:35:08 -->> $GPGSV,1,1,03,05,,,37,29,,,36,09,,,34*7B
2017-05-25T22:35:08 -->> $GLGSV,1,1,00*65
2017-05-25T22:35:09 -->> $GNRMC,235946.799,V,,,,,0.00,0.00,050180,,,N*57
2017-05-25T22:35:09 -->> $GNVTG,0.00,T,,M,0.00,N,0.00,K,N*2C
2017-05-25T22:35:09 -->> $GNGGA,235947.799,,,,,0,0,,,M,,M,,*5F
2017-05-25T22:35:09 -->> $GPGSA,A,1,,,,,,,,,,,,,,,*1E
2017-05-25T22:35:09 -->> $GLGSA,A,1,,,,,,,,,,,,,,,*02
2017-05-25T22:35:09 -->> $GPGSV,1,1,03,05,,,37,29,,,36,09,,,34*7B
2017-05-25T22:35:09 -->> $GLGSV,1,1,00*65
2017-05-25T22:35:10 -->> $GNRMC,235947.799,V,,,,,0.00,0.00,050180,,,N*56
2017-05-25T22:35:10 -->> $GNVTG,0.00,T,,M,0.00,N,0.00,K,N*2C
2017-05-25T22:35:10 -->> $GNGGA,235948.799,,,,,0,0,,,M,,M,,*50
2017-05-25T22:35:10 -->> $GPGSA,A,1,,,,,,,,,,,,,,,*1E
2017-05-25T22:35:10 -->> $GLGSA,A,1,,,,,,,,,,,,,,,*02
2017-05-25T22:35:10 -->> $GPGSV,1,1,04,05,,,36,29,,,36,09,,,34,20,,,29*74
2017-05-25T22:35:10 -->> $GLGSV,1,1,00*65
2017-05-25T22:35:11 -->> $GNRMC,235948.799,V,,,,,0.00,0.00,050180,,,N*59
2017-05-25T22:35:11 -->> $GNVTG,0.00,T,,M,0.00,N,0.00,K,N*2C
2017-05-25T22:35:11 -->> $GNGGA,235949.799,,,,,0,0,,,M,,M,,*51
2017-05-25T22:35:11 -->> $GPGSA,A,1,,,,,,,,,,,,,,,*1E
2017-05-25T22:35:11 -->> $GLGSA,A,1,,,,,,,,,,,,,,,*02
2017-05-25T22:35:11 -->> $GPGSV,1,1,04,05,,,36,29,,,36,09,,,34,20,,,32*7E
2017-05-25T22:35:11 -->> $GLGSV,1,1,00*65
2017-05-25T22:35:12 -->> $GNRMC,235949.799,V,,,,,0.00,0.00,050180,,,N*58
2017-05-25T22:35:12 -->> $GNVTG,0.00,T,,M,0.00,N,0.00,K,N*2C
2017-05-25T22:35:12 -->> $GNGGA,235950.002,,,,,0,0,,,M,,M,,*5C
2017-05-25T22:35:12 -->> $GPGSA,A,1,,,,,,,,,,,,,,,*1E
2017-05-25T22:35:12 -->> $GLGSA,A,1,,,,,,,,,,,,,,,*02
2017-05-25T22:35:12 -->> $GPGSV,2,1,05,05,,,36,29,,,36,09,,,34,20,,,31*7F
2017-05-25T22:35:12 -->> $GPGSV,2,2,05,06,,,25*7D
2017-05-25T22:35:12 -->> $GLGSV,1,1,00*65
2017-05-25T22:35:12 -->> $GNRMC,235950.002,V,,,,,0.00,0.00,050180,,,N*55
2017-05-25T22:35:12 -->> $GNVTG,0.00,T,,M,0.00,N,0.00,K,N*2C
2017-05-25T22:35:13 -->> $GNGGA,235951.002,,,,,0,0,,,M,,M,,*5D
2017-05-25T22:35:13 -->> $GPGSA,A,1,,,,,,,,,,,,,,,*1E
2017-05-25T22:35:13 -->> $GLGSA,A,1,,,,,,,,,,,,,,,*02
2017-05-25T22:35:13 -->> $GPGSV,2,1,06,05,,,36,29,,,36,09,,,34,20,,,30*7D
2017-05-25T22:35:13 -->> $GPGSV,2,2,06,06,,,29,25,,,22*75
2017-05-25T22:35:13 -->> $GLGSV,1,1,00*65
2017-05-25T22:35:13 -->> $GNRMC,235951.002,V,,,,,0.00,0.00,050180,,,N*54
2017-05-25T22:35:13 -->> $GNVTG,0.00,T,,M,0.00,N,0.00,K,N*2C
2017-05-25T22:35:14 -->> $GNGGA,143514.259,,,,,0,0,,,M,,M,,*5E
2017-05-25T22:35:14 -->> $GPGSA,A,1,,,,,,,,,,,,,,,*1E
2017-05-25T22:35:14 -->> $GLGSA,A,1,,,,,,,,,,,,,,,*02
2017-05-25T22:35:14 -->> $GPGSV,2,1,06,05,,,37,29,,,36,09,,,34,20,,,30*7C
2017-05-25T22:35:14 -->> $GPGSV,2,2,06,06,,,29,25,,,29*7E
2017-05-25T22:35:14 -->> $GLGSV,1,1,00*65
2017-05-25T22:35:14 -->> $GNRMC,143514.259,V,,,,,0.00,0.00,100180,,,N*53
2017-05-25T22:35:14 -->> $GNVTG,0.00,T,,M,0.00,N,0.00,K,N*2C
2017-05-25T22:35:15 -->> $GNGGA,143515.259,,,,,0,0,,,M,,M,,*5F
2017-05-25T22:35:15 -->> $GPGSA,A,1,,,,,,,,,,,,,,,*1E
2017-05-25T22:35:15 -->> $GLGSA,A,1,,,,,,,,,,,,,,,*02
2017-05-25T22:35:15 -->> $GPGSV,2,1,06,05,,,37,29,,,36,09,,,34,20,,,30*7C
2017-05-25T22:35:15 -->> $GPGSV,2,2,06,06,,,29,25,,,29*7E
2017-05-25T22:35:15 -->> $GLGSV,1,1,00*65
2017-05-25T22:35:15 -->> $GNRMC,143515.259,V,,,,,0.00,0.00,100180,,,N*52
2017-05-25T22:35:15 -->> $GNVTG,0.00,T,,M,0.00,N,0.00,K,N*2C
2017-05-25T22:35:16 -->> $GNGGA,143516.259,,,,,0,0,,,M,,M,,*5C
2017-05-25T22:35:16 -->> $GPGSA,A,1,,,,,,,,,,,,,,,*1E
2017-05-25T22:35:16 -->> $GLGSA,A,1,,,,,,,,,,,,,,,*02
2017-05-25T22:35:16 -->> $GPGSV,2,1,06,05,,,37,29,,,36,09,,,34,20,,,30*7C
2017-05-25T22:35:16 -->> $GPGSV,2,2,06,06,,,23,25,,,29*74
2017-05-25T22:35:16 -->> $GLGSV,1,1,00*65
2017-05-25T22:35:16 -->> $GNRMC,143516.259,V,,,,,0.00,0.00,100180,,,N*51
2017-05-25T22:35:16 -->> $GNVTG,0.00,T,,M,0.00,N,0.00,K,N*2C
2017-05-25T22:35:17 -->> $GNGGA,143517.259,,,,,0,0,,,M,,M,,*5D
2017-05-25T22:35:17 -->> $GPGSA,A,1,,,,,,,,,,,,,,,*1E
2017-05-25T22:35:17 -->> $GLGSA,A,1,,,,,,,,,,,,,,,*02
2017-05-25T22:35:17 -->> $GPGSV,2,1,06,05,,,36,29,,,35,09,,,34,20,,,29*76
2017-05-25T22:35:17 -->> $GPGSV,2,2,06,06,,,29,25,,,29*7E
2017-05-25T22:35:17 -->> $GLGSV,1,1,00*65
2017-05-25T22:35:17 -->> $GNRMC,143517.259,V,,,,,0.00,0.00,100180,,,N*50
2017-05-25T22:35:17 -->> $GNVTG,0.00,T,,M,0.00,N,0.00,K,N*2C
2017-05-25T22:35:17 -->> $GNGGA,143518.087,,,,,0,0,,,M,,M,,*53
2017-05-25T22:35:17 -->> $GPGSA,A,1,,,,,,,,,,,,,,,*1E
2017-05-25T22:35:17 -->> $GLGSA,A,1,,,,,,,,,,,,,,,*02
2017-05-25T22:35:18 -->> $GPGSV,2,1,06,05,,,35,29,,,35,09,,,34,20,,,29*75
2017-05-25T22:35:18 -->> $GPGSV,2,2,06,06,,,27,25,,,28*71
2017-05-25T22:35:18 -->> $GLGSV,1,1,00*65
2017-05-25T22:35:18 -->> $GNRMC,143518.087,V,,,,,0.00,0.00,100180,,,N*5E
2017-05-25T22:35:18 -->> $GNVTG,0.00,T,,M,0.00,N,0.00,K,N*2C
2017-05-25T22:35:18 -->> $GNGGA,143519.087,,,,,0,0,,,M,,M,,*52
2017-05-25T22:35:18 -->> $GPGSA,A,1,,,,,,,,,,,,,,,*1E
2017-05-25T22:35:18 -->> $GLGSA,A,1,,,,,,,,,,,,,,,*02
2017-05-25T22:35:18 -->> $GPGSV,2,1,06,05,,,34,29,,,35,09,,,34,20,,,29*74
2017-05-25T22:35:19 -->> $GPGSV,2,2,06,06,,,27,25,,,27*7E
2017-05-25T22:35:19 -->> $GLGSV,1,1,00*65
2017-05-25T22:35:19 -->> $GNRMC,143519.087,V,,,,,0.00,0.00,100180,,,N*5F
2017-05-25T22:35:19 -->> $GNVTG,0.00,T,,M,0.00,N,0.00,K,N*2C
2017-05-25T22:35:19 -->> $GNGGA,143520.087,,,,,0,0,,,M,,M,,*58
2017-05-25T22:35:19 -->> $GPGSA,A,1,,,,,,,,,,,,,,,*1E
2017-05-25T22:35:19 -->> $GLGSA,A,1,,,,,,,,,,,,,,,*02
2017-05-25T22:35:19 -->> $GPGSV,2,1,06,05,,,34,29,,,36,09,,,34,20,,,29*77
2017-05-25T22:35:20 -->> $GPGSV,2,2,06,06,,,26,25,,,27*7F
2017-05-25T22:35:20 -->> $GLGSV,1,1,00*65
2017-05-25T22:35:20 -->> $GNRMC,143520.087,V,,,,,0.00,0.00,100180,,,N*55
2017-05-25T22:35:20 -->> $GNVTG,0.00,T,,M,0.00,N,0.00,K,N*2C
2017-05-25T22:35:20 -->> $GNGGA,143521.087,,,,,0,0,,,M,,M,,*59
2017-05-25T22:35:20 -->> $GPGSA,A,1,,,,,,,,,,,,,,,*1E
2017-05-25T22:35:20 -->> $GLGSA,A,1,,,,,,,,,,,,,,,*02
2017-05-25T22:35:20 -->> $GPGSV,2,1,06,05,,,34,29,,,37,09,,,34,20,,,30*7E
2017-05-25T22:35:21 -->> $GPGSV,2,2,06,06,,,26,25,,,28*70
2017-05-25T22:35:21 -->> $GLGSV,1,1,00*65
2017-05-25T22:35:21 -->> $GNRMC,143521.087,V,,,,,0.00,0.00,100180,,,N*54
2017-05-25T22:35:21 -->> $GNVTG,0.00,T,,M,0.00,N,0.00,K,N*2C
2017-05-25T22:35:21 -->> $GNGGA,143522.087,,,,,0,0,,,M,,M,,*5A
2017-05-25T22:35:21 -->> $GPGSA,A,1,,,,,,,,,,,,,,,*1E
2017-05-25T22:35:21 -->> $GLGSA,A,1,,,,,,,,,,,,,,,*02
2017-05-25T22:35:21 -->> $GPGSV,2,1,06,05,,,34,29,,,37,09,,,34,20,,,31*7F
2017-05-25T22:35:22 -->> $GPGSV,2,2,06,06,,,27,25,,,28*71
2017-05-25T22:35:22 -->> $GLGSV,1,1,00*65
2017-05-25T22:35:22 -->> $GNRMC,143522.087,V,,,,,0.00,0.00,100180,,,N*57
2017-05-25T22:35:22 -->> $GNVTG,0.00,T,,M,0.00,N,0.00,K,N*2C
2017-05-25T22:35:22 -->> $GNGGA,143523.087,,,,,0,0,,,M,,M,,*5B
2017-05-25T22:35:22 -->> $GPGSA,A,1,,,,,,,,,,,,,,,*1E
2017-05-25T22:35:22 -->> $GLGSA,A,1,,,,,,,,,,,,,,,*02
2017-05-25T22:35:22 -->> $GPGSV,2,1,06,05,,,33,29,,,38,09,,,34,20,,,31*77
2017-05-25T22:35:23 -->> $GPGSV,2,2,06,06,,,25,25,,,28*73
2017-05-25T22:35:23 -->> $GLGSV,1,1,00*65
2017-05-25T22:35:23 -->> $GNRMC,143523.087,V,,,,,0.00,0.00,100180,,,N*56
2017-05-25T22:35:23 -->> $GNVTG,0.00,T,,M,0.00,N,0.00,K,N*2C
2017-05-25T22:35:23 -->> $GNGGA,143524.087,,,,,0,0,,,M,,M,,*5C
2017-05-25T22:35:23 -->> $GPGSA,A,1,,,,,,,,,,,,,,,*1E
2017-05-25T22:35:23 -->> $GLGSA,A,1,,,,,,,,,,,,,,,*02
2017-05-25T22:35:23 -->> $GPGSV,2,1,07,05,,,34,29,,,38,09,,,34,20,,,31*71
2017-05-25T22:35:24 -->> $GPGSV,2,2,07,06,,,25,25,,,28,02,,,33*70
2017-05-25T22:35:24 -->> $GLGSV,1,1,00*65
2017-05-25T22:35:24 -->> $GNRMC,143524.087,V,,,,,0.00,0.00,100180,,,N*51
2017-05-25T22:35:24 -->> $GNVTG,0.00,T,,M,0.00,N,0.00,K,N*2C
2017-05-25T22:35:24 -->> $GNGGA,143525.087,,,,,0,0,,,M,,M,,*5D
2017-05-25T22:35:24 -->> $GPGSA,A,1,,,,,,,,,,,,,,,*1E
2017-05-25T22:35:24 -->> $GLGSA,A,1,,,,,,,,,,,,,,,*02
2017-05-25T22:35:24 -->> $GPGSV,2,1,07,05,,,34,29,,,38,09,,,34,20,,,31*71
2017-05-25T22:35:25 -->> $GPGSV,2,2,07,06,,,25,25,,,29,02,,,32*70
2017-05-25T22:35:25 -->> $GLGSV,1,1,00*65
2017-05-25T22:35:25 -->> $GNRMC,143525.087,V,,,,,0.00,0.00,100180,,,N*50
2017-05-25T22:35:25 -->> $GNVTG,0.00,T,,M,0.00,N,0.00,K,N*2C
2017-05-25T22:35:25 -->> $GNGGA,143526.087,,,,,0,0,,,M,,M,,*5E
2017-05-25T22:35:25 -->> $GPGSA,A,1,,,,,,,,,,,,,,,*1E
2017-05-25T22:35:25 -->> $GLGSA,A,1,,,,,,,,,,,,,,,*02
2017-05-25T22:35:25 -->> $GPGSV,2,1,07,05,,,34,29,,,38,09,,,34,20,,,31*71
2017-05-25T22:35:26 -->> $GPGSV,2,2,07,06,,,27,25,,,28,02,,,34*75
2017-05-25T22:35:26 -->> $GLGSV,1,1,00*65
2017-05-25T22:35:26 -->> $GNRMC,143526.087,V,,,,,0.00,0.00,100180,,,N*53
2017-05-25T22:35:26 -->> $GNVTG,0.00,T,,M,0.00,N,0.00,K,N*2C
2017-05-25T22:35:26 -->> $GNGGA,143527.087,,,,,0,0,,,M,,M,,*5F
2017-05-25T22:35:26 -->> $GPGSA,A,1,,,,,,,,,,,,,,,*1E
2017-05-25T22:35:26 -->> $GLGSA,A,1,,,,,,,,,,,,,,,*02
2017-05-25T22:35:26 -->> $GPGSV,2,1,07,05,,,34,29,,,38,09,,,34,20,,,31*71
2017-05-25T22:35:27 -->> $GPGSV,2,2,07,06,,,26,25,,,28,02,,,35*75
2017-05-25T22:35:27 -->> $GLGSV,1,1,00*65
2017-05-25T22:35:27 -->> $GNRMC,143527.087,V,,,,,0.00,0.00,100180,,,N*52
2017-05-25T22:35:27 -->> $GNVTG,0.00,T,,M,0.00,N,0.00,K,N*2C
2017-05-25T22:35:27 -->> $GNGGA,143528.087,,,,,0,0,,,M,,M,,*50
2017-05-25T22:35:27 -->> $GPGSA,A,1,,,,,,,,,,,,,,,*1E
2017-05-25T22:35:27 -->> $GLGSA,A,1,,,,,,,,,,,,,,,*02
2017-05-25T22:35:27 -->> $GPGSV,2,1,07,05,,,35,29,,,38,09,,,34,20,,,30*71
2017-05-25T22:35:28 -->> $GPGSV,2,2,07,06,,,26,25,,,29,02,,,33*72
2017-05-25T22:35:28 -->> $GLGSV,1,1,00*65
2017-05-25T22:35:28 -->> $GNRMC,143528.087,V,,,,,0.00,0.00,100180,,,N*5D
2017-05-25T22:35:28 -->> $GNVTG,0.00,T,,M,0.00,N,0.00,K,N*2C
2017-05-25T22:35:28 -->> $GNGGA,143529.087,,,,,0,0,,,M,,M,,*51
2017-05-25T22:35:28 -->> $GPGSA,A,1,,,,,,,,,,,,,,,*1E
2017-05-25T22:35:28 -->> $GLGSA,A,1,,,,,,,,,,,,,,,*02
2017-05-25T22:35:28 -->> $GPGSV,2,1,07,05,,,36,29,,,38,09,,,34,20,,,31*73
2017-05-25T22:35:29 -->> $GPGSV,2,2,07,06,,,25,25,,,30,02,,,32*78
2017-05-25T22:35:29 -->> $GLGSV,1,1,00*65
2017-05-25T22:35:29 -->> $GNRMC,143529.087,V,,,,,0.00,0.00,100180,,,N*5C
2017-05-25T22:35:29 -->> $GNVTG,0.00,T,,M,0.00,N,0.00,K,N*2C
2017-05-25T22:35:29 -->> $GNGGA,143530.086,3030.9487,N,10404.2903,E,1,4,2.11,570.6,M,-31.9,M,,*63
2017-05-25T22:35:30 -->> $GPGSA,A,3,05,29,09,20,,,,,,,,,2.30,2.11,0.90*0D
2017-05-25T22:35:30 -->> $GLGSA,A,3,,,,,,,,,,,,,2.30,2.11,0.90*14
2017-05-25T22:35:30 -->> $GPGSV,3,1,09,05,74,329,36,42,37,124,,20,36,253,31,29,28,319,38*7C
2017-05-25T22:35:30 -->> $GPGSV,3,2,09,09,04,037,34,193,,,,06,,,25,25,,,30*71
2017-05-25T22:35:30 -->> $GPGSV,3,3,09,02,,,32*73
2017-05-25T22:35:30 -->> $GLGSV,1,1,00*65
2017-05-25T22:35:30 -->> $GNRMC,143530.086,A,3030.9487,N,10404.2903,E,0.39,0.00,250517,,,A*7B
2017-05-25T22:35:30 -->> $GNVTG,0.00,T,,M,0.39,N,0.72,K,A*2C
2017-05-25T22:35:30 -->> $GNGGA,143531.086,3030.9488,N,10404.2902,E,1,4,2.11,569.5,M,-31.9,M,,*67
2017-05-25T22:35:30 -->> $GPGSA,A,3,05,29,09,20,,,,,,,,,2.30,2.11,0.90*0D
2017-05-25T22:35:31 -->> $GLGSA,A,3,,,,,,,,,,,,,2.30,2.11,0.90*14
2017-05-25T22:35:31 -->> $GPGSV,3,1,09,05,74,329,36,42,37,124,,20,36,253,30,29,28,319,37*72
2017-05-25T22:35:31 -->> $GPGSV,3,2,09,09,04,037,34,193,,,,06,,,26,25,,,29*7A
2017-05-25T22:35:31 -->> $GPGSV,3,3,09,02,,,33*72
2017-05-25T22:35:31 -->> $GLGSV,1,1,00*65
2017-05-25T22:35:31 -->> $GNRMC,143531.086,A,3030.9488,N,10404.2902,E,0.57,0.00,250517,,,A*7C
2017-05-25T22:35:31 -->> $GNVTG,0.00,T,,M,0.57,N,1.05,K,A*25
2017-05-25T22:35:32 -->> $GNGGA,143533.000,3030.9483,N,10404.2899,E,1,4,2.12,567.1,M,-31.9,M,,*6A
2017-05-25T22:35:32 -->> $GPGSA,A,3,05,29,09,20,,,,,,,,,2.30,2.12,0.90*0E
2017-05-25T22:35:32 -->> $GLGSA,A,3,,,,,,,,,,,,,2.30,2.12,0.90*17
2017-05-25T22:35:33 -->> $GPGSV,3,1,09,05,74,329,36,42,37,124,,20,36,253,30,29,28,319,37*72
2017-05-25T22:35:33 -->> $GPGSV,3,2,09,09,04,037,33,193,,,,06,,,26,25,,,30*75
2017-05-25T22:35:33 -->> $GPGSV,3,3,09,02,,,33*72
2017-05-25T22:35:33 -->> $GLGSV,1,1,00*65
2017-05-25T22:35:33 -->> $GNRMC,143533.000,A,3030.9483,N,10404.2899,E,0.33,0.00,250517,,,A*7A
2017-05-25T22:35:33 -->> $GNVTG,0.00,T,,M,0.33,N,0.61,K,A*24
2017-05-25T22:35:33 -->> $GNGGA,143534.000,3030.9484,N,10404.2902,E,1,4,2.12,567.8,M,-31.9,M,,*60
2017-05-25T22:35:33 -->> $GPGSA,A,3,05,29,09,20,,,,,,,,,2.30,2.12,0.90*0E
2017-05-25T22:35:33 -->> $GLGSA,A,3,,,,,,,,,,,,,2.30,2.12,0.90*17
2017-05-25T22:35:34 -->> $GPGSV,3,1,09,05,74,329,36,42,37,124,,20,36,253,30,29,28,319,38*7D
2017-05-25T22:35:34 -->> $GPGSV,3,2,09,09,04,037,32,193,,,,06,,,25,25,,,30*77
2017-05-25T22:35:34 -->> $GPGSV,3,3,09,02,,,32*73
2017-05-25T22:35:34 -->> $GLGSV,1,1,00*65
2017-05-25T22:35:34 -->> $GNRMC,143534.000,A,3030.9484,N,10404.2902,E,0.20,0.00,250517,,,A*7B
2017-05-25T22:35:34 -->> $GNVTG,0.00,T,,M,0.20,N,0.37,K,A*25
2017-05-25T22:35:34 -->> $GNGGA,143535.000,3030.9485,N,10404.2904,E,1,4,2.12,568.8,M,-31.9,M,,*69
2017-05-25T22:35:34 -->> $GPGSA,A,3,05,29,09,20,,,,,,,,,2.30,2.12,0.90*0E
2017-05-25T22:35:34 -->> $GLGSA,A,3,,,,,,,,,,,,,2.30,2.12,0.90*17
2017-05-25T22:35:35 -->> $GPGSV,3,1,09,05,74,329,33,42,37,124,,20,36,253,31,29,28,319,38*79
2017-05-25T22:35:35 -->> $GPGSV,3,2,09,09,04,037,32,193,,,,06,,,25,25,,,31*76
2017-05-25T22:35:35 -->> $GPGSV,3,3,09,02,,,32*73
2017-05-25T22:35:35 -->> $GLGSV,1,1,00*65
2017-05-25T22:35:35 -->> $GNRMC,143535.000,A,3030.9485,N,10404.2904,E,0.00,0.00,250517,,,A*7F
2017-05-25T22:35:35 -->> $GNVTG,0.00,T,,M,0.00,N,0.00,K,A*23
2017-05-25T22:35:35 -->> $GNGGA,143536.000,3030.9488,N,10404.2901,E,1,4,2.12,569.2,M,-31.9,M,,*69
2017-05-25T22:35:35 -->> $GPGSA,A,3,05,29,09,20,,,,,,,,,2.30,2.12,0.90*0E
2017-05-25T22:35:35 -->> $GLGSA,A,3,,,,,,,,,,,,,2.30,2.12,0.90*17
2017-05-25T22:35:36 -->> $GPGSV,3,1,09,05,74,329,34,42,37,124,,20,36,253,31,29,28,319,39*7F
2017-05-25T22:35:36 -->> $GPGSV,3,2,09,09,04,037,32,193,,,,06,,,26,25,,,31*75
2017-05-25T22:35:36 -->> $GPGSV,3,3,09,02,,,32*73
2017-05-25T22:35:36 -->> $GLGSV,1,1,00*65
2017-05-25T22:35:36 -->> $GNRMC,143536.000,A,3030.9488,N,10404.2901,E,0.00,0.00,250517,,,A*74
2017-05-25T22:35:36 -->> $GNVTG,0.00,T,,M,0.00,N,0.00,K,A*23
2017-05-25T22:35:36 -->> $GNGGA,143537.000,3030.9488,N,10404.2897,E,1,4,2.12,568.9,M,-31.9,M,,*6C
2017-05-25T22:35:36 -->> $GPGSA,A,3,05,29,09,20,,,,,,,,,2.30,2.12,0.90*0E
2017-05-25T22:35:36 -->> $GLGSA,A,3,,,,,,,,,,,,,2.30,2.12,0.90*17
2017-05-25T22:35:37 -->> $GPGSV,3,1,09,05,74,329,33,42,37,124,,20,36,253,31,29,28,319,39*78
2017-05-25T22:35:37 -->> $GPGSV,3,2,09,09,04,037,31,193,,,,06,,,26,25,,,31*76
2017-05-25T22:35:37 -->> $GPGSV,3,3,09,02,,,33*72
2017-05-25T22:35:37 -->> $GLGSV,1,1,00*65
2017-05-25T22:35:37 -->> $GNRMC,143537.000,A,3030.9488,N,10404.2897,E,0.00,0.00,250517,,,A*7B
2017-05-25T22:35:37 -->> $GNVTG,0.00,T,,M,0.00,N,0.00,K,A*23
2017-05-25T22:35:37 -->> $GNGGA,143538.000,3030.9488,N,10404.2897,E,1,4,2.12,568.9,M,-31.9,M,,*63
2017-05-25T22:35:37 -->> $GPGSA,A,3,05,29,09,20,,,,,,,,,2.30,2.12,0.90*0E
2017-05-25T22:35:37 -->> $GLGSA,A,3,,,,,,,,,,,,,2.30,2.12,0.90*17
2017-05-25T22:35:38 -->> $GPGSV,3,1,09,05,74,329,33,42,37,124,,20,36,253,23,29,28,319,29*7A
2017-05-25T22:35:38 -->> $GPGSV,3,2,09,09,04,037,24,193,,,32,06,,,27,25,,,31*72
2017-05-25T22:35:38 -->> $GPGSV,3,3,09,02,,,34*75
2017-05-25T22:35:38 -->> $GLGSV,1,1,00*65
2017-05-25T22:35:38 -->> $GNRMC,143538.000,A,3030.9488,N,10404.2897,E,0.00,0.00,250517,,,A*74
2017-05-25T22:35:38 -->> $GNVTG,0.00,T,,M,0.00,N,0.00,K,A*23
2017-05-25T22:35:38 -->> $GNGGA,143539.000,3030.9488,N,10404.2897,E,1,4,2.12,568.9,M,-31.9,M,,*62
2017-05-25T22:35:38 -->> $GPGSA,A,3,05,29,09,20,,,,,,,,,2.30,2.12,0.90*0E
2017-05-25T22:35:38 -->> $GLGSA,A,3,,,,,,,,,,,,,2.30,2.12,0.90*17
2017-05-25T22:35:39 -->> $GPGSV,3,1,09,05,74,329,34,42,37,124,,20,36,253,31,29,28,319,36*70
2017-05-25T22:35:39 -->> $GPGSV,3,2,09,09,04,037,23,193,,,30,06,,,29,25,,,31*79
2017-05-25T22:35:39 -->> $GPGSV,3,3,09,02,,,33*72
2017-05-25T22:35:39 -->> $GLGSV,1,1,00*65
2017-05-25T22:35:39 -->> $GNRMC,143539.000,A,3030.9488,N,10404.2897,E,0.00,0.00,250517,,,A*75
2017-05-25T22:35:39 -->> $GNVTG,0.00,T,,M,0.00,N,0.00,K,A*23
2017-05-25T22:35:39 -->> $GNGGA,143540.000,3030.9488,N,10404.2897,E,1,4,19.78,568.9,M,-31.9,M,,*5A
2017-05-25T22:35:39 -->> $GPGSA,A,3,05,29,20,,,,,,,,,,30.01,19.78,22.57*39
2017-05-25T22:35:39 -->> $GLGSA,A,3,87,,,,,,,,,,,,30.01,19.78,22.57*26
2017-05-25T22:35:40 -->> $GPGSV,3,1,09,05,74,329,33,20,36,253,30,44,35,237,,29,28,319,35*70
2017-05-25T22:35:40 -->> $GPGSV,3,2,09,09,04,037,21,193,,,29,06,,,29,25,,,32*70
2017-05-25T22:35:40 -->> $GPGSV,3,3,09,02,,,33*72
2017-05-25T22:35:40 -->> $GLGSV,1,1,01,87,40,338,32*56
2017-05-25T22:35:40 -->> $GNRMC,143540.000,A,3030.9488,N,10404.2897,E,0.00,0.00,250517,,,A*7B
2017-05-25T22:35:40 -->> $GNVTG,0.00,T,,M,0.00,N,0.00,K,A*23
2017-05-25T22:35:40 -->> $GNGGA,143541.000,3030.9488,N,10404.2897,E,1,4,19.79,568.9,M,-31.9,M,,*5A
2017-05-25T22:35:40 -->> $GPGSA,A,3,05,29,20,,,,,,,,,,30.03,19.79,22.59*34
2017-05-25T22:35:40 -->> $GLGSA,A,3,87,,,,,,,,,,,,30.03,19.79,22.59*2B
2017-05-25T22:35:41 -->> $GPGSV,3,1,09,05,74,329,32,20,36,253,29,44,35,237,,29,28,319,35*79
2017-05-25T22:35:41 -->> $GPGSV,3,2,09,09,04,037,36,193,,,31,06,,,30,25,,,31*74
2017-05-25T22:35:41 -->> $GPGSV,3,3,09,02,,,33*72
2017-05-25T22:35:41 -->> $GLGSV,1,1,01,87,40,338,33*57
2017-05-25T22:35:41 -->> $GNRMC,143541.000,A,3030.9488,N,10404.2897,E,0.00,0.00,250517,,,A*7A
2017-05-25T22:35:41 -->> $GNVTG,0.00,T,,M,0.00,N,0.00,K,A*23
2017-05-25T22:35:41 -->> $GNGGA,143542.000,3030.9488,N,10404.2897,E,1,4,19.79,568.9,M,-31.9,M,,*59
2017-05-25T22:35:41 -->> $GPGSA,A,3,05,29,20,,,,,,,,,,30.03,19.79,22.58*35
2017-05-25T22:35:41 -->> $GLGSA,A,3,87,,,,,,,,,,,,30.03,19.79,22.58*2A
2017-05-25T22:35:42 -->> $GPGSV,3,1,09,05,74,329,33,20,36,253,29,44,35,237,,29,28,319,36*7B
2017-05-25T22:35:42 -->> $GPGSV,3,2,09,09,04,037,35,193,,,30,06,,,29,25,,,31*7E
2017-05-25T22:35:42 -->> $GPGSV,3,3,09,02,,,33*72
2017-05-25T22:35:42 -->> $GLGSV,1,1,01,87,40,338,33*57
2017-05-25T22:35:42 -->> $GNRMC,143542.000,A,3030.9488,N,10404.2897,E,0.00,0.00,250517,,,A*79
2017-05-25T22:35:42 -->> $GNVTG,0.00,T,,M,0.00,N,0.00,K,A*23
2017-05-25T22:35:42 -->> $GNGGA,143543.000,3030.9488,N,10404.2897,E,1,4,19.79,568.9,M,-31.9,M,,*58
2017-05-25T22:35:42 -->> $GPGSA,A,3,05,29,20,,,,,,,,,,30.04,19.79,22.60*39
2017-05-25T22:35:42 -->> $GLGSA,A,3,87,,,,,,,,,,,,30.04,19.79,22.60*26
2017-05-25T22:35:43 -->> $GPGSV,3,1,09,05,74,329,32,20,36,253,29,44,35,237,,29,28,319,37*7B
2017-05-25T22:35:43 -->> $GPGSV,3,2,09,09,04,037,34,193,,,30,06,,,21,25,,,31*77
2017-05-25T22:35:43 -->> $GPGSV,3,3,09,02,,,33*72
2017-05-25T22:35:43 -->> $GLGSV,1,1,01,87,40,338,33*57
2017-05-25T22:35:43 -->> $GNRMC,143543.000,A,3030.9488,N,10404.2897,E,0.00,0.00,250517,,,A*78
2017-05-25T22:35:43 -->> $GNVTG,0.00,T,,M,0.00,N,0.00,K,A*23
2017-05-25T22:35:43 -->> $GNGGA,143544.000,3030.9488,N,10404.2897,E,1,4,2.84,568.9,M,-31.9,M,,*67
2017-05-25T22:35:43 -->> $GPGSA,A,3,05,29,20,,,,,,,,,,3.01,2.84,1.00*03
2017-05-25T22:35:43 -->> $GLGSA,A,3,87,,,,,,,,,,,,3.01,2.84,1.00*1C
2017-05-25T22:35:44 -->> $GPGSV,3,1,09,05,74,329,33,20,36,253,30,44,35,237,,29,28,319,37*72
2017-05-25T22:35:44 -->> $GPGSV,3,2,09,09,04,037,33,193,,,29,06,,,22,25,,,31*7B
2017-05-25T22:35:44 -->> $GPGSV,3,3,09,02,,,32*73
2017-05-25T22:35:44 -->> $GLGSV,1,1,01,87,40,338,32*56
2017-05-25T22:35:44 -->> $GNRMC,143544.000,A,3030.9488,N,10404.2897,E,0.00,0.00,250517,,,A*7F
2017-05-25T22:35:44 -->> $GNVTG,0.00,T,,M,0.00,N,0.00,K,A*23
2017-05-25T22:35:44 -->> $GNGGA,143545.000,3030.9488,N,10404.2897,E,1,4,2.84,568.9,M,-31.9,M,,*66
2017-05-25T22:35:44 -->> $GPGSA,A,3,05,29,20,,,,,,,,,,3.01,2.84,1.00*03
2017-05-25T22:35:44 -->> $GLGSA,A,3,87,,,,,,,,,,,,3.01,2.84,1.00*1C
2017-05-25T22:35:45 -->> $GPGSV,3,1,09,05,74,329,34,20,36,253,31,44,35,237,,29,28,319,37*74
2017-05-25T22:35:45 -->> $GPGSV,3,2,09,09,04,037,33,193,,,29,06,,,23,25,,,32*79
2017-05-25T22:35:45 -->> $GPGSV,3,3,09,02,,,32*73
2017-05-25T22:35:45 -->> $GLGSV,1,1,01,87,40,338,32*56
2017-05-25T22:35:45 -->> $GNRMC,143545.000,A,3030.9488,N,10404.2897,E,0.00,0.00,250517,,,A*7E
2017-05-25T22:35:45 -->> $GNVTG,0.00,T,,M,0.00,N,0.00,K,A*23
2017-05-25T22:35:45 -->> $GNGGA,143546.000,3030.9488,N,10404.2897,E,1,4,2.84,568.9,M,-31.9,M,,*65
2017-05-25T22:35:45 -->> $GPGSA,A,3,05,29,20,,,,,,,,,,3.01,2.84,1.00*03
2017-05-25T22:35:45 -->> $GLGSA,A,3,87,,,,,,,,,,,,3.01,2.84,1.00*1C
2017-05-25T22:35:46 -->> $GPGSV,3,1,09,05,74,329,35,20,36,253,31,44,35,237,,29,28,319,39*7B
2017-05-25T22:35:46 -->> $GPGSV,3,2,09,09,04,037,32,193,,,29,06,,,23,25,,,32*78
2017-05-25T22:35:46 -->> $GPGSV,3,3,09,02,,,31*70
2017-05-25T22:35:46 -->> $GLGSV,1,1,01,87,40,338,32*56
2017-05-25T22:35:46 -->> $GNRMC,143546.000,A,3030.9488,N,10404.2897,E,0.00,0.00,250517,,,A*7D
2017-05-25T22:35:46 -->> $GNVTG,0.00,T,,M,0.00,N,0.00,K,A*23
2017-05-25T22:35:46 -->> $GNGGA,143547.000,3030.9488,N,10404.2897,E,1,4,2.84,568.9,M,-31.9,M,,*64
2017-05-25T22:35:46 -->> $GPGSA,A,3,05,29,20,,,,,,,,,,3.01,2.84,1.00*03
2017-05-25T22:35:46 -->> $GLGSA,A,3,87,,,,,,,,,,,,3.01,2.84,1.00*1C
2017-05-25T22:35:47 -->> $GPGSV,3,1,10,05,74,329,36,20,36,253,32,44,35,237,,29,28,319,39*73
2017-05-25T22:35:47 -->> $GPGSV,3,2,10,09,04,037,32,193,,,28,06,,,24,25,,,31*75
2017-05-25T22:35:47 -->> $GPGSV,3,3,10,02,,,32,13,,,31*7B
2017-05-25T22:35:47 -->> $GLGSV,1,1,01,87,40,338,31*55
2017-05-25T22:35:47 -->> $GNRMC,143547.000,A,3030.9488,N,10404.2897,E,0.00,0.00,250517,,,A*7C
2017-05-25T22:35:47 -->> $GNVTG,0.00,T,,M,0.00,N,0.00,K,A*23
2017-05-25T22:35:47 -->> $GNGGA,143548.000,3030.9488,N,10404.2897,E,1,4,2.84,568.9,M,-31.9,M,,*6B
2017-05-25T22:35:47 -->> $GPGSA,A,3,05,29,20,,,,,,,,,,3.01,2.84,1.00*03
2017-05-25T22:35:47 -->> $GLGSA,A,3,87,,,,,,,,,,,,3.01,2.84,1.00*1C
2017-05-25T22:35:48 -->> $GPGSV,3,1,10,05,74,329,39,20,36,253,32,44,35,237,,29,28,319,39*7C
2017-05-25T22:35:48 -->> $GPGSV,3,2,10,09,04,037,32,193,,,29,06,,,26,25,,,31*76
2017-05-25T22:35:48 -->> $GPGSV,3,3,10,02,,,33,13,,,28*72
2017-05-25T22:35:48 -->> $GLGSV,1,1,01,87,40,338,31*55
2017-05-25T22:35:48 -->> $GNRMC,143548.000,A,3030.9488,N,10404.2897,E,0.00,0.00,250517,,,A*73
2017-05-25T22:35:48 -->> $GNVTG,0.00,T,,M,0.00,N,0.00,K,A*23
2017-05-25T22:35:48 -->> $GNGGA,143549.000,3030.9488,N,10404.2897,E,1,5,2.54,568.9,M,-31.9,M,,*66
2017-05-25T22:35:48 -->> $GPGSA,A,3,05,29,20,25,,,,,,,,,2.73,2.54,1.00*0D
2017-05-25T22:35:48 -->> $GLGSA,A,3,87,,,,,,,,,,,,2.73,2.54,1.00*15
2017-05-25T22:35:49 -->> $GPGSV,3,1,10,05,74,329,38,20,36,253,31,40,34,238,,29,28,319,40*7A
2017-05-25T22:35:49 -->> $GPGSV,3,2,10,25,24,269,32,09,04,037,32,193,,,29,06,,,26*4E
2017-05-25T22:35:49 -->> $GPGSV,3,3,10,02,,,32,13,,,27*7C
2017-05-25T22:35:49 -->> $GLGSV,1,1,01,87,40,338,32*56
2017-05-25T22:35:49 -->> $GNRMC,143549.000,A,3030.9488,N,10404.2897,E,0.00,0.00,250517,,,A*72
2017-05-25T22:35:49 -->> $GNVTG,0.00,T,,M,0.00,N,0.00,K,A*23
2017-05-25T22:35:49 -->> $GNGGA,143550.000,3030.9488,N,10404.2897,E,1,5,2.54,568.9,M,-31.9,M,,*6E
2017-05-25T22:35:49 -->> $GPGSA,A,3,05,29,20,25,,,,,,,,,2.73,2.54,1.00*0D
2017-05-25T22:35:49 -->> $GLGSA,A,3,87,,,,,,,,,,,,2.73,2.54,1.00*15
2017-05-25T22:35:50 -->> $GPGSV,3,1,10,05,74,329,37,20,36,253,32,40,34,238,,29,28,319,40*76
2017-05-25T22:35:50 -->> $GPGSV,3,2,10,25,24,269,30,09,04,037,32,193,,,29,06,,,26*4C
2017-05-25T22:35:50 -->> $GPGSV,3,3,10,02,,,32,13,,,25*7E
2017-05-25T22:35:50 -->> $GLGSV,1,1,01,87,40,338,31*55
2017-05-25T22:35:50 -->> $GNRMC,143550.000,A,3030.9488,N,10404.2897,E,0.00,0.00,250517,,,A*7A
2017-05-25T22:35:50 -->> $GNVTG,0.00,T,,M,0.00,N,0.00,K,A*23
2017-05-25T22:35:50 -->> $GNGGA,143551.000,3030.9488,N,10404.2897,E,1,5,2.54,568.9,M,-31.9,M,,*6F
2017-05-25T22:35:50 -->> $GPGSA,A,3,05,29,20,25,,,,,,,,,2.73,2.54,1.00*0D
2017-05-25T22:35:50 -->> $GLGSA,A,3,87,,,,,,,,,,,,2.73,2.54,1.00*15
2017-05-25T22:35:51 -->> $GPGSV,3,1,10,05,74,329,38,20,36,253,32,40,34,238,,29,28,319,40*79
2017-05-25T22:35:51 -->> $GPGSV,3,2,10,25,24,269,31,09,04,037,32,193,,,30,06,,,28*4B
2017-05-25T22:35:51 -->> $GPGSV,3,3,10,02,,,33,13,,,35*7E
2017-05-25T22:35:51 -->> $GLGSV,1,1,01,87,40,338,32*56
2017-05-25T22:35:51 -->> $GNRMC,143551.000,A,3030.9488,N,10404.2897,E,0.00,0.00,250517,,,A*7B
2017-05-25T22:35:51 -->> $GNVTG,0.00,T,,M,0.00,N,0.00,K,A*23
2017-05-25T22:35:51 -->> $GNGGA,143552.000,3030.9488,N,10404.2897,E,1,5,2.54,568.9,M,-31.9,M,,*6C
2017-05-25T22:35:51 -->> $GPGSA,A,3,05,29,20,25,,,,,,,,,2.73,2.54,1.00*0D
2017-05-25T22:35:51 -->> $GLGSA,A,3,87,,,,,,,,,,,,2.73,2.54,1.00*15
2017-05-25T22:35:52 -->> $GPGSV,3,1,10,05,74,329,30,20,36,253,31,40,34,238,,29,28,319,38*7D
2017-05-25T22:35:52 -->> $GPGSV,3,2,10,25,24,269,23,09,04,037,31,193,,,29,06,,,20*4B
2017-05-25T22:35:52 -->> $GPGSV,3,3,10,02,,,32,13,,,27*7C
2017-05-25T22:35:52 -->> $GLGSV,1,1,01,87,40,338,32*56
2017-05-25T22:35:52 -->> $GNRMC,143552.000,A,3030.9488,N,10404.2897,E,0.00,0.00,250517,,,A*78
2017-05-25T22:35:52 -->> $GNVTG,0.00,T,,M,0.00,N,0.00,K,A*23
2017-05-25T22:35:52 -->> $GNGGA,143553.000,3030.9488,N,10404.2897,E,1,5,2.54,568.9,M,-31.9,M,,*6D
2017-05-25T22:35:52 -->> $GPGSA,A,3,05,29,20,25,,,,,,,,,2.73,2.54,1.00*0D
2017-05-25T22:35:52 -->> $GLGSA,A,3,87,,,,,,,,,,,,2.73,2.54,1.00*15
2017-05-25T22:35:53 -->> $GPGSV,3,1,10,05,74,329,31,20,36,253,24,40,34,238,,29,28,319,38*78
2017-05-25T22:35:53 -->> $GPGSV,3,2,10,25,24,269,23,09,04,037,31,193,,,29,06,,,20*4B
2017-05-25T22:35:53 -->> $GPGSV,3,3,10,02,,,31,13,,,26*7E
2017-05-25T22:35:53 -->> $GLGSV,1,1,01,87,40,338,31*55
2017-05-25T22:35:53 -->> $GNRMC,143553.000,A,3030.9488,N,10404.2897,E,0.00,0.00,250517,,,A*79
2017-05-25T22:35:53 -->> $GNVTG,0.00,T,,M,0.00,N,0.00,K,A*23
2017-05-25T22:35:53 -->> $GNGGA,143554.000,3030.9488,N,10404.2897,E,1,5,2.54,568.9,M,-31.9,M,,*6A
2017-05-25T22:35:53 -->> $GPGSA,A,3,05,29,20,25,,,,,,,,,2.73,2.54,1.00*0D
2017-05-25T22:35:53 -->> $GLGSA,A,3,87,,,,,,,,,,,,2.73,2.54,1.00*15
2017-05-25T22:35:54 -->> $GPGSV,3,1,10,05,74,329,31,20,36,253,26,40,34,238,,29,28,319,38*7A
2017-05-25T22:35:54 -->> $GPGSV,3,2,10,25,24,269,22,09,04,037,31,193,,,29,06,,,29*43
2017-05-25T22:35:54 -->> $GPGSV,3,3,10,02,,,31,13,,,22*7A
2017-05-25T22:35:54 -->> $GLGSV,1,1,01,87,40,338,31*55
2017-05-25T22:35:54 -->> $GNRMC,143554.000,A,3030.9488,N,10404.2897,E,0.00,0.00,250517,,,A*7E
2017-05-25T22:35:54 -->> $GNVTG,0.00,T,,M,0.00,N,0.00,K,A*23
2017-05-25T22:35:54 -->> $GNGGA,143555.000,3030.9488,N,10404.2897,E,1,6,1.80,568.9,M,-31.9,M,,*62
2017-05-25T22:35:55 -->> $GPGSA,A,3,05,29,20,25,02,,,,,,,,2.05,1.80,0.98*04
2017-05-25T22:35:55 -->> $GLGSA,A,3,87,,,,,,,,,,,,2.05,1.80,0.98*1E
2017-05-25T22:35:55 -->> $GPGSV,3,1,10,05,74,329,38,02,59,041,31,20,36,253,26,40,34,238,*7B
2017-05-25T22:35:55 -->> $GPGSV,3,2,10,29,28,319,39,25,24,269,24,09,04,037,32,193,,,29*7B
2017-05-25T22:35:55 -->> $GPGSV,3,3,10,06,,,28,13,,,21*75
2017-05-25T22:35:55 -->> $GLGSV,1,1,01,87,40,338,31*55
2017-05-25T22:35:55 -->> $GNRMC,143555.000,A,3030.9488,N,10404.2897,E,0.00,0.00,250517,,,A*7F
2017-05-25T22:35:55 -->> $GNVTG,0.00,T,,M,0.00,N,0.00,K,A*23
2017-05-25T22:35:55 -->> $GNGGA,143556.000,3030.9488,N,10404.2897,E,1,6,1.80,568.9,M,-31.9,M,,*61
2017-05-25T22:35:56 -->> $GPGSA,A,3,05,29,20,25,02,,,,,,,,2.05,1.80,0.98*04
2017-05-25T22:35:56 -->> $GLGSA,A,3,87,,,,,,,,,,,,2.05,1.80,0.98*1E
2017-05-25T22:35:56 -->> $GPGSV,3,1,10,05,74,329,37,02,59,041,32,20,36,253,26,40,34,238,*77
2017-05-25T22:35:56 -->> $GPGSV,3,2,10,29,28,319,38,25,24,269,24,09,04,037,31,193,,,29*79
2017-05-25T22:35:56 -->> $GPGSV,3,3,10,06,,,29,13,,,26*73
2017-05-25T22:35:56 -->> $GLGSV,1,1,01,87,40,338,30*54
2017-05-25T22:35:56 -->> $GNRMC,143556.000,A,3030.9488,N,10404.2897,E,0.00,0.00,250517,,,A*7C
2017-05-25T22:35:56 -->> $GNVTG,0.00,T,,M,0.00,N,0.00,K,A*23
2017-05-25T22:35:56 -->> $GNGGA,143557.000,3030.9488,N,10404.2897,E,1,6,1.80,568.9,M,-31.9,M,,*60
2017-05-25T22:35:57 -->> $GPGSA,A,3,05,29,20,25,02,,,,,,,,2.05,1.80,0.98*04
2017-05-25T22:35:57 -->> $GLGSA,A,3,87,,,,,,,,,,,,2.05,1.80,0.98*1E
2017-05-25T22:35:57 -->> $GPGSV,3,1,10,05,74,329,34,02,59,041,33,20,36,253,27,40,34,238,*74
2017-05-25T22:35:57 -->> $GPGSV,3,2,10,29,28,319,38,25,24,269,24,09,04,037,31,193,,,29*79
2017-05-25T22:35:57 -->> $GPGSV,3,3,10,06,,,29,13,,,26*73
2017-05-25T22:35:57 -->> $GLGSV,1,1,01,87,40,338,29*5C
2017-05-25T22:35:57 -->> $GNRMC,143557.000,A,3030.9488,N,10404.2897,E,0.00,0.00,250517,,,A*7D
2017-05-25T22:35:57 -->> $GNVTG,0.00,T,,M,0.00,N,0.00,K,A*23
2017-05-25T22:35:57 -->> $GNGGA,143558.000,3030.9488,N,10404.2897,E,1,6,1.80,568.9,M,-31.9,M,,*6F
2017-05-25T22:35:58 -->> $GPGSA,A,3,05,29,20,25,02,,,,,,,,2.05,1.80,0.98*04
2017-05-25T22:35:58 -->> $GLGSA,A,3,87,,,,,,,,,,,,2.05,1.80,0.98*1E
2017-05-25T22:35:58 -->> $GPGSV,3,1,10,05,74,329,34,02,59,041,34,20,36,253,26,50,33,120,*7E
2017-05-25T22:35:58 -->> $GPGSV,3,2,10,29,28,319,38,25,24,269,25,09,04,037,31,193,,,30*70
2017-05-25T22:35:58 -->> $GPGSV,3,3,10,06,,,28,13,,,27*73
2017-05-25T22:35:58 -->> $GLGSV,1,1,01,87,40,338,29*5C
2017-05-25T22:35:58 -->> $GNRMC,143558.000,A,3030.9488,N,10404.2897,E,0.00,0.00,250517,,,A*72
2017-05-25T22:35:58 -->> $GNVTG,0.00,T,,M,0.00,N,0.00,K,A*23
2017-05-25T22:35:58 -->> $GNGGA,143559.000,3030.9488,N,10404.2897,E,1,6,1.80,568.9,M,-31.9,M,,*6E
2017-05-25T22:35:59 -->> $GPGSA,A,3,05,29,20,25,02,,,,,,,,2.04,1.80,0.98*05
2017-05-25T22:35:59 -->> $GLGSA,A,3,87,,,,,,,,,,,,2.04,1.80,0.98*1F
2017-05-25T22:35:59 -->> $GPGSV,3,1,10,05,74,329,35,02,59,041,34,20,36,253,26,50,33,120,*7F
2017-05-25T22:35:59 -->> $GPGSV,3,2,10,29,28,319,38,25,24,269,26,09,04,037,31,193,,,31*72
2017-05-25T22:35:59 -->> $GPGSV,3,3,10,06,,,28,13,,,25*71
2017-05-25T22:35:59 -->> $GLGSV,1,1,01,87,40,338,30*54
2017-05-25T22:35:59 -->> $GNRMC,143559.000,A,3030.9488,N,10404.2897,E,0.00,0.00,250517,,,A*73
2017-05-25T22:35:59 -->> $GNVTG,0.00,T,,M,0.00,N,0.00,K,A*23
2017-05-25T22:35:59 -->> $GNGGA,143600.000,3030.9488,N,10404.2897,E,1,6,1.80,568.9,M,-31.9,M,,*61
2017-05-25T22:36:00 -->> $GPGSA,A,3,05,29,20,25,02,,,,,,,,2.05,1.80,0.98*04
2017-05-25T22:36:00 -->> $GLGSA,A,3,87,,,,,,,,,,,,2.05,1.80,0.98*1E
2017-05-25T22:36:00 -->> $GPGSV,3,1,10,05,74,329,35,02,59,041,34,20,36,253,26,50,33,120,*7F
2017-05-25T22:36:00 -->> $GPGSV,3,2,10,29,28,319,38,25,24,269,26,09,04,037,32,193,,,30*70
2017-05-25T22:36:00 -->> $GPGSV,3,3,10,06,,,27,13,,,25*7E
2017-05-25T22:36:00 -->> $GLGSV,1,1,01,87,40,338,31*55
2017-05-25T22:36:00 -->> $GNRMC,143600.000,A,3030.9488,N,10404.2897,E,0.00,0.00,250517,,,A*7C
2017-05-25T22:36:00 -->> $GNVTG,0.00,T,,M,0.00,N,0.00,K,A*23
2017-05-25T22:36:00 -->> $GNGGA,143601.000,3030.9488,N,10404.2897,E,1,7,1.56,568.9,M,-31.9,M,,*6A
2017-05-25T22:36:01 -->> $GPGSA,A,3,05,29,20,25,02,193,,,,,,,1.83,1.56,0.97*36
2017-05-25T22:36:01 -->> $GLGSA,A,3,87,,,,,,,,,,,,1.83,1.56,0.97*17
2017-05-25T22:36:01 -->> $GPGSV,3,1,10,05,74,329,35,02,59,041,34,20,36,253,27,50,33,120,*7E
2017-05-25T22:36:01 -->> $GPGSV,3,2,10,29,28,319,38,25,24,268,25,09,04,037,32,193,,,30*72
2017-05-25T22:36:01 -->> $GPGSV,3,3,10,06,,,27,13,,,17*7F
2017-05-25T22:36:01 -->> $GLGSV,1,1,01,87,40,338,31*55
2017-05-25T22:36:01 -->> $GNRMC,143601.000,A,3030.9488,N,10404.2897,E,0.00,0.00,250517,,,A*7D
2017-05-25T22:36:01 -->> $GNVTG,0.00,T,,M,0.00,N,0.00,K,A*23
2017-05-25T22:36:01 -->> $GNGGA,143602.000,3030.9488,N,10404.2897,E,1,7,1.56,568.9,M,-31.9,M,,*69
2017-05-25T22:36:02 -->> $GPGSA,A,3,05,29,20,25,02,193,,,,,,,1.83,1.56,0.97*36
2017-05-25T22:36:02 -->> $GLGSA,A,3,87,,,,,,,,,,,,1.83,1.56,0.97*17
2017-05-25T22:36:02 -->> $GPGSV,3,1,10,05,74,329,36,02,59,041,34,20,36,253,28,50,33,120,*72
2017-05-25T22:36:02 -->> $GPGSV,3,2,10,29,28,319,38,25,24,268,25,09,04,037,32,193,,,31*73
2017-05-25T22:36:02 -->> $GPGSV,3,3,10,06,,,27,13,,,18*70
2017-05-25T22:36:02 -->> $GLGSV,1,1,01,87,40,338,32*56
2017-05-25T22:36:02 -->> $GNRMC,143602.000,A,3030.9488,N,10404.2897,E,0.00,0.00,250517,,,A*7E
2017-05-25T22:36:02 -->> $GNVTG,0.00,T,,M,0.00,N,0.00,K,A*23
2017-05-25T22:36:02 -->> $GNGGA,143603.000,3030.9488,N,10404.2897,E,1,7,1.56,568.9,M,-31.9,M,,*68
2017-05-25T22:36:03 -->> $GPGSA,A,3,05,29,20,25,02,193,,,,,,,1.83,1.56,0.97*36
2017-05-25T22:36:03 -->> $GLGSA,A,3,87,,,,,,,,,,,,1.83,1.56,0.97*17
2017-05-25T22:36:03 -->> $GPGSV,3,1,10,05,74,329,36,02,59,041,34,20,36,253,28,50,33,120,*72
2017-05-25T22:36:03 -->> $GPGSV,3,2,10,29,28,319,37,25,24,268,24,09,04,037,32,193,,,32*7E
2017-05-25T22:36:03 -->> $GPGSV,3,3,10,06,,,27,13,,,24*7F
2017-05-25T22:36:03 -->> $GLGSV,1,1,01,87,40,338,32*56
2017-05-25T22:36:03 -->> $GNRMC,143603.000,A,3030.9488,N,10404.2897,E,0.00,0.00,250517,,,A*7F
2017-05-25T22:36:03 -->> $GNVTG,0.00,T,,M,0.00,N,0.00,K,A*23
2017-05-25T22:36:03 -->> $GNGGA,143604.000,3030.9488,N,10404.2897,E,1,7,1.56,568.9,M,-31.9,M,,*6F
2017-05-25T22:36:04 -->> $GPGSA,A,3,05,29,20,25,02,193,,,,,,,1.83,1.56,0.97*36
2017-05-25T22:36:04 -->> $GLGSA,A,3,87,,,,,,,,,,,,1.83,1.56,0.97*17
2017-05-25T22:36:04 -->> $GPGSV,3,1,10,05,74,329,35,02,59,041,33,20,36,253,28,50,33,120,*76
2017-05-25T22:36:04 -->> $GPGSV,3,2,10,29,28,319,37,25,24,268,24,09,04,037,33,193,,,32*7F
2017-05-25T22:36:04 -->> $GPGSV,3,3,10,06,,,28,13,,,24*70
2017-05-25T22:36:04 -->> $GLGSV,1,1,01,87,40,338,32*56
2017-05-25T22:36:04 -->> $GNRMC,143604.000,A,3030.9488,N,10404.2897,E,0.00,0.00,250517,,,A*78
2017-05-25T22:36:04 -->> $GNVTG,0.00,T,,M,0.00,N,0.00,K,A*23
2017-05-25T22:36:04 -->> $GNGGA,143605.000,3030.9488,N,10404.2897,E,1,7,1.56,568.9,M,-31.9,M,,*6E
2017-05-25T22:36:05 -->> $GPGSA,A,3,05,29,20,25,02,193,,,,,,,1.83,1.56,0.97*36
2017-05-25T22:36:05 -->> $GLGSA,A,3,87,,,,,,,,,,,,1.83,1.56,0.97*17
2017-05-25T22:36:05 -->> $GPGSV,3,1,10,05,74,329,35,02,59,041,34,20,36,253,27,50,33,120,*7E
2017-05-25T22:36:05 -->> $GPGSV,3,2,10,29,29,319,36,25,24,268,25,09,04,037,33,193,,,32*7E
2017-05-25T22:36:05 -->> $GPGSV,3,3,10,06,,,30,13,,,25*78
2017-05-25T22:36:05 -->> $GLGSV,1,1,01,87,40,338,32*56
2017-05-25T22:36:05 -->> $GNRMC,143605.000,A,3030.9488,N,10404.2897,E,0.00,0.00,250517,,,A*79
2017-05-25T22:36:05 -->> $GNVTG,0.00,T,,M,0.00,N,0.00,K,A*23
2017-05-25T22:36:05 -->> $GNGGA,143606.000,3030.9488,N,10404.2897,E,1,7,1.56,568.9,M,-31.9,M,,*6D
2017-05-25T22:36:06 -->> $GPGSA,A,3,05,29,20,25,02,193,,,,,,,1.83,1.56,0.97*36
2017-05-25T22:36:06 -->> $GLGSA,A,3,87,,,,,,,,,,,,1.83,1.56,0.97*17
2017-05-25T22:36:06 -->> $GPGSV,3,1,10,05,74,329,35,02,59,041,34,20,36,253,25,50,33,120,*7C
2017-05-25T22:36:06 -->> $GPGSV,3,2,10,29,29,319,35,25,24,268,24,09,04,037,24,193,,,33*7B
2017-05-25T22:36:06 -->> $GPGSV,3,3,10,06,,,30,13,,,26*7B
2017-05-25T22:36:06 -->> $GLGSV,1,1,01,87,40,338,33*57
2017-05-25T22:36:06 -->> $GNRMC,143606.000,A,3030.9488,N,10404.2897,E,0.00,0.00,250517,,,A*7A
2017-05-25T22:36:06 -->> $GNVTG,0.00,T,,M,0.00,N,0.00,K,A*23
2017-05-25T22:36:06 -->> $GNGGA,143607.000,3030.9488,N,10404.2897,E,1,7,1.56,568.9,M,-31.9,M,,*6C
2017-05-25T22:36:07 -->> $GPGSA,A,3,05,29,20,25,02,193,,,,,,,1.83,1.56,0.97*36
2017-05-25T22:36:07 -->> $GLGSA,A,3,87,,,,,,,,,,,,1.83,1.56,0.97*17
2017-05-25T22:36:07 -->> $GPGSV,3,1,10,05,74,329,35,02,59,041,34,20,36,253,26,50,33,120,26*7B
2017-05-25T22:36:07 -->> $GPGSV,3,2,10,29,29,319,33,25,24,268,24,09,04,037,23,193,,,33*7A
2017-05-25T22:36:07 -->> $GPGSV,3,3,10,06,,,30,13,,,27*7A
2017-05-25T22:36:07 -->> $GLGSV,1,1,01,87,40,338,32*56
2017-05-25T22:36:07 -->> $GNRMC,143607.000,A,3030.9488,N,10404.2897,E,0.00,0.00,250517,,,A*7B
2017-05-25T22:36:07 -->> $GNVTG,0.00,T,,M,0.00,N,0.00,K,A*23
2017-05-25T22:36:07 -->> $GNGGA,143608.000,3030.9488,N,10404.2897,E,1,7,1.56,568.9,M,-31.9,M,,*63
2017-05-25T22:36:08 -->> $GPGSA,A,3,05,29,20,25,02,193,,,,,,,1.83,1.56,0.97*36
2017-05-25T22:36:08 -->> $GLGSA,A,3,87,,,,,,,,,,,,1.83,1.56,0.97*17
2017-05-25T22:36:08 -->> $GPGSV,3,1,10,05,74,329,35,02,59,041,35,20,36,253,26,50,33,120,26*7A
2017-05-25T22:36:08 -->> $GPGSV,3,2,10,29,29,319,32,25,24,268,24,09,04,037,22,193,,,32*7B
2017-05-25T22:36:08 -->> $GPGSV,3,3,10,06,,,30,13,,,28*75
2017-05-25T22:36:08 -->> $GLGSV,1,1,01,87,40,338,31*55
2017-05-25T22:36:08 -->> $GNRMC,143608.000,A,3030.9488,N,10404.2897,E,0.00,0.00,250517,,,A*74
2017-05-25T22:36:08 -->> $GNVTG,0.00,T,,M,0.00,N,0.00,K,A*23
2017-05-25T22:36:08 -->> $GNGGA,143609.000,3030.9488,N,10404.2897,E,1,7,1.56,568.9,M,-31.9,M,,*62
2017-05-25T22:36:09 -->> $GPGSA,A,3,05,29,20,25,02,193,,,,,,,1.83,1.56,0.97*36
2017-05-25T22:36:09 -->> $GLGSA,A,3,87,,,,,,,,,,,,1.83,1.56,0.97*17
2017-05-25T22:36:09 -->> $GPGSV,3,1,10,05,74,329,36,02,59,041,34,193,59,061,31,20,36,253,24*4A
2017-05-25T22:36:09 -->> $GPGSV,3,2,10,50,33,120,25,29,29,319,33,25,24,268,23,09,04,037,34*71
2017-05-25T22:36:09 -->> $GPGSV,3,3,10,06,,,30,13,,,26*7B
2017-05-25T22:36:09 -->> $GLGSV,1,1,01,87,40,338,31*55
2017-05-25T22:36:09 -->> $GNRMC,143609.000,A,3030.9488,N,10404.2897,E,0.00,0.00,250517,,,A*75
2017-05-25T22:36:09 -->> $GNVTG,0.00,T,,M,0.00,N,0.00,K,A*23
2017-05-25T22:36:10 -->> $GNGGA,143610.000,3030.9488,N,10404.2897,E,1,9,1.34,568.9,M,-31.9,M,,*60
2017-05-25T22:36:10 -->> $GPGSA,A,3,05,29,20,25,02,193,,,,,,,1.65,1.34,0.96*3B
2017-05-25T22:36:10 -->> $GLGSA,A,3,71,86,87,,,,,,,,,,1.65,1.34,0.96*12
2017-05-25T22:36:10 -->> $GPGSV,3,1,10,05,74,329,36,02,59,041,34,193,59,061,31,20,36,253,26*48
2017-05-25T22:36:10 -->> $GPGSV,3,2,10,50,33,120,25,29,29,319,34,25,24,268,24,09,04,037,34*71
2017-05-25T22:36:10 -->> $GPGSV,3,3,10,06,,,29,13,,,31*75
2017-05-25T22:36:10 -->> $GLGSV,1,1,03,86,63,085,31,71,47,027,33,87,40,338,32*50
2017-05-25T22:36:10 -->> $GNRMC,143610.000,A,3030.9488,N,10404.2897,E,0.00,0.00,250517,,,A*7D
2017-05-25T22:36:10 -->> $GNVTG,0.00,T,,M,0.00,N,0.00,K,A*23
2017-05-25T22:36:11 -->> $GNGGA,143611.000,3030.9488,N,10404.2897,E,1,9,1.34,568.9,M,-31.9,M,,*61
2017-05-25T22:36:11 -->> $GPGSA,A,3,05,29,20,25,02,193,,,,,,,1.65,1.34,0.96*3B
2017-05-25T22:36:11 -->> $GLGSA,A,3,71,86,87,,,,,,,,,,1.65,1.34,0.96*12
2017-05-25T22:36:11 -->> $GPGSV,3,1,10,05,74,329,36,02,59,041,33,193,59,061,31,20,36,253,27*4E
2017-05-25T22:36:11 -->> $GPGSV,3,2,10,50,33,120,25,29,29,319,35,25,24,268,31,09,04,037,30*70
2017-05-25T22:36:11 -->> $GPGSV,3,3,10,06,,,28,13,,,30*75
2017-05-25T22:36:11 -->> $GLGSV,1,1,03,86,63,085,29,71,47,027,32,87,40,338,32*58
2017-05-25T22:36:11 -->> $GNRMC,143611.000,A,3030.9488,N,10404.2897,E,0.00,0.00,250517,,,A*7C
2017-05-25T22:36:11 -->> $GNVTG,0.00,T,,M,0.00,N,0.00,K,A*23
2017-05-25T22:36:12 -->> $GNGGA,143612.000,3030.9488,N,10404.2897,E,1,9,1.34,568.9,M,-31.9,M,,*62
2017-05-25T22:36:12 -->> $GPGSA,A,3,05,29,20,25,02,193,,,,,,,1.65,1.34,0.96*3B
2017-05-25T22:36:12 -->> $GLGSA,A,3,71,86,87,,,,,,,,,,1.65,1.34,0.96*12
2017-05-25T22:36:12 -->> $GPGSV,3,1,10,05,74,329,37,02,59,041,32,193,59,061,30,20,36,253,27*4F
2017-05-25T22:36:12 -->> $GPGSV,3,2,10,50,33,120,26,29,29,319,35,25,24,268,23,09,04,037,31*71
2017-05-25T22:36:12 -->> $GPGSV,3,3,10,06,,,28,13,,,28*7C
2017-05-25T22:36:12 -->> $GLGSV,1,1,03,86,63,085,29,71,47,027,32,87,40,338,32*58
2017-05-25T22:36:12 -->> $GNRMC,143612.000,A,3030.9488,N,10404.2897,E,0.00,0.00,250517,,,A*7F
2017-05-25T22:36:12 -->> $GNVTG,0.00,T,,M,0.00,N,0.00,K,A*23
2017-05-25T22:36:13 -->> $GNGGA,143613.000,3030.9488,N,10404.2897,E,1,9,1.34,568.9,M,-31.9,M,,*63
2017-05-25T22:36:13 -->> $GPGSA,A,3,05,29,20,25,02,193,,,,,,,1.65,1.34,0.96*3B
2017-05-25T22:36:13 -->> $GLGSA,A,3,71,86,87,,,,,,,,,,1.65,1.34,0.96*12
2017-05-25T22:36:13 -->> $GPGSV,3,1,10,05,74,329,37,02,59,041,33,193,59,061,30,20,36,253,27*4E
2017-05-25T22:36:13 -->> $GPGSV,3,2,10,50,33,120,26,29,29,319,36,25,24,268,23,09,04,037,31*72
2017-05-25T22:36:13 -->> $GPGSV,3,3,10,06,,,28,13,,,29*7D
2017-05-25T22:36:13 -->> $GLGSV,1,1,03,86,63,085,30,71,47,027,32,87,40,338,31*53
2017-05-25T22:36:13 -->> $GNRMC,143613.000,A,3030.9488,N,10404.2897,E,0.00,0.00,250517,,,A*7E
2017-05-25T22:36:13 -->> $GNVTG,0.00,T,,M,0.00,N,0.00,K,A*23
2017-05-25T22:36:14 -->> $GNGGA,143614.000,3030.9488,N,10404.2897,E,1,9,1.34,568.9,M,-31.9,M,,*64
2017-05-25T22:36:14 -->> $GPGSA,A,3,05,29,20,25,02,193,,,,,,,1.65,1.34,0.96*3B
2017-05-25T22:36:14 -->> $GLGSA,A,3,71,86,87,,,,,,,,,,1.65,1.34,0.96*12
2017-05-25T22:36:14 -->> $GPGSV,3,1,10,05,74,329,36,02,59,041,34,193,59,061,31,20,36,253,26*48
2017-05-25T22:36:14 -->> $GPGSV,3,2,10,50,33,120,26,29,29,319,36,25,24,268,23,09,04,037,32*71
2017-05-25T22:36:14 -->> $GPGSV,3,3,10,06,,,27,13,,,29*72
2017-05-25T22:36:14 -->> $GLGSV,1,1,03,86,63,085,28,71,47,027,32,87,40,338,31*5A
2017-05-25T22:36:14 -->> $GNRMC,143614.000,A,3030.9488,N,10404.2897,E,0.00,0.00,250517,,,A*79
2017-05-25T22:36:14 -->> $GNVTG,0.00,T,,M,0.00,N,0.00,K,A*23
2017-05-25T22:36:14 -->> $GNGGA,143615.000,3030.9488,N,10404.2897,E,1,9,1.34,568.9,M,-31.9,M,,*65
2017-05-25T22:36:15 -->> $GPGSA,A,3,05,29,20,25,02,193,,,,,,,1.65,1.34,0.96*3B
2017-05-25T22:36:15 -->> $GLGSA,A,3,71,86,87,,,,,,,,,,1.65,1.34,0.96*12
2017-05-25T22:36:15 -->> $GPGSV,3,1,10,05,74,329,36,02,59,041,34,193,59,061,32,20,36,253,26*4B
2017-05-25T22:36:15 -->> $GPGSV,3,2,10,50,33,120,26,29,29,319,35,25,24,268,23,09,04,037,32*72
2017-05-25T22:36:15 -->> $GPGSV,3,3,10,06,,,28,13,,,20*74
2017-05-25T22:36:15 -->> $GLGSV,1,1,03,86,63,085,28,71,47,027,32,87,40,338,31*5A
2017-05-25T22:36:15 -->> $GNRMC,143615.000,A,3030.9488,N,10404.2897,E,0.00,0.00,250517,,,A*78
2017-05-25T22:36:15 -->> $GNVTG,0.00,T,,M,0.00,N,0.00,K,A*23
2017-05-25T22:36:15 -->> $GNGGA,143616.000,3030.9488,N,10404.2897,E,1,9,1.34,568.9,M,-31.9,M,,*66
2017-05-25T22:36:16 -->> $GPGSA,A,3,05,29,20,25,02,193,,,,,,,1.65,1.34,0.96*3B
2017-05-25T22:36:16 -->> $GLGSA,A,3,71,86,87,,,,,,,,,,1.65,1.34,0.96*12
2017-05-25T22:36:16 -->> $GPGSV,3,1,10,05,74,329,37,02,59,041,34,193,59,061,32,20,36,253,27*4B
2017-05-25T22:36:16 -->> $GPGSV,3,2,10,29,29,319,35,25,24,268,25,09,04,037,32,39,00,264,*7C
2017-05-25T22:36:16 -->> $GPGSV,3,3,10,06,,,29,13,,,20*75
2017-05-25T22:36:16 -->> $GLGSV,1,1,03,86,63,085,28,71,47,027,32,87,40,338,31*5A
2017-05-25T22:36:16 -->> $GNRMC,143616.000,A,3030.9488,N,10404.2897,E,0.00,0.00,250517,,,A*7B
2017-05-25T22:36:16 -->> $GNVTG,0.00,T,,M,0.00,N,0.00,K,A*23
2017-05-25T22:36:17 -->> $GNGGA,143617.000,3030.9488,N,10404.2897,E,1,9,1.34,568.9,M,-31.9,M,,*67
2017-05-25T22:36:17 -->> $GPGSA,A,3,05,29,20,25,02,193,,,,,,,1.65,1.34,0.96*3B
2017-05-25T22:36:17 -->> $GLGSA,A,3,71,86,87,,,,,,,,,,1.65,1.34,0.96*12
2017-05-25T22:36:17 -->> $GPGSV,3,1,10,05,74,329,35,02,59,041,34,193,59,061,32,20,36,253,26*48
2017-05-25T22:36:17 -->> $GPGSV,3,2,10,29,29,319,36,25,24,268,25,09,04,037,33,39,00,264,*7E
2017-05-25T22:36:17 -->> $GPGSV,3,3,10,06,,,29,13,,,27*72
2017-05-25T22:36:17 -->> $GLGSV,1,1,03,86,63,085,27,71,47,027,32,87,40,338,32*56
2017-05-25T22:36:17 -->> $GNRMC,143617.000,A,3030.9488,N,10404.2897,E,0.00,0.00,250517,,,A*7A
2017-05-25T22:36:17 -->> $GNVTG,0.00,T,,M,0.00,N,0.00,K,A*23
2017-05-25T22:36:18 -->> $GNGGA,143618.000,3030.9488,N,10404.2897,E,1,9,1.34,568.9,M,-31.9,M,,*68
2017-05-25T22:36:18 -->> $GPGSA,A,3,05,29,20,25,02,193,,,,,,,1.65,1.34,0.96*3B
2017-05-25T22:36:18 -->> $GLGSA,A,3,71,86,87,,,,,,,,,,1.65,1.34,0.96*12
2017-05-25T22:36:18 -->> $GPGSV,3,1,10,05,74,329,36,02,59,041,35,193,59,061,32,20,36,253,26*4A
2017-05-25T22:36:18 -->> $GPGSV,3,2,10,29,29,319,36,25,24,268,25,09,04,037,33,39,00,264,*7E
2017-05-25T22:36:18 -->> $GPGSV,3,3,10,06,,,29,13,,,30*74
2017-05-25T22:36:18 -->> $GLGSV,1,1,03,86,63,085,26,71,47,027,33,87,40,338,32*56
2017-05-25T22:36:18 -->> $GNRMC,143618.000,A,3030.9488,N,10404.2897,E,0.00,0.00,250517,,,A*75
2017-05-25T22:36:18 -->> $GNVTG,0.00,T,,M,0.00,N,0.00,K,A*23
2017-05-25T22:36:18 -->> $GNGGA,143619.000,3030.9488,N,10404.2897,E,1,9,1.34,568.9,M,-31.9,M,,*69
2017-05-25T22:36:19 -->> $GPGSA,A,3,05,29,20,25,02,193,,,,,,,1.65,1.34,0.96*3B
2017-05-25T22:36:19 -->> $GLGSA,A,3,71,86,87,,,,,,,,,,1.65,1.34,0.96*12
2017-05-25T22:36:19 -->> $GPGSV,3,1,10,05,74,329,36,02,59,041,35,193,59,061,31,20,36,253,26*49
2017-05-25T22:36:19 -->> $GPGSV,3,2,10,29,29,319,37,25,24,268,24,09,04,037,33,39,00,264,*7E
2017-05-25T22:36:19 -->> $GPGSV,3,3,10,06,,,28,13,,,29*7D
2017-05-25T22:36:19 -->> $GLGSV,1,1,03,86,63,085,26,71,47,027,33,87,40,338,32*56
2017-05-25T22:36:19 -->> $GNRMC,143619.000,A,3030.9488,N,10404.2897,E,0.00,0.00,250517,,,A*74
2017-05-25T22:36:19 -->> $GNVTG,0.00,T,,M,0.00,N,0.00,K,A*23
2017-05-25T22:36:19 -->> $GNGGA,143620.000,3030.9488,N,10404.2897,E,1,9,1.34,568.9,M,-31.9,M,,*63
2017-05-25T22:36:20 -->> $GPGSA,A,3,05,29,20,25,02,193,,,,,,,1.65,1.34,0.96*3B
2017-05-25T22:36:20 -->> $GLGSA,A,3,71,86,87,,,,,,,,,,1.65,1.34,0.96*12
2017-05-25T22:36:20 -->> $GPGSV,3,1,10,05,74,329,35,02,59,041,35,193,59,061,30,20,36,253,27*4A
2017-05-25T22:36:20 -->> $GPGSV,3,2,10,29,29,319,37,25,24,268,26,09,04,037,33,39,00,264,*7C
2017-05-25T22:36:20 -->> $GPGSV,3,3,10,06,,,27,13,,,29*72
2017-05-25T22:36:20 -->> $GLGSV,1,1,03,86,63,085,26,71,47,027,33,87,40,338,32*56
2017-05-25T22:36:20 -->> $GNRMC,143620.000,A,3030.9488,N,10404.2897,E,0.00,0.00,250517,,,A*7E
2017-05-25T22:36:20 -->> $GNVTG,0.00,T,,M,0.00,N,0.00,K,A*23
2017-05-25T22:36:21 -->> $GNGGA,143621.000,3030.9488,N,10404.2897,E,1,9,1.34,568.9,M,-31.9,M,,*62
2017-05-25T22:36:21 -->> $GPGSA,A,3,05,29,20,25,02,193,,,,,,,1.65,1.34,0.96*3B
2017-05-25T22:36:21 -->> $GLGSA,A,3,71,86,87,,,,,,,,,,1.65,1.34,0.96*12
2017-05-25T22:36:21 -->> $GPGSV,3,1,10,05,74,329,36,02,59,041,34,193,59,061,30,20,36,253,27*48
2017-05-25T22:36:21 -->> $GPGSV,3,2,10,29,29,319,37,25,24,268,27,09,04,037,32,39,00,264,*7C
2017-05-25T22:36:21 -->> $GPGSV,3,3,10,06,,,25,13,,,29*70
2017-05-25T22:36:21 -->> $GLGSV,1,1,03,86,63,085,26,71,47,027,33,87,40,338,32*56
2017-05-25T22:36:21 -->> $GNRMC,143621.000,A,3030.9488,N,10404.2897,E,0.00,0.00,250517,,,A*7F
2017-05-25T22:36:21 -->> $GNVTG,0.00,T,,M,0.00,N,0.00,K,A*23
2017-05-25T22:36:22 -->> $GNGGA,143622.000,3030.9488,N,10404.2897,E,1,9,1.34,568.9,M,-31.9,M,,*61
2017-05-25T22:36:22 -->> $GPGSA,A,3,05,29,20,25,02,193,,,,,,,1.65,1.34,0.96*3B
2017-05-25T22:36:22 -->> $GLGSA,A,3,71,86,87,,,,,,,,,,1.65,1.34,0.96*12
2017-05-25T22:36:22 -->> $GPGSV,3,1,10,05,74,329,35,02,59,041,34,193,59,061,30,20,36,253,28*44
2017-05-25T22:36:22 -->> $GPGSV,3,2,10,29,29,319,37,25,24,268,27,09,04,037,32,39,00,264,*7C
2017-05-25T22:36:22 -->> $GPGSV,3,3,10,06,,,24,13,,,21*79
2017-05-25T22:36:22 -->> $GLGSV,1,1,03,86,63,085,27,71,47,027,33,87,40,338,32*57
2017-05-25T22:36:22 -->> $GNRMC,143622.000,A,3030.9488,N,10404.2897,E,0.00,0.00,250517,,,A*7C
2017-05-25T22:36:22 -->> $GNVTG,0.00,T,,M,0.00,N,0.00,K,A*23
2017-05-25T22:36:23 -->> $GNGGA,143623.000,3030.9488,N,10404.2897,E,1,9,1.34,568.9,M,-31.9,M,,*60
2017-05-25T22:36:23 -->> $GPGSA,A,3,05,29,20,25,02,193,,,,,,,1.65,1.34,0.96*3B
2017-05-25T22:36:23 -->> $GLGSA,A,3,71,86,87,,,,,,,,,,1.65,1.34,0.96*12
2017-05-25T22:36:23 -->> $GPGSV,3,1,10,05,74,329,36,02,59,041,35,193,59,061,30,20,36,253,28*46
2017-05-25T22:36:23 -->> $GPGSV,3,2,10,29,29,319,37,25,24,268,27,09,04,037,32,39,00,264,*7C
2017-05-25T22:36:23 -->> $GPGSV,3,3,10,06,,,24,13,,,21*79
2017-05-25T22:36:23 -->> $GLGSV,1,1,03,86,63,085,27,71,47,027,32,87,40,338,31*55
2017-05-25T22:36:23 -->> $GNRMC,143623.000,A,3030.9488,N,10404.2897,E,0.00,0.00,250517,,,A*7D
2017-05-25T22:36:23 -->> $GNVTG,0.00,T,,M,0.00,N,0.00,K,A*23
2017-05-25T22:36:23 -->> $GNGGA,143624.000,3030.9488,N,10404.2897,E,1,9,1.34,568.9,M,-31.9,M,,*67
2017-05-25T22:36:24 -->> $GPGSA,A,3,05,29,20,25,02,193,,,,,,,1.65,1.34,0.96*3B
2017-05-25T22:36:24 -->> $GLGSA,A,3,71,86,87,,,,,,,,,,1.65,1.34,0.96*12
2017-05-25T22:36:24 -->> $GPGSV,3,1,10,05,74,329,37,02,59,041,35,193,59,061,30,20,36,253,28*47
2017-05-25T22:36:24 -->> $GPGSV,3,2,10,29,29,319,37,25,24,268,27,09,04,037,31,39,00,264,*7F
2017-05-25T22:36:24 -->> $GPGSV,3,3,10,06,,,25,13,,,29*70
2017-05-25T22:36:24 -->> $GLGSV,1,1,03,86,63,085,27,71,47,027,32,87,40,338,31*55
2017-05-25T22:36:24 -->> $GNRMC,143624.000,A,3030.9488,N,10404.2897,E,0.00,0.00,250517,,,A*7A
2017-05-25T22:36:24 -->> $GNVTG,0.00,T,,M,0.00,N,0.00,K,A*23
2017-05-25T22:36:25 -->> $GNGGA,143625.000,3030.9488,N,10404.2897,E,1,10,1.19,568.9,M,-31.9,M,,*51
2017-05-25T22:36:25 -->> $GPGSA,A,3,05,29,20,06,25,02,193,,,,,,1.47,1.19,0.86*33
2017-05-25T22:36:25 -->> $GLGSA,A,3,71,86,87,,,,,,,,,,1.47,1.19,0.86*1C
2017-05-25T22:36:25 -->> $GPGSV,3,1,10,05,74,329,37,02,59,041,35,193,59,061,31,42,37,124,*4A
2017-05-25T22:36:25 -->> $GPGSV,3,2,10,20,36,253,27,29,29,319,37,25,24,268,28,06,22,086,25*78
2017-05-25T22:36:25 -->> $GPGSV,3,3,10,09,04,037,31,13,,,25*46
2017-05-25T22:36:25 -->> $GLGSV,1,1,03,86,63,085,27,71,47,027,32,87,40,338,31*55
2017-05-25T22:36:25 -->> $GNRMC,143625.000,A,3030.9488,N,10404.2897,E,0.00,0.00,250517,,,A*7B
2017-05-25T22:36:25 -->> $GNVTG,0.00,T,,M,0.00,N,0.00,K,A*23
2017-05-25T22:36:26 -->> $GNGGA,143626.000,3030.9488,N,10404.2897,E,1,10,1.19,568.9,M,-31.9,M,,*52
2017-05-25T22:36:26 -->> $GPGSA,A,3,05,29,20,06,25,02,193,,,,,,1.46,1.19,0.86*32
2017-05-25T22:36:26 -->> $GLGSA,A,3,71,86,87,,,,,,,,,,1.46,1.19,0.86*1D
2017-05-25T22:36:26 -->> $GPGSV,3,1,10,05,74,329,37,02,59,041,35,193,59,061,31,42,37,124,*4A
2017-05-25T22:36:26 -->> $GPGSV,3,2,10,20,36,253,25,29,29,319,37,25,24,268,27,06,22,086,32*73
2017-05-25T22:36:26 -->> $GPGSV,3,3,10,09,04,037,32,13,,,25*45
2017-05-25T22:36:26 -->> $GLGSV,1,1,03,86,63,085,29,71,47,027,32,87,40,338,29*52
2017-05-25T22:36:26 -->> $GNRMC,143626.000,A,3030.9488,N,10404.2897,E,0.00,0.00,250517,,,A*78
2017-05-25T22:36:26 -->> $GNVTG,0.00,T,,M,0.00,N,0.00,K,A*23
2017-05-25T22:36:27 -->> $GNGGA,143627.000,3030.9488,N,10404.2897,E,1,10,1.19,568.9,M,-31.9,M,,*53
2017-05-25T22:36:27 -->> $GPGSA,A,3,05,29,20,06,25,02,193,,,,,,1.47,1.19,0.86*33
2017-05-25T22:36:27 -->> $GLGSA,A,3,71,86,87,,,,,,,,,,1.47,1.19,0.86*1C
2017-05-25T22:36:27 -->> $GPGSV,3,1,10,05,74,329,36,02,59,041,36,193,59,061,32,42,37,124,*4B
2017-05-25T22:36:27 -->> $GPGSV,3,2,10,20,36,253,25,29,29,319,37,25,24,268,19,06,22,086,32*7E
2017-05-25T22:36:27 -->> $GPGSV,3,3,10,09,04,037,32,13,,,22*42
2017-05-25T22:36:27 -->> $GLGSV,1,1,03,86,63,085,28,71,47,027,32,87,40,338,28*52
2017-05-25T22:36:27 -->> $GNRMC,143627.000,A,3030.9488,N,10404.2897,E,0.00,0.00,250517,,,A*79
2017-05-25T22:36:27 -->> $GNVTG,0.00,T,,M,0.00,N,0.00,K,A*23
2017-05-25T22:36:28 -->> $GNGGA,143628.000,3030.9488,N,10404.2897,E,1,10,1.19,568.9,M,-31.9,M,,*5C
2017-05-25T22:36:28 -->> $GPGSA,A,3,05,29,20,06,25,02,193,,,,,,1.46,1.19,0.86*32
2017-05-25T22:36:28 -->> $GLGSA,A,3,71,86,87,,,,,,,,,,1.46,1.19,0.86*1D
2017-05-25T22:36:28 -->> $GPGSV,3,1,10,05,74,329,36,02,59,041,36,193,59,061,32,42,37,124,*4B
2017-05-25T22:36:28 -->> $GPGSV,3,2,10,20,36,253,26,29,29,319,38,25,24,268,21,06,22,086,31*7A
2017-05-25T22:36:28 -->> $GPGSV,3,3,10,09,04,037,32,13,,,24*44
2017-05-25T22:36:28 -->> $GLGSV,1,1,03,86,63,085,27,71,47,027,32,87,40,338,29*5C
2017-05-25T22:36:28 -->> $GNRMC,143628.000,A,3030.9488,N,10404.2897,E,0.00,0.00,250517,,,A*76
2017-05-25T22:36:28 -->> $GNVTG,0.00,T,,M,0.00,N,0.00,K,A*23
2017-05-25T22:36:29 -->> $GNGGA,143629.000,3030.9488,N,10404.2897,E,1,10,1.19,568.9,M,-31.9,M,,*5D
2017-05-25T22:36:29 -->> $GPGSA,A,3,05,29,20,06,25,02,193,,,,,,1.46,1.19,0.86*32
2017-05-25T22:36:29 -->> $GLGSA,A,3,71,86,87,,,,,,,,,,1.46,1.19,0.86*1D
2017-05-25T22:36:29 -->> $GPGSV,3,1,10,05,74,329,39,02,59,041,35,193,59,061,32,42,37,124,*47
2017-05-25T22:36:29 -->> $GPGSV,3,2,10,20,36,253,27,29,29,319,38,25,24,268,31,06,22,086,30*7B
2017-05-25T22:36:29 -->> $GPGSV,3,3,10,09,04,037,32,13,,,23*43
2017-05-25T22:36:29 -->> $GLGSV,1,1,03,86,63,085,28,71,47,027,32,87,40,338,30*5B
2017-05-25T22:36:29 -->> $GNRMC,143629.000,A,3030.9488,N,10404.2897,E,0.00,0.00,250517,,,A*77
2017-05-25T22:36:29 -->> $GNVTG,0.00,T,,M,0.00,N,0.00,K,A*23
2017-05-25T22:36:30 -->> $GNGGA,143630.000,3030.9488,N,10404.2897,E,1,10,1.19,568.9,M,-31.9,M,,*55
2017-05-25T22:36:30 -->> $GPGSA,A,3,05,29,20,06,25,02,193,,,,,,1.46,1.19,0.86*32
2017-05-25T22:36:30 -->> $GLGSA,A,3,71,86,87,,,,,,,,,,1.46,1.19,0.86*1D
2017-05-25T22:36:30 -->> $GPGSV,3,1,10,05,74,329,38,02,59,041,35,193,59,061,32,42,37,124,*46
2017-05-25T22:36:30 -->> $GPGSV,3,2,10,20,36,253,29,29,29,319,39,25,24,268,31,06,22,086,29*7C
2017-05-25T22:36:30 -->> $GPGSV,3,3,10,09,04,037,31,13,,,24*47
2017-05-25T22:36:30 -->> $GLGSV,1,1,03,86,63,085,28,71,47,027,32,87,40,338,31*5A
2017-05-25T22:36:30 -->> $GNRMC,143630.000,A,3030.9488,N,10404.2897,E,0.00,0.00,250517,,,A*7F
2017-05-25T22:36:30 -->> $GNVTG,0.00,T,,M,0.00,N,0.00,K,A*23
2017-05-25T22:36:31 -->> $GNGGA,143631.000,3030.9488,N,10404.2897,E,1,10,1.19,568.9,M,-31.9,M,,*54
2017-05-25T22:36:31 -->> $GPGSA,A,3,05,29,20,06,25,02,193,,,,,,1.46,1.19,0.86*32
2017-05-25T22:36:31 -->> $GLGSA,A,3,71,86,87,,,,,,,,,,1.46,1.19,0.86*1D
2017-05-25T22:36:31 -->> $GPGSV,3,1,10,05,74,329,37,02,59,041,35,193,59,061,32,42,37,124,*49
2017-05-25T22:36:31 -->> $GPGSV,3,2,10,20,36,253,30,29,29,319,40,25,24,268,30,06,22,086,29*7B
2017-05-25T22:36:31 -->> $GPGSV,3,3,10,09,04,037,30,13,,,24*46
2017-05-25T22:36:31 -->> $GLGSV,1,1,03,86,63,085,27,71,47,027,32,87,40,338,32*56
2017-05-25T22:36:31 -->> $GNRMC,143631.000,A,3030.9488,N,10404.2897,E,0.00,0.00,250517,,,A*7E
2017-05-25T22:36:31 -->> $GNVTG,0.00,T,,M,0.00,N,0.00,K,A*23
2017-05-25T22:36:32 -->> $GNGGA,143632.000,3030.9488,N,10404.2897,E,1,10,1.19,568.9,M,-31.9,M,,*57
2017-05-25T22:36:32 -->> $GPGSA,A,3,05,29,20,06,25,02,193,,,,,,1.46,1.19,0.86*32
2017-05-25T22:36:32 -->> $GLGSA,A,3,71,86,87,,,,,,,,,,1.46,1.19,0.86*1D
2017-05-25T22:36:32 -->> $GPGSV,3,1,10,05,74,329,37,02,59,041,35,193,59,061,32,42,37,124,*49
2017-05-25T22:36:32 -->> $GPGSV,3,2,10,20,36,253,30,29,29,319,40,25,24,268,30,06,22,086,28*7A
2017-05-25T22:36:32 -->> $GPGSV,3,3,10,09,04,037,29,13,,,26*4C
2017-05-25T22:36:32 -->> $GLGSV,1,1,03,86,63,085,28,71,47,027,32,87,40,338,33*58
2017-05-25T22:36:32 -->> $GNRMC,143632.000,A,3030.9488,N,10404.2897,E,0.00,0.00,250517,,,A*7D
2017-05-25T22:36:32 -->> $GNVTG,0.00,T,,M,0.00,N,0.00,K,A*23
2017-05-25T22:36:33 -->> $GNGGA,143633.000,3030.9488,N,10404.2897,E,1,10,1.19,568.9,M,-31.9,M,,*56
2017-05-25T22:36:33 -->> $GPGSA,A,3,05,29,20,06,25,02,193,,,,,,1.46,1.19,0.86*32
2017-05-25T22:36:33 -->> $GLGSA,A,3,71,86,87,,,,,,,,,,1.46,1.19,0.86*1D
2017-05-25T22:36:33 -->> $GPGSV,3,1,10,05,74,329,37,02,59,041,35,193,59,061,32,42,37,124,*49
2017-05-25T22:36:33 -->> $GPGSV,3,2,10,20,36,253,30,29,29,319,39,25,24,268,30,06,22,086,28*74
2017-05-25T22:36:33 -->> $GPGSV,3,3,10,09,04,037,29,13,,,26*4C
2017-05-25T22:36:33 -->> $GLGSV,1,1,03,86,63,085,29,71,47,027,32,87,40,338,33*59
2017-05-25T22:36:33 -->> $GNRMC,143633.000,A,3030.9488,N,10404.2897,E,0.00,0.00,250517,,,A*7C
2017-05-25T22:36:33 -->> $GNVTG,0.00,T,,M,0.00,N,0.00,K,A*23
2017-05-25T22:36:34 -->> $GNGGA,143634.000,3030.9488,N,10404.2897,E,1,10,1.19,568.9,M,-31.9,M,,*51
2017-05-25T22:36:34 -->> $GPGSA,A,3,05,29,20,06,25,02,193,,,,,,1.46,1.19,0.86*32
2017-05-25T22:36:34 -->> $GLGSA,A,3,71,86,87,,,,,,,,,,1.46,1.19,0.86*1D
2017-05-25T22:36:34 -->> $GPGSV,3,1,10,05,74,329,36,02,59,041,35,193,59,061,32,20,36,253,30*4D
2017-05-25T22:36:34 -->> $GPGSV,3,2,10,44,35,237,,29,29,319,39,25,24,268,30,06,22,086,27*7B
2017-05-25T22:36:34 -->> $GPGSV,3,3,10,09,04,037,30,13,,,25*47
2017-05-25T22:36:34 -->> $GLGSV,1,1,03,86,63,085,29,71,47,027,32,87,40,338,33*59
2017-05-25T22:36:34 -->> $GNRMC,143634.000,A,3030.9488,N,10404.2897,E,0.00,0.00,250517,,,A*7B
2017-05-25T22:36:34 -->> $GNVTG,0.00,T,,M,0.00,N,0.00,K,A*23
2017-05-25T22:36:35 -->> $GNGGA,143635.000,3030.9488,N,10404.2897,E,1,10,1.19,568.9,M,-31.9,M,,*50
2017-05-25T22:36:35 -->> $GPGSA,A,3,05,29,20,06,25,02,193,,,,,,1.46,1.19,0.86*32
2017-05-25T22:36:35 -->> $GLGSA,A,3,71,86,87,,,,,,,,,,1.46,1.19,0.86*1D
2017-05-25T22:36:35 -->> $GPGSV,3,1,10,05,74,329,36,02,59,041,35,193,59,061,32,20,36,253,30*4D
2017-05-25T22:36:35 -->> $GPGSV,3,2,10,44,35,237,,29,29,319,39,25,24,268,29,06,22,086,27*73
2017-05-25T22:36:35 -->> $GPGSV,3,3,10,09,04,037,31,13,,,25*46
2017-05-25T22:36:35 -->> $GLGSV,1,1,03,86,63,085,30,71,47,027,32,87,40,338,33*51
2017-05-25T22:36:35 -->> $GNRMC,143635.000,A,3030.9488,N,10404.2897,E,0.00,0.00,250517,,,A*7A
2017-05-25T22:36:35 -->> $GNVTG,0.00,T,,M,0.00,N,0.00,K,A*23
2017-05-25T22:36:36 -->> $GNGGA,143636.000,3030.9488,N,10404.2897,E,1,10,1.19,568.9,M,-31.9,M,,*53
2017-05-25T22:36:36 -->> $GPGSA,A,3,05,29,20,06,25,02,193,,,,,,1.46,1.19,0.86*32
2017-05-25T22:36:36 -->> $GLGSA,A,3,71,86,87,,,,,,,,,,1.46,1.19,0.86*1D
2017-05-25T22:36:36 -->> $GPGSV,3,1,10,05,74,329,36,02,59,041,35,193,59,061,31,20,36,253,28*47
2017-05-25T22:36:36 -->> $GPGSV,3,2,10,44,35,237,,29,29,319,38,25,24,268,29,06,22,086,26*73
2017-05-25T22:36:36 -->> $GPGSV,3,3,10,09,04,037,30,13,,,24*46
2017-05-25T22:36:36 -->> $GLGSV,1,1,03,86,63,085,30,71,47,027,32,87,40,338,32*50
2017-05-25T22:36:36 -->> $GNRMC,143636.000,A,3030.9488,N,10404.2897,E,0.00,0.00,250517,,,A*79
2017-05-25T22:36:36 -->> $GNVTG,0.00,T,,M,0.00,N,0.00,K,A*23
2017-05-25T22:36:37 -->> $GNGGA,143637.000,3030.9488,N,10404.2897,E,1,10,1.19,568.9,M,-31.9,M,,*52
2017-05-25T22:36:37 -->> $GPGSA,A,3,05,29,20,06,25,02,193,,,,,,1.46,1.19,0.86*32
2017-05-25T22:36:37 -->> $GLGSA,A,3,71,86,87,,,,,,,,,,1.46,1.19,0.86*1D
2017-05-25T22:36:37 -->> $GPGSV,3,1,10,05,74,329,36,02,59,041,35,193,59,061,32,20,36,253,27*4B
2017-05-25T22:36:37 -->> $GPGSV,3,2,10,44,35,237,,29,29,319,39,25,24,268,28,06,22,086,27*72
2017-05-25T22:36:37 -->> $GPGSV,3,3,10,09,04,037,31,13,,,25*46
2017-05-25T22:36:37 -->> $GLGSV,1,1,03,86,63,085,30,71,47,027,32,87,40,338,32*50
2017-05-25T22:36:37 -->> $GNRMC,143637.000,A,3030.9488,N,10404.2897,E,0.00,0.00,250517,,,A*78
2017-05-25T22:36:37 -->> $GNVTG,0.00,T,,M,0.00,N,0.00,K,A*23
2017-05-25T22:36:38 -->> $GNGGA,143638.000,3030.9488,N,10404.2897,E,1,10,1.19,568.9,M,-31.9,M,,*5D
2017-05-25T22:36:38 -->> $GPGSA,A,3,05,29,20,06,25,02,193,,,,,,1.46,1.19,0.86*32
2017-05-25T22:36:38 -->> $GLGSA,A,3,71,86,87,,,,,,,,,,1.46,1.19,0.86*1D
2017-05-25T22:36:38 -->> $GPGSV,3,1,10,05,74,329,37,02,59,041,35,193,59,061,32,20,36,253,26*4B
2017-05-25T22:36:38 -->> $GPGSV,3,2,10,44,35,237,,29,29,319,39,25,24,268,29,06,22,086,27*73
2017-05-25T22:36:38 -->> $GPGSV,3,3,10,09,04,037,31,13,,,25*46
2017-05-25T22:36:38 -->> $GLGSV,1,1,03,86,63,085,30,71,47,027,32,87,40,338,32*50
2017-05-25T22:36:38 -->> $GNRMC,143638.000,A,3030.9488,N,10404.2897,E,0.00,0.00,250517,,,A*77
2017-05-25T22:36:38 -->> $GNVTG,0.00,T,,M,0.00,N,0.00,K,A*23
