2017-05-26T20:44:17
2017-05-26T20:45:04 -->> ============================
2017-05-26T20:45:06 -->> $PMTK011,MTKGPS*08
2017-05-26T20:45:06 -->> $PMTK010,001*2E
2017-05-26T20:45:06 -->> $PMTK011,MTKGPS*08
2017-05-26T20:45:06 -->> $PMTK010,002*2D
2017-05-26T20:45:07 -->> $GNGGA,235942.800,,,,,0,0,,,M,,M,,*55
2017-05-26T20:45:07 -->> $GPGSA,A,1,,,,,,,,,,,,,,,*1E
2017-05-26T20:45:07 -->> $GLGSA,A,1,,,,,,,,,,,,,,,*02
2017-05-26T20:45:07 -->> $GPGSV,1,1,00*79
2017-05-26T20:45:07 -->> $GLGSV,1,1,00*65
2017-05-26T20:45:07 -->> $GNRMC,235942.800,V,,,,,0.00,0.00,050180,,,N*5C
2017-05-26T20:45:07 -->> $GNVTG,0.00,T,,M,0.00,N,0.00,K,N*2C
2017-05-26T20:45:08 -->> $GNGGA,235943.800,,,,,0,0,,,M,,M,,*54
2017-05-26T20:45:08 -->> $GPGSA,A,1,,,,,,,,,,,,,,,*1E
2017-05-26T20:45:08 -->> $GLGSA,A,1,,,,,,,,,,,,,,,*02
2017-05-26T20:45:08 -->> $GPGSV,1,1,00*79
2017-05-26T20:45:08 -->> $GLGSV,1,1,00*65
2017-05-26T20:45:08 -->> $GNRMC,235943.800,V,,,,,0.00,0.00,050180,,,N*5D
2017-05-26T20:45:08 -->> $GNVTG,0.00,T,,M,0.00,N,0.00,K,N*2C
2017-05-26T20:45:09 -->> $GNGGA,235944.799,,,,,0,0,,,M,,M,,*5C
2017-05-26T20:45:09 -->> $GPGSA,A,1,,,,,,,,,,,,,,,*1E
2017-05-26T20:45:09 -->> $GLGSA,A,1,,,,,,,,,,,,,,,*02
2017-05-26T20:45:09 -->> $GPGSV,1,1,01,05,,,35*7B
2017-05-26T20:45:09 -->> $GLGSV,1,1,00*65
2017-05-26T20:45:09 -->> $GNRMC,235944.799,V,,,,,0.00,0.00,050180,,,N*55
2017-05-26T20:45:09 -->> $GNVTG,0.00,T,,M,0.00,N,0.00,K,N*2C
2017-05-26T20:45:10 -->> $GNGGA,235945.799,,,,,0,0,,,M,,M,,*5D
2017-05-26T20:45:10 -->> $GPGSA,A,1,,,,,,,,,,,,,,,*1E
2017-05-26T20:45:10 -->> $GLGSA,A,1,,,,,,,,,,,,,,,*02
2017-05-26T20:45:10 -->> $GPGSV,1,1,01,05,,,36*78
2017-05-26T20:45:10 -->> $GLGSV,1,1,00*65
2017-05-26T20:45:10 -->> $GNRMC,235945.799,V,,,,,0.00,0.00,050180,,,N*54
2017-05-26T20:45:10 -->> $GNVTG,0.00,T,,M,0.00,N,0.00,K,N*2C
2017-05-26T20:45:11 -->> $GNGGA,235946.799,,,,,0,0,,,M,,M,,*5E
2017-05-26T20:45:11 -->> $GPGSA,A,1,,,,,,,,,,,,,,,*1E
2017-05-26T20:45:11 -->> $GLGSA,A,1,,,,,,,,,,,,,,,*02
2017-05-26T20:45:11 -->> $GPGSV,1,1,02,05,,,35,12,,,34*7C
2017-05-26T20:45:11 -->> $GLGSV,1,1,00*65
2017-05-26T20:45:11 -->> $GNRMC,235946.799,V,,,,,0.00,0.00,050180,,,N*57
2017-05-26T20:45:11 -->> $GNVTG,0.00,T,,M,0.00,N,0.00,K,N*2C
2017-05-26T20:45:12 -->> $GNGGA,235947.799,,,,,0,0,,,M,,M,,*5F
2017-05-26T20:45:12 -->> $GPGSA,A,1,,,,,,,,,,,,,,,*1E
2017-05-26T20:45:12 -->> $GLGSA,A,1,,,,,,,,,,,,,,,*02
2017-05-26T20:45:12 -->> $GPGSV,1,1,02,05,,,36,12,,,34*7F
2017-05-26T20:45:12 -->> $GLGSV,1,1,00*65
2017-05-26T20:45:12 -->> $GNRMC,235947.799,V,,,,,0.00,0.00,050180,,,N*56
2017-05-26T20:45:12 -->> $GNVTG,0.00,T,,M,0.00,N,0.00,K,N*2C
2017-05-26T20:45:13 -->> $GNGGA,235948.799,,,,,0,0,,,M,,M,,*50
2017-05-26T20:45:13 -->> $GPGSA,A,1,,,,,,,,,,,,,,,*1E
2017-05-26T20:45:13 -->> $GLGSA,A,1,,,,,,,,,,,,,,,*02
2017-05-26T20:45:13 -->> $GPGSV,1,1,03,02,,,29,05,,,36,12,,,35*76
2017-05-26T20:45:13 -->> $GLGSV,1,1,00*65
2017-05-26T20:45:13 -->> $GNRMC,235948.799,V,,,,,0.00,0.00,050180,,,N*59
2017-05-26T20:45:13 -->> $GNVTG,0.00,T,,M,0.00,N,0.00,K,N*2C
2017-05-26T20:45:14 -->> $GNGGA,235949.799,,,,,0,0,,,M,,M,,*51
2017-05-26T20:45:14 -->> $GPGSA,A,1,,,,,,,,,,,,,,,*1E
2017-05-26T20:45:14 -->> $GLGSA,A,1,,,,,,,,,,,,,,,*02
2017-05-26T20:45:14 -->> $GPGSV,1,1,03,02,,,29,05,,,36,12,,,35*76
2017-05-26T20:45:14 -->> $GLGSV,1,1,00*65
2017-05-26T20:45:14 -->> $GNRMC,235949.799,V,,,,,0.00,0.00,050180,,,N*58
2017-05-26T20:45:14 -->> $GNVTG,0.00,T,,M,0.00,N,0.00,K,N*2C
2017-05-26T20:45:15 -->> $GNGGA,235950.800,,,,,0,0,,,M,,M,,*56
2017-05-26T20:45:15 -->> $GPGSA,A,1,,,,,,,,,,,,,,,*1E
2017-05-26T20:45:15 -->> $GLGSA,A,1,,,,,,,,,,,,,,,*02
2017-05-26T20:45:15 -->> $GPGSV,1,1,03,02,,,28,05,,,36,12,,,34*76
2017-05-26T20:45:15 -->> $GLGSV,1,1,00*65
2017-05-26T20:45:15 -->> $GNRMC,235950.800,V,,,,,0.00,0.00,050180,,,N*5F
2017-05-26T20:45:15 -->> $GNVTG,0.00,T,,M,0.00,N,0.00,K,N*2C
2017-05-26T20:45:16 -->> $GNGGA,235951.800,,,,,0,0,,,M,,M,,*57
2017-05-26T20:45:16 -->> $GPGSA,A,1,,,,,,,,,,,,,,,*1E
2017-05-26T20:45:16 -->> $GLGSA,A,1,,,,,,,,,,,,,,,*02
2017-05-26T20:45:16 -->> $GPGSV,1,1,03,02,,,29,05,,,36,12,,,34*77
2017-05-26T20:45:16 -->> $GLGSV,1,1,00*65
2017-05-26T20:45:16 -->> $GNRMC,235951.800,V,,,,,0.00,0.00,050180,,,N*5E
2017-05-26T20:45:16 -->> $GNVTG,0.00,T,,M,0.00,N,0.00,K,N*2C
2017-05-26T20:45:17 -->> $GNGGA,235952.800,,,,,0,0,,,M,,M,,*54
2017-05-26T20:45:17 -->> $GPGSA,A,1,,,,,,,,,,,,,,,*1E
2017-05-26T20:45:17 -->> $GLGSA,A,1,,,,,,,,,,,,,,,*02
2017-05-26T20:45:17 -->> $GPGSV,1,1,03,02,,,29,05,,,36,12,,,34*77
2017-05-26T20:45:17 -->> $GLGSV,1,1,00*65
2017-05-26T20:45:17 -->> $GNRMC,235952.800,V,,,,,0.00,0.00,050180,,,N*5D
2017-05-26T20:45:17 -->> $GNVTG,0.00,T,,M,0.00,N,0.00,K,N*2C
2017-05-26T20:45:17 -->> $GNGGA,235953.089,,,,,0,0,,,M,,M,,*5C
2017-05-26T20:45:17 -->> $GPGSA,A,1,,,,,,,,,,,,,,,*1E
2017-05-26T20:45:17 -->> $GLGSA,A,1,,,,,,,,,,,,,,,*02
2017-05-26T20:45:17 -->> $GPGSV,1,1,03,02,,,28,05,,,36,12,,,34*76
2017-05-26T20:45:17 -->> $GLGSV,1,1,00*65
2017-05-26T20:45:17 -->> $GNRMC,235953.089,V,,,,,0.00,0.00,050180,,,N*55
2017-05-26T20:45:18 -->> $GNVTG,0.00,T,,M,0.00,N,0.00,K,N*2C
2017-05-26T20:45:18 -->> $GNGGA,235954.089,,,,,0,0,,,M,,M,,*5B
2017-05-26T20:45:18 -->> $GPGSA,A,1,,,,,,,,,,,,,,,*1E
2017-05-26T20:45:18 -->> $GLGSA,A,1,,,,,,,,,,,,,,,*02
2017-05-26T20:45:18 -->> $GPGSV,1,1,03,02,,,28,05,,,36,12,,,35*77
2017-05-26T20:45:18 -->> $GLGSV,1,1,00*65
2017-05-26T20:45:18 -->> $GNRMC,235954.089,V,,,,,0.00,0.00,050180,,,N*52
2017-05-26T20:45:19 -->> $GNVTG,0.00,T,,M,0.00,N,0.00,K,N*2C
2017-05-26T20:45:19 -->> $GNGGA,124520.099,,,,,0,0,,,M,,M,,*56
2017-05-26T20:45:19 -->> $GPGSA,A,1,,,,,,,,,,,,,,,*1E
2017-05-26T20:45:19 -->> $GLGSA,A,1,,,,,,,,,,,,,,,*02
2017-05-26T20:45:19 -->> $GPGSV,1,1,03,02,,,27,05,,,36,12,,,35*78
2017-05-26T20:45:19 -->> $GLGSV,1,1,00*65
2017-05-26T20:45:19 -->> $GNRMC,124520.099,V,,,,,0.00,0.00,110180,,,N*5A
2017-05-26T20:45:20 -->> $GNVTG,0.00,T,,M,0.00,N,0.00,K,N*2C
2017-05-26T20:45:20 -->> $GNGGA,124521.099,,,,,0,0,,,M,,M,,*57
2017-05-26T20:45:20 -->> $GPGSA,A,1,,,,,,,,,,,,,,,*1E
2017-05-26T20:45:20 -->> $GLGSA,A,1,,,,,,,,,,,,,,,*02
2017-05-26T20:45:20 -->> $GPGSV,1,1,03,02,,,27,05,,,36,12,,,35*78
2017-05-26T20:45:20 -->> $GLGSV,1,1,00*65
2017-05-26T20:45:20 -->> $GNRMC,124521.099,V,,,,,0.00,0.00,110180,,,N*5B
2017-05-26T20:45:21 -->> $GNVTG,0.00,T,,M,0.00,N,0.00,K,N*2C
2017-05-26T20:45:21 -->> $GNGGA,124522.099,,,,,0,0,,,M,,M,,*54
2017-05-26T20:45:21 -->> $GPGSA,A,1,,,,,,,,,,,,,,,*1E
2017-05-26T20:45:21 -->> $GLGSA,A,1,,,,,,,,,,,,,,,*02
2017-05-26T20:45:21 -->> $GPGSV,1,1,03,02,,,28,05,,,36,12,,,35*77
2017-05-26T20:45:21 -->> $GLGSV,1,1,00*65
2017-05-26T20:45:21 -->> $GNRMC,124522.099,V,,,,,0.00,0.00,110180,,,N*58
2017-05-26T20:45:22 -->> $GNVTG,0.00,T,,M,0.00,N,0.00,K,N*2C
2017-05-26T20:45:22 -->> $GNGGA,124523.099,,,,,0,0,,,M,,M,,*55
2017-05-26T20:45:22 -->> $GPGSA,A,1,,,,,,,,,,,,,,,*1E
2017-05-26T20:45:22 -->> $GLGSA,A,1,,,,,,,,,,,,,,,*02
2017-05-26T20:45:22 -->> $GPGSV,1,1,03,02,,,28,05,,,36,12,,,35*77
2017-05-26T20:45:22 -->> $GLGSV,1,1,00*65
2017-05-26T20:45:22 -->> $GNRMC,124523.099,V,,,,,0.00,0.00,110180,,,N*59
2017-05-26T20:45:23 -->> $GNVTG,0.00,T,,M,0.00,N,0.00,K,N*2C
2017-05-26T20:45:23 -->> $GNGGA,124524.092,,,,,0,0,,,M,,M,,*59
2017-05-26T20:45:23 -->> $GPGSA,A,1,,,,,,,,,,,,,,,*1E
2017-05-26T20:45:23 -->> $GLGSA,A,1,,,,,,,,,,,,,,,*02
2017-05-26T20:45:23 -->> $GPGSV,1,1,03,02,,,28,05,,,36,12,,,35*77
2017-05-26T20:45:23 -->> $GLGSV,1,1,00*65
2017-05-26T20:45:23 -->> $GNRMC,124524.092,V,,,,,0.00,0.00,110180,,,N*55
2017-05-26T20:45:24 -->> $GNVTG,0.00,T,,M,0.00,N,0.00,K,N*2C
2017-05-26T20:45:24 -->> $GNGGA,124525.092,,,,,0,0,,,M,,M,,*58
2017-05-26T20:45:24 -->> $GPGSA,A,1,,,,,,,,,,,,,,,*1E
2017-05-26T20:45:24 -->> $GLGSA,A,1,,,,,,,,,,,,,,,*02
2017-05-26T20:45:24 -->> $GPGSV,1,1,03,02,,,28,05,,,36,12,,,35*77
2017-05-26T20:45:24 -->> $GLGSV,1,1,00*65
2017-05-26T20:45:24 -->> $GNRMC,124525.092,V,,,,,0.00,0.00,110180,,,N*54
2017-05-26T20:45:25 -->> $GNVTG,0.00,T,,M,0.00,N,0.00,K,N*2C
2017-05-26T20:45:25 -->> $GNGGA,124526.092,,,,,0,0,,,M,,M,,*5B
2017-05-26T20:45:25 -->> $GPGSA,A,1,,,,,,,,,,,,,,,*1E
2017-05-26T20:45:25 -->> $GLGSA,A,1,,,,,,,,,,,,,,,*02
2017-05-26T20:45:25 -->> $GPGSV,1,1,03,02,,,28,05,,,36,12,,,35*77
2017-05-26T20:45:25 -->> $GLGSV,1,1,00*65
2017-05-26T20:45:25 -->> $GNRMC,124526.092,V,,,,,0.00,0.00,110180,,,N*57
2017-05-26T20:45:25 -->> $GNVTG,0.00,T,,M,0.00,N,0.00,K,N*2C
2017-05-26T20:45:26 -->> $GNGGA,124527.092,,,,,0,0,,,M,,M,,*5A
2017-05-26T20:45:26 -->> $GPGSA,A,1,,,,,,,,,,,,,,,*1E
2017-05-26T20:45:26 -->> $GLGSA,A,1,,,,,,,,,,,,,,,*02
2017-05-26T20:45:26 -->> $GPGSV,1,1,03,02,,,28,05,,,36,12,,,35*77
2017-05-26T20:45:26 -->> $GLGSV,1,1,00*65
2017-05-26T20:45:26 -->> $GNRMC,124527.092,V,,,,,0.00,0.00,110180,,,N*56
2017-05-26T20:45:27 -->> $GNVTG,0.00,T,,M,0.00,N,0.00,K,N*2C
2017-05-26T20:45:27 -->> $GNGGA,124528.092,,,,,0,0,,,M,,M,,*55
2017-05-26T20:45:27 -->> $GPGSA,A,1,,,,,,,,,,,,,,,*1E
2017-05-26T20:45:27 -->> $GLGSA,A,1,,,,,,,,,,,,,,,*02
2017-05-26T20:45:27 -->> $GPGSV,1,1,03,02,,,28,05,,,36,12,,,35*77
2017-05-26T20:45:27 -->> $GLGSV,1,1,00*65
2017-05-26T20:45:27 -->> $GNRMC,124528.092,V,,,,,0.00,0.00,110180,,,N*59
2017-05-26T20:45:27 -->> $GNVTG,0.00,T,,M,0.00,N,0.00,K,N*2C
2017-05-26T20:45:28 -->> $GNGGA,124529.092,,,,,0,0,,,M,,M,,*54
2017-05-26T20:45:28 -->> $GPGSA,A,1,,,,,,,,,,,,,,,*1E
2017-05-26T20:45:28 -->> $GLGSA,A,1,,,,,,,,,,,,,,,*02
2017-05-26T20:45:28 -->> $GPGSV,1,1,03,02,,,28,05,,,36,12,,,35*77
2017-05-26T20:45:28 -->> $GLGSV,1,1,00*65
2017-05-26T20:45:28 -->> $GNRMC,124529.092,V,,,,,0.00,0.00,110180,,,N*58
2017-05-26T20:45:29 -->> $GNVTG,0.00,T,,M,0.00,N,0.00,K,N*2C
2017-05-26T20:45:29 -->> $GNGGA,124530.092,,,,,0,0,,,M,,M,,*5C
2017-05-26T20:45:29 -->> $GPGSA,A,1,,,,,,,,,,,,,,,*1E
2017-05-26T20:45:29 -->> $GLGSA,A,1,,,,,,,,,,,,,,,*02
2017-05-26T20:45:29 -->> $GPGSV,1,1,03,02,,,28,05,,,36,12,,,35*77
2017-05-26T20:45:29 -->> $GLGSV,1,1,00*65
2017-05-26T20:45:29 -->> $GNRMC,124530.092,V,,,,,0.00,0.00,260517,,,N*5E
2017-05-26T20:45:30 -->> $GNVTG,0.00,T,,M,0.00,N,0.00,K,N*2C
2017-05-26T20:45:30 -->> $GNGGA,124531.092,,,,,0,0,,,M,,M,,*5D
2017-05-26T20:45:30 -->> $GPGSA,A,1,,,,,,,,,,,,,,,*1E
2017-05-26T20:45:30 -->> $GLGSA,A,1,,,,,,,,,,,,,,,*02
2017-05-26T20:45:30 -->> $GPGSV,1,1,03,02,,,28,05,,,36,12,,,35*77
2017-05-26T20:45:30 -->> $GLGSV,1,1,00*65
2017-05-26T20:45:30 -->> $GNRMC,124531.092,V,,,,,0.00,0.00,260517,,,N*5F
2017-05-26T20:45:31 -->> $GNVTG,0.00,T,,M,0.00,N,0.00,K,N*2C
2017-05-26T20:45:31 -->> $GNGGA,124532.092,,,,,0,0,,,M,,M,,*5E
2017-05-26T20:45:31 -->> $GPGSA,A,1,,,,,,,,,,,,,,,*1E
2017-05-26T20:45:31 -->> $GLGSA,A,1,,,,,,,,,,,,,,,*02
2017-05-26T20:45:31 -->> $GPGSV,1,1,03,02,,,28,05,,,36,12,,,35*77
2017-05-26T20:45:31 -->> $GLGSV,1,1,00*65
2017-05-26T20:45:31 -->> $GNRMC,124532.092,V,,,,,0.00,0.00,260517,,,N*5C
2017-05-26T20:45:31 -->> $GNVTG,0.00,T,,M,0.00,N,0.00,K,N*2C
2017-05-26T20:45:32 -->> $GNGGA,124533.092,,,,,0,0,,,M,,M,,*5F
2017-05-26T20:45:32 -->> $GPGSA,A,1,,,,,,,,,,,,,,,*1E
2017-05-26T20:45:32 -->> $GLGSA,A,1,,,,,,,,,,,,,,,*02
2017-05-26T20:45:32 -->> $GPGSV,1,1,03,02,,,28,05,,,36,12,,,35*77
2017-05-26T20:45:32 -->> $GLGSV,1,1,00*65
2017-05-26T20:45:32 -->> $GNRMC,124533.092,V,,,,,0.00,0.00,260517,,,N*5D
2017-05-26T20:45:33 -->> $GNVTG,0.00,T,,M,0.00,N,0.00,K,N*2C
2017-05-26T20:45:33 -->> $GNGGA,124534.092,,,,,0,0,,,M,,M,,*58
2017-05-26T20:45:33 -->> $GPGSA,A,1,,,,,,,,,,,,,,,*1E
2017-05-26T20:45:33 -->> $GLGSA,A,1,,,,,,,,,,,,,,,*02
2017-05-26T20:45:33 -->> $GPGSV,1,1,03,02,,,28,05,,,36,12,,,35*77
2017-05-26T20:45:33 -->> $GLGSV,1,1,00*65
2017-05-26T20:45:33 -->> $GNRMC,124534.092,V,,,,,0.00,0.00,260517,,,N*5A
2017-05-26T20:45:34 -->> $GNVTG,0.00,T,,M,0.00,N,0.00,K,N*2C
2017-05-26T20:45:34 -->> $GNGGA,124535.092,,,,,0,0,,,M,,M,,*59
2017-05-26T20:45:34 -->> $GPGSA,A,1,,,,,,,,,,,,,,,*1E
2017-05-26T20:45:34 -->> $GLGSA,A,1,,,,,,,,,,,,,,,*02
2017-05-26T20:45:34 -->> $GPGSV,1,1,03,02,,,28,05,,,35,12,,,35*74
2017-05-26T20:45:34 -->> $GLGSV,1,1,00*65
2017-05-26T20:45:34 -->> $GNRMC,124535.092,V,,,,,0.00,0.00,260517,,,N*5B
2017-05-26T20:45:35 -->> $GNVTG,0.00,T,,M,0.00,N,0.00,K,N*2C
2017-05-26T20:45:35 -->> $GNGGA,124536.092,,,,,0,0,,,M,,M,,*5A
2017-05-26T20:45:35 -->> $GPGSA,A,1,,,,,,,,,,,,,,,*1E
2017-05-26T20:45:35 -->> $GLGSA,A,1,,,,,,,,,,,,,,,*02
2017-05-26T20:45:35 -->> $GPGSV,1,1,03,02,,,28,05,,,35,12,,,35*74
2017-05-26T20:45:35 -->> $GLGSV,1,1,00*65
2017-05-26T20:45:35 -->> $GNRMC,124536.092,V,,,,,0.00,0.00,260517,,,N*58
2017-05-26T20:45:35 -->> $GNVTG,0.00,T,,M,0.00,N,0.00,K,N*2C
2017-05-26T20:45:36 -->> $GNGGA,124537.092,,,,,0,0,,,M,,M,,*5B
2017-05-26T20:45:36 -->> $GPGSA,A,1,,,,,,,,,,,,,,,*1E
2017-05-26T20:45:36 -->> $GLGSA,A,1,,,,,,,,,,,,,,,*02
2017-05-26T20:45:36 -->> $GPGSV,1,1,03,02,,,28,05,,,35,12,,,35*74
2017-05-26T20:45:36 -->> $GLGSV,1,1,00*65
2017-05-26T20:45:36 -->> $GNRMC,124537.092,V,,,,,0.00,0.00,260517,,,N*59
2017-05-26T20:45:37 -->> $GNVTG,0.00,T,,M,0.00,N,0.00,K,N*2C
2017-05-26T20:45:37 -->> $GNGGA,124538.092,,,,,0,0,,,M,,M,,*54
2017-05-26T20:45:37 -->> $GPGSA,A,1,,,,,,,,,,,,,,,*1E
2017-05-26T20:45:37 -->> $GLGSA,A,1,,,,,,,,,,,,,,,*02
2017-05-26T20:45:37 -->> $GPGSV,1,1,03,02,,,29,05,,,35,12,,,35*75
2017-05-26T20:45:37 -->> $GLGSV,1,1,00*65
2017-05-26T20:45:37 -->> $GNRMC,124538.092,V,,,,,0.00,0.00,260517,,,N*56
2017-05-26T20:45:38 -->> $GNVTG,0.00,T,,M,0.00,N,0.00,K,N*2C
2017-05-26T20:45:38 -->> $GNGGA,124539.092,,,,,0,0,,,M,,M,,*55
2017-05-26T20:45:38 -->> $GPGSA,A,1,,,,,,,,,,,,,,,*1E
2017-05-26T20:45:38 -->> $GLGSA,A,1,,,,,,,,,,,,,,,*02
2017-05-26T20:45:38 -->> $GPGSV,1,1,03,02,,,29,05,,,35,12,,,35*75
2017-05-26T20:45:38 -->> $GLGSV,1,1,00*65
2017-05-26T20:45:38 -->> $GNRMC,124539.092,V,,,,,0.00,0.00,260517,,,N*57
2017-05-26T20:45:39 -->> $GNVTG,0.00,T,,M,0.00,N,0.00,K,N*2C
2017-05-26T20:45:39 -->> $GNGGA,124540.092,,,,,0,0,,,M,,M,,*5B
2017-05-26T20:45:39 -->> $GPGSA,A,1,,,,,,,,,,,,,,,*1E
2017-05-26T20:45:39 -->> $GLGSA,A,1,,,,,,,,,,,,,,,*02
2017-05-26T20:45:39 -->> $GPGSV,1,1,03,02,,,29,05,,,35,12,,,35*75
2017-05-26T20:45:39 -->> $GLGSV,1,1,00*65
2017-05-26T20:45:39 -->> $GNRMC,124540.092,V,,,,,0.00,0.00,260517,,,N*59
2017-05-26T20:45:40 -->> $GNVTG,0.00,T,,M,0.00,N,0.00,K,N*2C
2017-05-26T20:45:40 -->> $GNGGA,124541.092,,,,,0,0,,,M,,M,,*5A
2017-05-26T20:45:40 -->> $GPGSA,A,1,,,,,,,,,,,,,,,*1E
2017-05-26T20:45:40 -->> $GLGSA,A,1,,,,,,,,,,,,,,,*02
2017-05-26T20:45:40 -->> $GPGSV,1,1,03,02,,,29,05,,,35,12,,,35*75
2017-05-26T20:45:40 -->> $GLGSV,1,1,00*65
2017-05-26T20:45:40 -->> $GNRMC,124541.092,V,,,,,0.00,0.00,260517,,,N*58
2017-05-26T20:45:41 -->> $GNVTG,0.00,T,,M,0.00,N,0.00,K,N*2C
2017-05-26T20:45:41 -->> $GNGGA,124542.092,,,,,0,0,,,M,,M,,*59
2017-05-26T20:45:41 -->> $GPGSA,A,1,,,,,,,,,,,,,,,*1E
2017-05-26T20:45:41 -->> $GLGSA,A,1,,,,,,,,,,,,,,,*02
2017-05-26T20:45:41 -->> $GPGSV,1,1,03,12,,,35,02,,,29,05,,,34*74
2017-05-26T20:45:41 -->> $GLGSV,1,1,00*65
2017-05-26T20:45:41 -->> $GNRMC,124542.092,V,,,,,0.00,0.00,260517,,,N*5B
2017-05-26T20:45:41 -->> $GNVTG,0.00,T,,M,0.00,N,0.00,K,N*2C
2017-05-26T20:45:42 -->> $GNGGA,124543.092,,,,,0,0,,,M,,M,,*58
2017-05-26T20:45:42 -->> $GPGSA,A,1,,,,,,,,,,,,,,,*1E
2017-05-26T20:45:42 -->> $GLGSA,A,1,,,,,,,,,,,,,,,*02
2017-05-26T20:45:42 -->> $GPGSV,1,1,03,12,,,35,02,,,29,05,,,34*74
2017-05-26T20:45:42 -->> $GLGSV,1,1,00*65
2017-05-26T20:45:42 -->> $GNRMC,124543.092,V,,,,,0.00,0.00,260517,,,N*5A
2017-05-26T20:45:43 -->> $GNVTG,0.00,T,,M,0.00,N,0.00,K,N*2C
2017-05-26T20:45:43 -->> $GNGGA,124544.092,,,,,0,0,,,M,,M,,*5F
2017-05-26T20:45:43 -->> $GPGSA,A,1,,,,,,,,,,,,,,,*1E
2017-05-26T20:45:43 -->> $GLGSA,A,1,,,,,,,,,,,,,,,*02
2017-05-26T20:45:43 -->> $GPGSV,1,1,03,12,,,35,02,,,29,05,,,34*74
2017-05-26T20:45:43 -->> $GLGSV,1,1,00*65
2017-05-26T20:45:43 -->> $GNRMC,124544.092,V,,,,,0.00,0.00,260517,,,N*5D
2017-05-26T20:45:44 -->> $GNVTG,0.00,T,,M,0.00,N,0.00,K,N*2C
2017-05-26T20:45:44 -->> $GNGGA,124545.092,,,,,0,0,,,M,,M,,*5E
2017-05-26T20:45:44 -->> $GPGSA,A,1,,,,,,,,,,,,,,,*1E
2017-05-26T20:45:44 -->> $GLGSA,A,1,,,,,,,,,,,,,,,*02
2017-05-26T20:45:44 -->> $GPGSV,1,1,03,12,,,35,02,,,29,05,,,35*75
2017-05-26T20:45:44 -->> $GLGSV,1,1,00*65
2017-05-26T20:45:44 -->> $GNRMC,124545.092,V,,,,,0.00,0.00,260517,,,N*5C
2017-05-26T20:45:45 -->> $GNVTG,0.00,T,,M,0.00,N,0.00,K,N*2C
2017-05-26T20:45:45 -->> $GNGGA,124546.092,,,,,0,0,,,M,,M,,*5D
2017-05-26T20:45:45 -->> $GPGSA,A,1,,,,,,,,,,,,,,,*1E
2017-05-26T20:45:45 -->> $GLGSA,A,1,,,,,,,,,,,,,,,*02
2017-05-26T20:45:45 -->> $GPGSV,1,1,03,12,,,35,02,,,29,05,,,35*75
2017-05-26T20:45:45 -->> $GLGSV,1,1,00*65
2017-05-26T20:45:45 -->> $GNRMC,124546.092,V,,,,,0.00,0.00,260517,,,N*5F
2017-05-26T20:45:46 -->> $GNVTG,0.00,T,,M,0.00,N,0.00,K,N*2C
2017-05-26T20:45:46 -->> $GNGGA,124547.092,,,,,0,0,,,M,,M,,*5C
2017-05-26T20:45:46 -->> $GPGSA,A,1,,,,,,,,,,,,,,,*1E
2017-05-26T20:45:46 -->> $GLGSA,A,1,,,,,,,,,,,,,,,*02
2017-05-26T20:45:46 -->> $GPGSV,1,1,03,12,,,35,02,,,29,05,,,35*75
2017-05-26T20:45:46 -->> $GLGSV,1,1,00*65
2017-05-26T20:45:46 -->> $GNRMC,124547.092,V,,,,,0.00,0.00,260517,,,N*5E
2017-05-26T20:45:47 -->> $GNVTG,0.00,T,,M,0.00,N,0.00,K,N*2C
2017-05-26T20:45:47 -->> $GNGGA,124548.084,,,,,0,0,,,M,,M,,*54
2017-05-26T20:45:47 -->> $GPGSA,A,1,,,,,,,,,,,,,,,*1E
2017-05-26T20:45:47 -->> $GLGSA,A,1,,,,,,,,,,,,,,,*02
2017-05-26T20:45:47 -->> $GPGSV,1,1,03,12,,,35,02,,,29,05,,,35*75
2017-05-26T20:45:47 -->> $GLGSV,1,1,00*65
2017-05-26T20:45:47 -->> $GNRMC,124548.084,V,,,,,0.27,0.00,260517,,,N*53
2017-05-26T20:45:48 -->> $GNVTG,0.00,T,,M,0.27,N,0.49,K,N*24
2017-05-26T20:45:48 -->> $GNGGA,124549.084,,,,,0,0,,,M,,M,,*55
2017-05-26T20:45:48 -->> $GPGSA,A,1,,,,,,,,,,,,,,,*1E
2017-05-26T20:45:48 -->> $GLGSA,A,1,,,,,,,,,,,,,,,*02
2017-05-26T20:45:48 -->> $GPGSV,1,1,04,02,53,315,29,12,48,282,35,05,44,215,35,193,,,*7A
2017-05-26T20:45:48 -->> $GLGSV,1,1,00*65
2017-05-26T20:45:49 -->> $GNRMC,124549.084,V,,,,,0.33,0.00,260517,,,N*57
2017-05-26T20:45:49 -->> $GNVTG,0.00,T,,M,0.33,N,0.60,K,N*2A
2017-05-26T20:45:50 -->> $GNGGA,124551.000,,,,,0,0,,,M,,M,,*50
2017-05-26T20:45:50 -->> $GPGSA,A,1,,,,,,,,,,,,,,,*1E
2017-05-26T20:45:50 -->> $GLGSA,A,1,,,,,,,,,,,,,,,*02
2017-05-26T20:45:50 -->> $GPGSV,1,1,04,02,53,315,29,12,48,282,35,05,44,215,34,193,,,*7B
2017-05-26T20:45:50 -->> $GLGSV,1,1,00*65
2017-05-26T20:45:50 -->> $GNRMC,124551.000,V,,,,,0.23,0.00,260517,,,N*53
2017-05-26T20:45:50 -->> $GNVTG,0.00,T,,M,0.23,N,0.43,K,N*2A
2017-05-26T20:45:51 -->> $GNGGA,124552.000,3030.9718,N,10404.3242,E,1,3,5.44,181.9,M,-31.9,M,,*67
2017-05-26T20:45:51 -->> $GPGSA,A,2,02,05,12,,,,,,,,,,5.53,5.44,1.00*00
2017-05-26T20:45:51 -->> $GLGSA,A,2,,,,,,,,,,,,,5.53,5.44,1.00*18
2017-05-26T20:45:51 -->> $GPGSV,1,1,04,02,53,315,29,12,48,282,35,05,44,215,34,193,,,*7B
2017-05-26T20:45:51 -->> $GLGSV,1,1,00*65
2017-05-26T20:45:52 -->> $GNRMC,124552.000,A,3030.9718,N,10404.3242,E,0.18,0.00,260517,,,A*7A
2017-05-26T20:45:52 -->> $GNVTG,0.00,T,,M,0.18,N,0.34,K,A*2D
2017-05-26T20:45:52 -->> $GNGGA,124553.000,3030.9716,N,10404.3253,E,1,3,5.43,181.9,M,-31.9,M,,*6F
2017-05-26T20:45:52 -->> $GPGSA,A,2,02,05,12,,,,,,,,,,5.53,5.43,1.00*07
2017-05-26T20:45:52 -->> $GLGSA,A,2,,,,,,,,,,,,,5.53,5.43,1.00*1F
2017-05-26T20:45:52 -->> $GPGSV,1,1,04,02,53,315,29,12,48,282,35,05,44,215,34,193,,,*7B
2017-05-26T20:45:52 -->> $GLGSV,1,1,00*65
2017-05-26T20:45:53 -->> $GNRMC,124553.000,A,3030.9716,N,10404.3253,E,0.00,0.00,260517,,,A*7C
2017-05-26T20:45:53 -->> $GNVTG,0.00,T,,M,0.00,N,0.00,K,A*23
2017-05-26T20:45:53 -->> $GNGGA,124554.000,3030.9715,N,10404.3259,E,1,3,5.43,181.9,M,-31.9,M,,*61
2017-05-26T20:45:53 -->> $GPGSA,A,2,02,05,12,,,,,,,,,,5.52,5.43,1.00*06
2017-05-26T20:45:53 -->> $GLGSA,A,2,,,,,,,,,,,,,5.52,5.43,1.00*1E
2017-05-26T20:45:53 -->> $GPGSV,1,1,04,02,53,315,29,12,48,282,35,05,44,215,34,193,,,*7B
2017-05-26T20:45:53 -->> $GLGSV,1,1,00*65
2017-05-26T20:45:53 -->> $GNRMC,124554.000,A,3030.9715,N,10404.3259,E,0.00,0.00,260517,,,A*72
2017-05-26T20:45:54 -->> $GNVTG,0.00,T,,M,0.00,N,0.00,K,A*23
2017-05-26T20:45:54 -->> $GNGGA,124554.215,3030.9714,N,10404.3266,E,1,3,5.43,181.9,M,-31.9,M,,*6A
2017-05-26T20:45:54 -->> $GPGSA,A,2,02,05,12,,,,,,,,,,5.52,5.43,1.00*06
2017-05-26T20:45:54 -->> $GLGSA,A,2,,,,,,,,,,,,,5.52,5.43,1.00*1E
2017-05-26T20:45:54 -->> $GPGSV,1,1,04,02,53,315,29,12,48,282,35,05,44,215,34,193,,,*7B
2017-05-26T20:45:54 -->> $GLGSV,1,1,00*65
2017-05-26T20:45:54 -->> $GNRMC,124554.215,A,3030.9714,N,10404.3266,E,0.00,0.00,260517,,,A*79
2017-05-26T20:45:54 -->> $GNVTG,0.00,T,,M,0.00,N,0.00,K,A*23
2017-05-26T20:45:55 -->> $GNGGA,124556.000,3030.9714,N,10404.3266,E,1,3,5.43,181.9,M,-31.9,M,,*6E
2017-05-26T20:45:55 -->> $GPGSA,A,2,02,05,12,,,,,,,,,,5.52,5.43,1.00*06
2017-05-26T20:45:55 -->> $GLGSA,A,2,,,,,,,,,,,,,5.52,5.43,1.00*1E
2017-05-26T20:45:55 -->> $GPGSV,1,1,04,02,53,315,29,12,48,282,35,05,44,215,34,193,,,*7B
2017-05-26T20:45:55 -->> $GLGSV,1,1,00*65
2017-05-26T20:45:55 -->> $GNRMC,124556.000,A,3030.9714,N,10404.3266,E,0.00,0.00,260517,,,A*7D
2017-05-26T20:45:56 -->> $GNVTG,0.00,T,,M,0.00,N,0.00,K,A*23
2017-05-26T20:45:56 -->> $GNGGA,124557.000,3030.9714,N,10404.3266,E,1,3,5.42,181.9,M,-31.9,M,,*6E
2017-05-26T20:45:56 -->> $GPGSA,A,2,02,05,12,,,,,,,,,,5.51,5.42,1.00*04
2017-05-26T20:45:56 -->> $GLGSA,A,2,,,,,,,,,,,,,5.51,5.42,1.00*1C
2017-05-26T20:45:56 -->> $GPGSV,1,1,04,02,53,315,29,12,48,282,35,05,44,215,34,193,,,*7B
2017-05-26T20:45:56 -->> $GLGSV,1,1,00*65
2017-05-26T20:45:56 -->> $GNRMC,124557.000,A,3030.9714,N,10404.3266,E,0.00,0.00,260517,,,A*7C
2017-05-26T20:45:57 -->> $GNVTG,0.00,T,,M,0.00,N,0.00,K,A*23
2017-05-26T20:45:57 -->> $GNGGA,124558.000,3030.9714,N,10404.3266,E,1,3,5.42,181.9,M,-31.9,M,,*61
2017-05-26T20:45:57 -->> $GPGSA,A,2,02,05,12,,,,,,,,,,5.51,5.42,1.00*04
2017-05-26T20:45:57 -->> $GLGSA,A,2,,,,,,,,,,,,,5.51,5.42,1.00*1C
2017-05-26T20:45:57 -->> $GPGSV,1,1,04,02,53,315,29,12,48,282,35,05,44,215,34,193,,,*7B
2017-05-26T20:45:57 -->> $GLGSV,1,1,00*65
2017-05-26T20:45:57 -->> $GNRMC,124558.000,A,3030.9714,N,10404.3266,E,0.00,0.00,260517,,,A*73
2017-05-26T20:45:58 -->> $GNVTG,0.00,T,,M,0.00,N,0.00,K,A*23
2017-05-26T20:45:58 -->> $GNGGA,124559.000,3030.9714,N,10404.3266,E,1,3,5.42,181.9,M,-31.9,M,,*60
2017-05-26T20:45:58 -->> $GPGSA,A,2,02,05,12,,,,,,,,,,5.51,5.42,1.00*04
2017-05-26T20:45:58 -->> $GLGSA,A,2,,,,,,,,,,,,,5.51,5.42,1.00*1C
2017-05-26T20:45:58 -->> $GPGSV,1,1,04,02,53,315,29,12,48,282,35,05,44,215,34,193,,,*7B
2017-05-26T20:45:58 -->> $GLGSV,1,1,00*65
2017-05-26T20:45:59 -->> $GNRMC,124559.000,A,3030.9714,N,10404.3266,E,0.00,0.00,260517,,,A*72
2017-05-26T20:45:59 -->> $GNVTG,0.00,T,,M,0.00,N,0.00,K,A*23
2017-05-26T20:45:59 -->> $GNGGA,124600.000,3030.9714,N,10404.3266,E,1,3,5.41,181.9,M,-31.9,M,,*6C
2017-05-26T20:45:59 -->> $GPGSA,A,2,02,05,12,,,,,,,,,,5.51,5.41,1.00*07
2017-05-26T20:45:59 -->> $GLGSA,A,2,,,,,,,,,,,,,5.51,5.41,1.00*1F
2017-05-26T20:45:59 -->> $GPGSV,1,1,04,02,53,315,29,12,48,282,35,05,44,215,34,193,,,*7B
2017-05-26T20:45:59 -->> $GLGSV,1,1,00*65
2017-05-26T20:45:59 -->> $GNRMC,124600.000,A,3030.9714,N,10404.3266,E,0.00,0.00,260517,,,A*7D
2017-05-26T20:46:00 -->> $GNVTG,0.00,T,,M,0.00,N,0.00,K,A*23
2017-05-26T20:46:00 -->> $GNGGA,124600.204,3030.9714,N,10404.3266,E,1,3,5.41,181.9,M,-31.9,M,,*6A
2017-05-26T20:46:00 -->> $GPGSA,A,2,02,05,12,,,,,,,,,,5.51,5.41,1.00*07
2017-05-26T20:46:00 -->> $GLGSA,A,2,,,,,,,,,,,,,5.51,5.41,1.00*1F
2017-05-26T20:46:00 -->> $GPGSV,1,1,04,02,53,315,29,12,48,282,35,05,44,215,34,193,,,*7B
2017-05-26T20:46:00 -->> $GLGSV,1,1,00*65
2017-05-26T20:46:00 -->> $GNRMC,124600.204,A,3030.9714,N,10404.3266,E,0.00,0.00,260517,,,A*7B
2017-05-26T20:46:00 -->> $GNVTG,0.00,T,,M,0.00,N,0.00,K,A*23
2017-05-26T20:46:01 -->> $GNGGA,124602.000,3030.9714,N,10404.3266,E,1,3,5.41,181.9,M,-31.9,M,,*6E
2017-05-26T20:46:01 -->> $GPGSA,A,2,02,05,12,,,,,,,,,,5.50,5.41,1.00*06
2017-05-26T20:46:01 -->> $GLGSA,A,2,,,,,,,,,,,,,5.50,5.41,1.00*1E
2017-05-26T20:46:01 -->> $GPGSV,1,1,04,02,53,315,29,12,48,281,35,05,44,215,34,193,,,*78
2017-05-26T20:46:01 -->> $GLGSV,1,1,00*65
2017-05-26T20:46:02 -->> $GNRMC,124602.000,A,3030.9714,N,10404.3266,E,0.00,0.00,260517,,,A*7F
2017-05-26T20:46:02 -->> $GNVTG,0.00,T,,M,0.00,N,0.00,K,A*23
2017-05-26T20:46:02 -->> $GNGGA,124603.000,3030.9714,N,10404.3266,E,1,3,5.41,181.9,M,-31.9,M,,*6F
2017-05-26T20:46:02 -->> $GPGSA,A,2,02,05,12,,,,,,,,,,5.50,5.41,1.00*06
2017-05-26T20:46:02 -->> $GLGSA,A,2,,,,,,,,,,,,,5.50,5.41,1.00*1E
2017-05-26T20:46:02 -->> $GPGSV,1,1,04,02,53,315,29,12,48,281,35,05,44,215,34,193,,,*78
2017-05-26T20:46:02 -->> $GLGSV,1,1,00*65
2017-05-26T20:46:02 -->> $GNRMC,124603.000,A,3030.9714,N,10404.3266,E,0.00,0.00,260517,,,A*7E
2017-05-26T20:46:03 -->> $GNVTG,0.00,T,,M,0.00,N,0.00,K,A*23
2017-05-26T20:46:03 -->> $GNGGA,124604.000,3030.9714,N,10404.3266,E,1,3,5.41,181.9,M,-31.9,M,,*68
2017-05-26T20:46:03 -->> $GPGSA,A,2,02,05,12,,,,,,,,,,5.50,5.41,1.00*06
2017-05-26T20:46:03 -->> $GLGSA,A,2,,,,,,,,,,,,,5.50,5.41,1.00*1E
2017-05-26T20:46:03 -->> $GPGSV,1,1,04,02,53,315,29,12,48,281,35,05,44,215,34,193,,,*78
2017-05-26T20:46:03 -->> $GLGSV,1,1,00*65
2017-05-26T20:46:04 -->> $GNRMC,124604.000,A,3030.9714,N,10404.3266,E,0.00,0.00,260517,,,A*79
2017-05-26T20:46:04 -->> $GNVTG,0.00,T,,M,0.00,N,0.00,K,A*23
2017-05-26T20:46:04 -->> $GNGGA,124605.000,3030.9714,N,10404.3266,E,1,3,5.41,181.9,M,-31.9,M,,*69
2017-05-26T20:46:04 -->> $GPGSA,A,2,02,05,12,,,,,,,,,,5.50,5.41,1.00*06
2017-05-26T20:46:04 -->> $GLGSA,A,2,,,,,,,,,,,,,5.50,5.41,1.00*1E
2017-05-26T20:46:04 -->> $GPGSV,1,1,04,02,53,315,29,12,48,281,35,05,44,215,34,193,,,*78
2017-05-26T20:46:04 -->> $GLGSV,1,1,00*65
2017-05-26T20:46:05 -->> $GNRMC,124605.000,A,3030.9714,N,10404.3266,E,0.00,0.00,260517,,,A*78
2017-05-26T20:46:05 -->> $GNVTG,0.00,T,,M,0.00,N,0.00,K,A*23
2017-05-26T20:46:05 -->> $GNGGA,124606.000,3030.9714,N,10404.3266,E,1,3,5.40,181.9,M,-31.9,M,,*6B
2017-05-26T20:46:05 -->> $GPGSA,A,2,02,05,12,,,,,,,,,,5.49,5.40,1.00*0F
2017-05-26T20:46:05 -->> $GLGSA,A,2,,,,,,,,,,,,,5.49,5.40,1.00*17
2017-05-26T20:46:05 -->> $GPGSV,1,1,04,02,53,315,29,12,48,281,35,05,44,215,34,193,,,*78
2017-05-26T20:46:05 -->> $GLGSV,1,1,00*65
2017-05-26T20:46:06 -->> $GNRMC,124606.000,A,3030.9714,N,10404.3266,E,0.00,0.00,260517,,,A*7B
2017-05-26T20:46:06 -->> $GNVTG,0.00,T,,M,0.00,N,0.00,K,A*23
2017-05-26T20:46:06 -->> $GNGGA,124606.210,3030.9714,N,10404.3266,E,1,3,5.40,181.9,M,-31.9,M,,*68
2017-05-26T20:46:06 -->> $GPGSA,A,2,02,05,12,,,,,,,,,,5.49,5.40,1.00*0F
2017-05-26T20:46:06 -->> $GLGSA,A,2,,,,,,,,,,,,,5.49,5.40,1.00*17
2017-05-26T20:46:06 -->> $GPGSV,1,1,04,02,53,315,29,12,48,281,35,05,44,215,34,193,,,*78
2017-05-26T20:46:06 -->> $GLGSV,1,1,00*65
2017-05-26T20:46:06 -->> $GNRMC,124606.210,A,3030.9714,N,10404.3266,E,0.00,0.00,260517,,,A*78
2017-05-26T20:46:06 -->> $GNVTG,0.00,T,,M,0.00,N,0.00,K,A*23
2017-05-26T20:46:07 -->> $GNGGA,124608.000,3030.9714,N,10404.3266,E,1,3,5.40,181.9,M,-31.9,M,,*65
2017-05-26T20:46:07 -->> $GPGSA,A,2,02,05,12,,,,,,,,,,5.49,5.40,1.00*0F
2017-05-26T20:46:07 -->> $GLGSA,A,2,,,,,,,,,,,,,5.49,5.40,1.00*17
2017-05-26T20:46:07 -->> $GPGSV,1,1,04,02,53,315,29,12,48,281,35,05,44,215,34,193,,,*78
2017-05-26T20:46:07 -->> $GLGSV,1,1,00*65
2017-05-26T20:46:08 -->> $GNRMC,124608.000,A,3030.9714,N,10404.3266,E,0.00,0.00,260517,,,A*75
2017-05-26T20:46:08 -->> $GNVTG,0.00,T,,M,0.00,N,0.00,K,A*23
2017-05-26T20:46:08 -->> $GNGGA,124609.000,3030.9714,N,10404.3266,E,1,3,5.39,181.9,M,-31.9,M,,*6A
2017-05-26T20:46:08 -->> $GPGSA,A,2,02,05,12,,,,,,,,,,5.49,5.39,1.00*01
2017-05-26T20:46:08 -->> $GLGSA,A,2,,,,,,,,,,,,,5.49,5.39,1.00*19
2017-05-26T20:46:08 -->> $GPGSV,1,1,04,02,53,315,29,12,48,281,35,05,44,215,34,193,,,*78
2017-05-26T20:46:08 -->> $GLGSV,1,1,00*65
2017-05-26T20:46:09 -->> $GNRMC,124609.000,A,3030.9714,N,10404.3266,E,0.00,0.00,260517,,,A*74
2017-05-26T20:46:09 -->> $GNVTG,0.00,T,,M,0.00,N,0.00,K,A*23
2017-05-26T20:46:09 -->> $GNGGA,124610.000,3030.9714,N,10404.3266,E,1,3,5.40,181.9,M,-31.9,M,,*6C
2017-05-26T20:46:09 -->> $GPGSA,A,2,02,05,12,,,,,,,,,,5.49,5.40,1.00*0F
2017-05-26T20:46:09 -->> $GLGSA,A,2,,,,,,,,,,,,,5.49,5.40,1.00*17
2017-05-26T20:46:09 -->> $GPGSV,1,1,04,02,53,315,29,12,48,281,35,05,44,215,34,193,,,*78
2017-05-26T20:46:09 -->> $GLGSV,1,1,00*65
2017-05-26T20:46:10 -->> $GNRMC,124610.000,A,3030.9714,N,10404.3266,E,0.00,0.00,260517,,,A*7C
2017-05-26T20:46:10 -->> $GNVTG,0.00,T,,M,0.00,N,0.00,K,A*23
2017-05-26T20:46:10 -->> $GNGGA,124611.000,3030.9714,N,10404.3266,E,1,3,5.39,181.9,M,-31.9,M,,*63
2017-05-26T20:46:10 -->> $GPGSA,A,2,02,05,12,,,,,,,,,,5.48,5.39,1.00*00
2017-05-26T20:46:10 -->> $GLGSA,A,2,,,,,,,,,,,,,5.48,5.39,1.00*18
2017-05-26T20:46:10 -->> $GPGSV,1,1,04,02,53,315,29,12,48,281,35,05,44,215,34,193,,,*78
2017-05-26T20:46:10 -->> $GLGSV,1,1,00*65
2017-05-26T20:46:11 -->> $GNRMC,124611.000,A,3030.9714,N,10404.3266,E,0.00,0.00,260517,,,A*7D
2017-05-26T20:46:11 -->> $GNVTG,0.00,T,,M,0.00,N,0.00,K,A*23
2017-05-26T20:46:11 -->> $GNGGA,124612.000,3030.9714,N,10404.3266,E,1,3,5.39,181.9,M,-31.9,M,,*60
2017-05-26T20:46:11 -->> $GPGSA,A,2,02,05,12,,,,,,,,,,5.48,5.39,1.00*00
2017-05-26T20:46:11 -->> $GLGSA,A,2,,,,,,,,,,,,,5.48,5.39,1.00*18
2017-05-26T20:46:11 -->> $GPGSV,1,1,04,02,53,315,29,12,48,281,35,05,44,215,34,193,,,*78
2017-05-26T20:46:11 -->> $GLGSV,1,1,00*65
2017-05-26T20:46:12 -->> $GNRMC,124612.000,A,3030.9714,N,10404.3266,E,0.00,0.00,260517,,,A*7E
2017-05-26T20:46:12 -->> $GNVTG,0.00,T,,M,0.00,N,0.00,K,A*23
2017-05-26T20:46:12 -->> $GNGGA,124612.210,3030.9714,N,10404.3266,E,1,3,5.39,181.9,M,-31.9,M,,*63
2017-05-26T20:46:12 -->> $GPGSA,A,2,02,05,12,,,,,,,,,,5.48,5.39,1.00*00
2017-05-26T20:46:12 -->> $GLGSA,A,2,,,,,,,,,,,,,5.48,5.39,1.00*18
2017-05-26T20:46:12 -->> $GPGSV,1,1,04,02,53,315,29,12,48,281,35,05,44,215,34,193,,,*78
2017-05-26T20:46:12 -->> $GLGSV,1,1,00*65
2017-05-26T20:46:12 -->> $GNRMC,124612.210,A,3030.9714,N,10404.3266,E,0.00,0.00,260517,,,A*7D
2017-05-26T20:46:12 -->> $GNVTG,0.00,T,,M,0.00,N,0.00,K,A*23
2017-05-26T20:46:13 -->> $GNGGA,124614.000,3030.9714,N,10404.3266,E,1,3,5.39,181.9,M,-31.9,M,,*66
2017-05-26T20:46:13 -->> $GPGSA,A,2,02,05,12,,,,,,,,,,5.48,5.39,1.00*00
2017-05-26T20:46:13 -->> $GLGSA,A,2,,,,,,,,,,,,,5.48,5.39,1.00*18
2017-05-26T20:46:13 -->> $GPGSV,1,1,04,02,53,315,29,12,48,281,35,05,44,215,34,193,,,*78
2017-05-26T20:46:13 -->> $GLGSV,1,1,00*65
2017-05-26T20:46:14 -->> $GNRMC,124614.000,A,3030.9714,N,10404.3266,E,0.00,0.00,260517,,,A*78
2017-05-26T20:46:14 -->> $GNVTG,0.00,T,,M,0.00,N,0.00,K,A*23
2017-05-26T20:46:14 -->> $GNGGA,124615.000,3030.9714,N,10404.3266,E,1,3,5.38,181.9,M,-31.9,M,,*66
2017-05-26T20:46:14 -->> $GPGSA,A,2,02,05,12,,,,,,,,,,5.47,5.38,1.00*0E
2017-05-26T20:46:14 -->> $GLGSA,A,2,,,,,,,,,,,,,5.47,5.38,1.00*16
2017-05-26T20:46:14 -->> $GPGSV,1,1,04,02,53,315,29,12,48,281,34,05,44,215,34,193,,,*79
2017-05-26T20:46:14 -->> $GLGSV,1,1,00*65
2017-05-26T20:46:15 -->> $GNRMC,124615.000,A,3030.9714,N,10404.3266,E,0.00,0.00,260517,,,A*79
2017-05-26T20:46:15 -->> $GNVTG,0.00,T,,M,0.00,N,0.00,K,A*23
2017-05-26T20:46:15 -->> $GNGGA,124616.000,3030.9714,N,10404.3266,E,1,3,5.38,181.9,M,-31.9,M,,*65
2017-05-26T20:46:15 -->> $GPGSA,A,2,02,05,12,,,,,,,,,,5.47,5.38,1.00*0E
2017-05-26T20:46:15 -->> $GLGSA,A,2,,,,,,,,,,,,,5.47,5.38,1.00*16
2017-05-26T20:46:15 -->> $GPGSV,1,1,04,02,53,315,28,12,48,281,34,05,44,215,34,193,,,*78
2017-05-26T20:46:15 -->> $GLGSV,1,1,00*65
2017-05-26T20:46:16 -->> $GNRMC,124616.000,A,3030.9714,N,10404.3266,E,0.00,0.00,260517,,,A*7A
2017-05-26T20:46:16 -->> $GNVTG,0.00,T,,M,0.00,N,0.00,K,A*23
2017-05-26T20:46:16 -->> $GNGGA,124617.000,3030.9714,N,10404.3266,E,1,3,19.99,181.9,M,-31.9,M,,*52
2017-05-26T20:46:16 -->> $GPGSA,A,2,02,05,12,,,,,,,,,,99.99,19.99,99.99*3F
2017-05-26T20:46:16 -->> $GLGSA,A,2,,,,,,,,,,,,,99.99,19.99,99.99*27
2017-05-26T20:46:16 -->> $GPGSV,1,1,04,02,53,315,28,12,48,281,35,05,44,215,34,193,,,*79
2017-05-26T20:46:16 -->> $GLGSV,1,1,00*65
2017-05-26T20:46:17 -->> $GNRMC,124617.000,A,3030.9714,N,10404.3266,E,0.00,0.00,260517,,,A*7B
2017-05-26T20:46:17 -->> $GNVTG,0.00,T,,M,0.00,N,0.00,K,A*23
2017-05-26T20:46:17 -->> $GNGGA,124618.000,3030.9714,N,10404.3266,E,1,3,5.37,181.9,M,-31.9,M,,*64
2017-05-26T20:46:17 -->> $GPGSA,A,2,02,05,12,,,,,,,,,,5.47,5.37,1.00*01
2017-05-26T20:46:17 -->> $GLGSA,A,2,,,,,,,,,,,,,5.47,5.37,1.00*19
2017-05-26T20:46:17 -->> $GPGSV,2,1,05,02,53,315,28,12,48,281,35,05,44,215,34,193,,,*7B
2017-05-26T20:46:17 -->> $GPGSV,2,2,05,17,,,20*78
2017-05-26T20:46:17 -->> $GLGSV,1,1,00*65
2017-05-26T20:46:18 -->> $GNRMC,124618.000,A,3030.9714,N,10404.3266,E,0.00,0.00,260517,,,A*74
2017-05-26T20:46:18 -->> $GNVTG,0.00,T,,M,0.00,N,0.00,K,A*23
2017-05-26T20:46:18 -->> $GNGGA,124618.217,3030.9714,N,10404.3266,E,1,3,5.37,181.9,M,-31.9,M,,*60
2017-05-26T20:46:18 -->> $GPGSA,A,2,02,05,12,,,,,,,,,,5.47,5.37,1.00*01
2017-05-26T20:46:18 -->> $GLGSA,A,2,,,,,,,,,,,,,5.47,5.37,1.00*19
2017-05-26T20:46:18 -->> $GPGSV,2,1,05,02,53,315,28,12,48,281,35,05,44,215,34,193,,,*7B
2017-05-26T20:46:18 -->> $GPGSV,2,2,05,17,,,23*7B
2017-05-26T20:46:18 -->> $GLGSV,1,1,00*65
2017-05-26T20:46:18 -->> $GNRMC,124618.217,A,3030.9714,N,10404.3266,E,0.00,0.00,260517,,,A*70
2017-05-26T20:46:18 -->> $GNVTG,0.00,T,,M,0.00,N,0.00,K,A*23
2017-05-26T20:46:19 -->> $GNGGA,124620.000,3030.9714,N,10404.3266,E,1,3,5.37,181.9,M,-31.9,M,,*6F
2017-05-26T20:46:19 -->> $GPGSA,A,2,02,05,12,,,,,,,,,,5.46,5.37,1.00*00
2017-05-26T20:46:19 -->> $GLGSA,A,2,,,,,,,,,,,,,5.46,5.37,1.00*18
2017-05-26T20:46:19 -->> $GPGSV,2,1,05,02,53,315,28,12,48,281,35,05,44,215,34,193,,,*7B
2017-05-26T20:46:19 -->> $GPGSV,2,2,05,17,,,27*7F
2017-05-26T20:46:19 -->> $GLGSV,1,1,00*65
2017-05-26T20:46:20 -->> $GNRMC,124620.000,A,3030.9714,N,10404.3266,E,0.00,0.00,260517,,,A*7F
2017-05-26T20:46:20 -->> $GNVTG,0.00,T,,M,0.00,N,0.00,K,A*23
2017-05-26T20:46:20 -->> $GNGGA,124621.000,3030.9714,N,10404.3266,E,1,3,5.37,181.9,M,-31.9,M,,*6E
2017-05-26T20:46:20 -->> $GPGSA,A,2,02,05,12,,,,,,,,,,5.46,5.37,1.00*00
2017-05-26T20:46:20 -->> $GLGSA,A,2,,,,,,,,,,,,,5.46,5.37,1.00*18
2017-05-26T20:46:20 -->> $GPGSV,2,1,06,02,53,315,28,12,48,281,34,05,44,215,34,193,,,*79
2017-05-26T20:46:20 -->> $GPGSV,2,2,06,17,,,27,19,,,24*72
2017-05-26T20:46:20 -->> $GLGSV,1,1,00*65
2017-05-26T20:46:21 -->> $GNRMC,124621.000,A,3030.9714,N,10404.3266,E,0.00,0.00,260517,,,A*7E
2017-05-26T20:46:21 -->> $GNVTG,0.00,T,,M,0.00,N,0.00,K,A*23
2017-05-26T20:46:21 -->> $GNGGA,124622.000,3030.9714,N,10404.3266,E,1,3,5.37,181.9,M,-31.9,M,,*6D
2017-05-26T20:46:21 -->> $GPGSA,A,2,02,05,12,,,,,,,,,,5.46,5.37,1.00*00
2017-05-26T20:46:21 -->> $GLGSA,A,2,,,,,,,,,,,,,5.46,5.37,1.00*18
2017-05-26T20:46:21 -->> $GPGSV,2,1,06,02,53,315,28,12,48,281,34,05,44,215,34,193,,,*79
2017-05-26T20:46:21 -->> $GPGSV,2,2,06,17,,,27,19,,,23*75
2017-05-26T20:46:21 -->> $GLGSV,1,1,00*65
2017-05-26T20:46:22 -->> $GNRMC,124622.000,A,3030.9714,N,10404.3266,E,0.00,0.00,260517,,,A*7D
2017-05-26T20:46:22 -->> $GNVTG,0.00,T,,M,0.00,N,0.00,K,A*23
2017-05-26T20:46:22 -->> $GNGGA,124623.000,3030.9714,N,10404.3266,E,1,3,5.36,181.9,M,-31.9,M,,*6D
2017-05-26T20:46:22 -->> $GPGSA,A,2,02,05,12,,,,,,,,,,5.45,5.36,1.00*02
2017-05-26T20:46:22 -->> $GLGSA,A,2,,,,,,,,,,,,,5.45,5.36,1.00*1A
2017-05-26T20:46:22 -->> $GPGSV,2,1,06,02,53,315,28,12,48,281,35,05,44,215,34,193,,,*78
2017-05-26T20:46:22 -->> $GPGSV,2,2,06,17,,,27,19,,,25*73
2017-05-26T20:46:22 -->> $GLGSV,1,1,00*65
2017-05-26T20:46:23 -->> $GNRMC,124623.000,A,3030.9714,N,10404.3266,E,0.00,0.00,260517,,,A*7C
2017-05-26T20:46:23 -->> $GNVTG,0.00,T,,M,0.00,N,0.00,K,A*23
2017-05-26T20:46:23 -->> $GNGGA,124624.000,3030.9714,N,10404.3266,E,1,3,5.36,181.9,M,-31.9,M,,*6A
2017-05-26T20:46:23 -->> $GPGSA,A,2,02,05,12,,,,,,,,,,5.45,5.36,1.00*02
2017-05-26T20:46:23 -->> $GLGSA,A,2,,,,,,,,,,,,,5.45,5.36,1.00*1A
2017-05-26T20:46:23 -->> $GPGSV,2,1,06,02,53,315,28,12,48,281,35,05,44,215,34,193,,,*78
2017-05-26T20:46:23 -->> $GPGSV,2,2,06,17,,,27,19,,,25*73
2017-05-26T20:46:23 -->> $GLGSV,1,1,00*65
2017-05-26T20:46:24 -->> $GNRMC,124624.000,A,3030.9714,N,10404.3266,E,0.00,0.00,260517,,,A*7B
2017-05-26T20:46:24 -->> $GNVTG,0.00,T,,M,0.00,N,0.00,K,A*23
2017-05-26T20:46:24 -->> $GNGGA,124624.216,3030.9714,N,10404.3266,E,1,3,5.36,181.9,M,-31.9,M,,*6F
2017-05-26T20:46:24 -->> $GPGSA,A,2,02,05,12,,,,,,,,,,5.45,5.36,1.00*02
2017-05-26T20:46:24 -->> $GLGSA,A,2,,,,,,,,,,,,,5.45,5.36,1.00*1A
2017-05-26T20:46:24 -->> $GPGSV,2,1,06,02,53,315,28,12,48,281,35,05,44,215,34,193,,,*78
2017-05-26T20:46:24 -->> $GPGSV,2,2,06,17,,,27,19,,,25*73
2017-05-26T20:46:24 -->> $GLGSV,1,1,00*65
2017-05-26T20:46:24 -->> $GNRMC,124624.216,A,3030.9714,N,10404.3266,E,0.00,0.00,260517,,,A*7E
2017-05-26T20:46:24 -->> $GNVTG,0.00,T,,M,0.00,N,0.00,K,A*23
2017-05-26T20:46:25 -->> $GNGGA,124626.000,3030.9714,N,10404.3266,E,1,3,5.36,181.9,M,-31.9,M,,*68
2017-05-26T20:46:25 -->> $GPGSA,A,2,02,05,12,,,,,,,,,,5.45,5.36,1.00*02
2017-05-26T20:46:25 -->> $GLGSA,A,2,,,,,,,,,,,,,5.45,5.36,1.00*1A
2017-05-26T20:46:25 -->> $GPGSV,2,1,06,02,53,315,29,12,48,281,35,05,44,215,34,193,,,*79
2017-05-26T20:46:25 -->> $GPGSV,2,2,06,17,,,27,19,,,25*73
2017-05-26T20:46:25 -->> $GLGSV,1,1,00*65
2017-05-26T20:46:26 -->> $GNRMC,124626.000,A,3030.9714,N,10404.3266,E,0.00,0.00,260517,,,A*79
2017-05-26T20:46:26 -->> $GNVTG,0.00,T,,M,0.00,N,0.00,K,A*23
2017-05-26T20:46:26 -->> $GNGGA,124627.000,3030.9714,N,10404.3266,E,1,3,5.35,181.9,M,-31.9,M,,*6A
2017-05-26T20:46:26 -->> $GPGSA,A,2,02,05,12,,,,,,,,,,5.45,5.35,1.00*01
2017-05-26T20:46:26 -->> $GLGSA,A,2,,,,,,,,,,,,,5.45,5.35,1.00*19
2017-05-26T20:46:26 -->> $GPGSV,2,1,06,02,53,315,29,12,48,281,35,05,44,215,34,193,,,*79
2017-05-26T20:46:26 -->> $GPGSV,2,2,06,17,,,27,19,,,25*73
2017-05-26T20:46:26 -->> $GLGSV,1,1,00*65
2017-05-26T20:46:27 -->> $GNRMC,124627.000,A,3030.9714,N,10404.3266,E,0.00,0.00,260517,,,A*78
2017-05-26T20:46:27 -->> $GNVTG,0.00,T,,M,0.00,N,0.00,K,A*23
2017-05-26T20:46:27 -->> $GNGGA,124628.000,3030.9714,N,10404.3266,E,1,3,5.35,181.9,M,-31.9,M,,*65
2017-05-26T20:46:27 -->> $GPGSA,A,2,02,05,12,,,,,,,,,,5.44,5.35,1.00*00
2017-05-26T20:46:27 -->> $GLGSA,A,2,,,,,,,,,,,,,5.44,5.35,1.00*18
2017-05-26T20:46:27 -->> $GPGSV,2,1,06,02,53,315,29,12,48,281,34,05,44,215,34,193,,,*78
2017-05-26T20:46:27 -->> $GPGSV,2,2,06,17,,,27,19,,,25*73
2017-05-26T20:46:27 -->> $GLGSV,1,1,00*65
2017-05-26T20:46:28 -->> $GNRMC,124628.000,A,3030.9714,N,10404.3266,E,0.00,0.00,260517,,,A*77
2017-05-26T20:46:28 -->> $GNVTG,0.00,T,,M,0.00,N,0.00,K,A*23
2017-05-26T20:46:28 -->> $GNGGA,124629.000,3030.9714,N,10404.3266,E,1,3,5.35,181.9,M,-31.9,M,,*64
2017-05-26T20:46:28 -->> $GPGSA,A,2,02,05,12,,,,,,,,,,5.44,5.35,1.00*00
2017-05-26T20:46:28 -->> $GLGSA,A,2,,,,,,,,,,,,,5.44,5.35,1.00*18
2017-05-26T20:46:28 -->> $GPGSV,2,1,06,02,53,315,29,12,48,281,34,05,44,215,34,193,,,*78
2017-05-26T20:46:28 -->> $GPGSV,2,2,06,17,,,27,19,,,25*73
2017-05-26T20:46:28 -->> $GLGSV,1,1,00*65
2017-05-26T20:46:29 -->> $GNRMC,124629.000,A,3030.9714,N,10404.3266,E,0.00,0.00,260517,,,A*76
2017-05-26T20:46:29 -->> $GNVTG,0.00,T,,M,0.00,N,0.00,K,A*23
2017-05-26T20:46:29 -->> $GNGGA,124630.000,3030.9714,N,10404.3266,E,1,3,5.34,181.9,M,-31.9,M,,*6D
2017-05-26T20:46:29 -->> $GPGSA,A,2,02,05,12,,,,,,,,,,5.44,5.34,1.00*01
2017-05-26T20:46:29 -->> $GLGSA,A,2,,,,,,,,,,,,,5.44,5.34,1.00*19
2017-05-26T20:46:29 -->> $GPGSV,2,1,07,02,53,315,29,12,48,281,34,05,44,215,34,193,,,*79
2017-05-26T20:46:29 -->> $GPGSV,2,2,07,17,,,27,19,,,25,25,,,23*74
2017-05-26T20:46:29 -->> $GLGSV,1,1,00*65
2017-05-26T20:46:30 -->> $GNRMC,124630.000,A,3030.9714,N,10404.3266,E,0.00,0.00,260517,,,A*7E
2017-05-26T20:46:30 -->> $GNVTG,0.00,T,,M,0.00,N,0.00,K,A*23
2017-05-26T20:46:30 -->> $GNGGA,124630.212,3030.9714,N,10404.3266,E,1,3,5.35,181.9,M,-31.9,M,,*6D
2017-05-26T20:46:30 -->> $GPGSA,A,2,02,05,12,,,,,,,,,,5.44,5.35,1.00*00
2017-05-26T20:46:30 -->> $GLGSA,A,2,,,,,,,,,,,,,5.44,5.35,1.00*18
2017-05-26T20:46:30 -->> $GPGSV,2,1,07,02,53,315,29,12,48,281,34,05,44,215,34,193,,,*79
2017-05-26T20:46:30 -->> $GPGSV,2,2,07,17,,,27,19,,,25,25,,,21*76
2017-05-26T20:46:30 -->> $GLGSV,1,1,00*65
2017-05-26T20:46:30 -->> $GNRMC,124630.212,A,3030.9714,N,10404.3266,E,0.00,0.00,260517,,,A*7F
2017-05-26T20:46:30 -->> $GNVTG,0.00,T,,M,0.00,N,0.00,K,A*23
2017-05-26T20:46:31 -->> $GNGGA,124632.000,3030.9714,N,10404.3266,E,1,3,5.35,181.9,M,-31.9,M,,*6E
2017-05-26T20:46:31 -->> $GPGSA,A,2,02,05,12,,,,,,,,,,5.44,5.35,1.00*00
2017-05-26T20:46:31 -->> $GLGSA,A,2,,,,,,,,,,,,,5.44,5.35,1.00*18
2017-05-26T20:46:31 -->> $GPGSV,2,1,07,02,53,315,29,12,48,281,35,05,44,215,34,193,,,*78
2017-05-26T20:46:31 -->> $GPGSV,2,2,07,17,,,27,19,,,25,25,,,24*73
2017-05-26T20:46:31 -->> $GLGSV,1,1,00*65
2017-05-26T20:46:32 -->> $GNRMC,124632.000,A,3030.9714,N,10404.3266,E,0.00,0.00,260517,,,A*7C
2017-05-26T20:46:32 -->> $GNVTG,0.00,T,,M,0.00,N,0.00,K,A*23
2017-05-26T20:46:32 -->> $GNGGA,124633.000,3030.9714,N,10404.3266,E,1,3,5.34,181.9,M,-31.9,M,,*6E
2017-05-26T20:46:32 -->> $GPGSA,A,2,02,05,12,,,,,,,,,,5.43,5.34,1.00*06
2017-05-26T20:46:32 -->> $GLGSA,A,2,,,,,,,,,,,,,5.43,5.34,1.00*1E
2017-05-26T20:46:32 -->> $GPGSV,2,1,07,02,53,315,29,12,48,281,35,05,44,215,34,193,,,*78
2017-05-26T20:46:32 -->> $GPGSV,2,2,07,17,,,27,19,,,24,25,,,25*73
2017-05-26T20:46:32 -->> $GLGSV,1,1,00*65
2017-05-26T20:46:33 -->> $GNRMC,124633.000,A,3030.9714,N,10404.3266,E,0.00,0.00,260517,,,A*7D
2017-05-26T20:46:33 -->> $GNVTG,0.00,T,,M,0.00,N,0.00,K,A*23
2017-05-26T20:46:33 -->> $GNGGA,124634.000,3030.9714,N,10404.3266,E,1,3,5.34,181.9,M,-31.9,M,,*69
2017-05-26T20:46:33 -->> $GPGSA,A,2,02,05,12,,,,,,,,,,5.43,5.34,1.00*06
2017-05-26T20:46:33 -->> $GLGSA,A,2,,,,,,,,,,,,,5.43,5.34,1.00*1E
2017-05-26T20:46:33 -->> $GPGSV,2,1,07,02,53,315,29,12,48,281,35,05,44,215,34,193,,,*78
2017-05-26T20:46:33 -->> $GPGSV,2,2,07,17,,,27,19,,,24,25,,,24*72
2017-05-26T20:46:33 -->> $GLGSV,1,1,00*65
2017-05-26T20:46:34 -->> $GNRMC,124634.000,A,3030.9714,N,10404.3266,E,0.00,0.00,260517,,,A*7A
2017-05-26T20:46:34 -->> $GNVTG,0.00,T,,M,0.00,N,0.00,K,A*23
2017-05-26T20:46:34 -->> $GNGGA,124635.000,3030.9714,N,10404.3266,E,1,3,5.34,181.9,M,-31.9,M,,*68
2017-05-26T20:46:34 -->> $GPGSA,A,2,02,05,12,,,,,,,,,,5.43,5.34,1.00*06
2017-05-26T20:46:34 -->> $GLGSA,A,2,,,,,,,,,,,,,5.43,5.34,1.00*1E
2017-05-26T20:46:34 -->> $GPGSV,2,1,07,02,53,315,29,12,48,281,35,05,44,215,34,193,,,*78
2017-05-26T20:46:34 -->> $GPGSV,2,2,07,17,,,27,19,,,24,25,,,24*72
2017-05-26T20:46:34 -->> $GLGSV,1,1,00*65
2017-05-26T20:46:35 -->> $GNRMC,124635.000,A,3030.9714,N,10404.3266,E,0.00,0.00,260517,,,A*7B
2017-05-26T20:46:35 -->> $GNVTG,0.00,T,,M,0.00,N,0.00,K,A*23
2017-05-26T20:46:35 -->> $GNGGA,124636.000,3030.9714,N,10404.3266,E,1,3,5.33,181.9,M,-31.9,M,,*6C
2017-05-26T20:46:35 -->> $GPGSA,A,2,02,05,12,,,,,,,,,,5.43,5.33,1.00*01
2017-05-26T20:46:35 -->> $GLGSA,A,2,,,,,,,,,,,,,5.43,5.33,1.00*19
2017-05-26T20:46:35 -->> $GPGSV,2,1,07,02,53,315,29,12,48,281,35,05,44,215,34,193,,,*78
2017-05-26T20:46:35 -->> $GPGSV,2,2,07,17,,,27,19,,,24,25,,,24*72
2017-05-26T20:46:35 -->> $GLGSV,1,1,00*65
2017-05-26T20:46:36 -->> $GNRMC,124636.000,A,3030.9714,N,10404.3266,E,0.00,0.00,260517,,,A*78
2017-05-26T20:46:36 -->> $GNVTG,0.00,T,,M,0.00,N,0.00,K,A*23
2017-05-26T20:46:36 -->> $GNGGA,124636.217,3030.9714,N,10404.3266,E,1,3,5.33,181.9,M,-31.9,M,,*68
2017-05-26T20:46:36 -->> $GPGSA,A,2,02,05,12,,,,,,,,,,5.42,5.33,1.00*00
2017-05-26T20:46:36 -->> $GLGSA,A,2,,,,,,,,,,,,,5.42,5.33,1.00*18
2017-05-26T20:46:36 -->> $GPGSV,2,1,07,02,53,315,29,12,48,281,35,05,44,215,33,193,,,*7F
2017-05-26T20:46:36 -->> $GPGSV,2,2,07,17,,,26,19,,,24,25,,,24*73
2017-05-26T20:46:36 -->> $GLGSV,1,1,00*65
2017-05-26T20:46:36 -->> $GNRMC,124636.217,A,3030.9714,N,10404.3266,E,0.00,0.00,260517,,,A*7C
2017-05-26T20:46:36 -->> $GNVTG,0.00,T,,M,0.00,N,0.00,K,A*23
2017-05-26T20:46:37 -->> $GNGGA,124638.000,3030.9714,N,10404.3266,E,1,3,5.33,181.9,M,-31.9,M,,*62
2017-05-26T20:46:37 -->> $GPGSA,A,2,02,05,12,,,,,,,,,,5.42,5.33,1.00*00
2017-05-26T20:46:37 -->> $GLGSA,A,2,,,,,,,,,,,,,5.42,5.33,1.00*18
2017-05-26T20:46:37 -->> $GPGSV,2,1,07,02,53,315,29,12,48,281,35,05,44,215,33,193,,,*7F
2017-05-26T20:46:37 -->> $GPGSV,2,2,07,17,,,26,19,,,24,25,,,24*73
2017-05-26T20:46:37 -->> $GLGSV,1,1,00*65
2017-05-26T20:46:38 -->> $GNRMC,124638.000,A,3030.9714,N,10404.3266,E,0.00,0.00,260517,,,A*76
2017-05-26T20:46:38 -->> $GNVTG,0.00,T,,M,0.00,N,0.00,K,A*23
2017-05-26T20:46:38 -->> $GNGGA,124639.000,3030.9714,N,10404.3266,E,1,3,5.33,181.9,M,-31.9,M,,*63
2017-05-26T20:46:38 -->> $GPGSA,A,2,02,05,12,,,,,,,,,,5.42,5.33,1.00*00
2017-05-26T20:46:38 -->> $GLGSA,A,2,,,,,,,,,,,,,5.42,5.33,1.00*18
2017-05-26T20:46:38 -->> $GPGSV,2,1,07,02,53,315,29,12,48,281,35,05,44,215,33,193,,,*7F
2017-05-26T20:46:38 -->> $GPGSV,2,2,07,17,,,26,19,,,24,25,,,24*73
2017-05-26T20:46:38 -->> $GLGSV,1,1,00*65
2017-05-26T20:46:39 -->> $GNRMC,124639.000,A,3030.9714,N,10404.3266,E,0.00,0.00,260517,,,A*77
2017-05-26T20:46:39 -->> $GNVTG,0.00,T,,M,0.00,N,0.00,K,A*23
2017-05-26T20:46:39 -->> $GNGGA,124640.000,3030.9714,N,10404.3266,E,1,4,3.90,181.9,M,-31.9,M,,*65
2017-05-26T20:46:39 -->> $GPGSA,A,3,02,05,12,,,,,,,,,,4.02,3.90,0.99*0A
2017-05-26T20:46:39 -->> $GLGSA,A,3,87,,,,,,,,,,,,4.02,3.90,0.99*1D
2017-05-26T20:46:39 -->> $GPGSV,2,1,08,02,53,315,29,12,48,281,35,05,44,215,33,42,37,124,*7E
2017-05-26T20:46:39 -->> $GPGSV,2,2,08,193,,,,17,,,26,19,,,24,25,,,24*47
2017-05-26T20:46:40 -->> $GLGSV,1,1,01,87,39,340,27*53
2017-05-26T20:46:40 -->> $GNRMC,124640.000,A,3030.9714,N,10404.3266,E,0.00,0.00,260517,,,A*79
2017-05-26T20:46:40 -->> $GNVTG,0.00,T,,M,0.00,N,0.00,K,A*23
2017-05-26T20:46:40 -->> $GNGGA,124641.000,3030.9714,N,10404.3266,E,1,4,3.90,181.9,M,-31.9,M,,*64
2017-05-26T20:46:40 -->> $GPGSA,A,3,02,05,12,,,,,,,,,,4.02,3.90,0.99*0A
2017-05-26T20:46:40 -->> $GLGSA,A,3,87,,,,,,,,,,,,4.02,3.90,0.99*1D
2017-05-26T20:46:40 -->> $GPGSV,2,1,08,02,53,315,29,12,48,281,35,05,44,215,33,42,37,124,*7E
2017-05-26T20:46:41 -->> $GPGSV,2,2,08,193,,,,17,,,26,19,,,24,25,,,24*47
2017-05-26T20:46:41 -->> $GLGSV,1,1,01,87,39,340,27*53
2017-05-26T20:46:41 -->> $GNRMC,124641.000,A,3030.9714,N,10404.3266,E,0.00,0.00,260517,,,A*78
2017-05-26T20:46:41 -->> $GNVTG,0.00,T,,M,0.00,N,0.00,K,A*23
2017-05-26T20:46:41 -->> $GNGGA,124642.000,3030.9714,N,10404.3266,E,1,4,3.90,181.9,M,-31.9,M,,*67
2017-05-26T20:46:41 -->> $GPGSA,A,3,02,05,12,,,,,,,,,,4.02,3.90,0.99*0A
2017-05-26T20:46:41 -->> $GLGSA,A,3,87,,,,,,,,,,,,4.02,3.90,0.99*1D
2017-05-26T20:46:41 -->> $GPGSV,2,1,08,02,53,315,29,12,48,281,35,05,44,215,33,42,37,124,*7E
2017-05-26T20:46:42 -->> $GPGSV,2,2,08,193,,,,17,,,27,19,,,24,25,,,24*46
2017-05-26T20:46:42 -->> $GLGSV,1,1,01,87,39,340,27*53
2017-05-26T20:46:42 -->> $GNRMC,124642.000,A,3030.9714,N,10404.3266,E,0.00,0.00,260517,,,A*7B
2017-05-26T20:46:42 -->> $GNVTG,0.00,T,,M,0.00,N,0.00,K,A*23
2017-05-26T20:46:42 -->> $GNGGA,124643.000,3030.9714,N,10404.3266,E,1,4,3.90,181.9,M,-31.9,M,,*66
2017-05-26T20:46:42 -->> $GPGSA,A,3,02,05,12,,,,,,,,,,4.02,3.90,0.99*0A
2017-05-26T20:46:42 -->> $GLGSA,A,3,87,,,,,,,,,,,,4.02,3.90,0.99*1D
2017-05-26T20:46:42 -->> $GPGSV,3,1,09,02,53,315,29,12,48,281,35,05,44,215,33,42,37,124,*7E
2017-05-26T20:46:43 -->> $GPGSV,3,2,09,09,23,075,,193,,,,17,,,27,19,,,24*7D
2017-05-26T20:46:43 -->> $GPGSV,3,3,09,25,,,24*71
2017-05-26T20:46:43 -->> $GLGSV,1,1,01,87,39,340,27*53
2017-05-26T20:46:43 -->> $GNRMC,124643.000,A,3030.9714,N,10404.3266,E,0.00,0.00,260517,,,A*7A
2017-05-26T20:46:43 -->> $GNVTG,0.00,T,,M,0.00,N,0.00,K,A*23
2017-05-26T20:46:43 -->> $GNGGA,124644.000,3030.9714,N,10404.3266,E,1,4,3.90,181.9,M,-31.9,M,,*61
2017-05-26T20:46:43 -->> $GPGSA,A,3,02,05,12,,,,,,,,,,4.02,3.90,0.99*0A
2017-05-26T20:46:43 -->> $GLGSA,A,3,87,,,,,,,,,,,,4.02,3.90,0.99*1D
2017-05-26T20:46:43 -->> $GPGSV,3,1,09,02,53,315,29,12,48,281,35,05,44,215,33,42,37,124,*7E
2017-05-26T20:46:44 -->> $GPGSV,3,2,09,09,23,075,,193,,,,17,,,27,19,,,24*7D
2017-05-26T20:46:44 -->> $GPGSV,3,3,09,25,,,24*71
2017-05-26T20:46:44 -->> $GLGSV,1,1,01,87,39,340,26*52
2017-05-26T20:46:44 -->> $GNRMC,124644.000,A,3030.9714,N,10404.3266,E,0.00,0.00,260517,,,A*7D
2017-05-26T20:46:44 -->> $GNVTG,0.00,T,,M,0.00,N,0.00,K,A*23
2017-05-26T20:46:44 -->> $GNGGA,124645.000,3030.9714,N,10404.3266,E,1,4,3.90,181.9,M,-31.9,M,,*60
2017-05-26T20:46:44 -->> $GPGSA,A,3,02,05,12,,,,,,,,,,4.02,3.90,0.99*0A
2017-05-26T20:46:44 -->> $GLGSA,A,3,87,,,,,,,,,,,,4.02,3.90,0.99*1D
2017-05-26T20:46:44 -->> $GPGSV,3,1,09,02,53,315,29,12,48,281,35,05,44,215,33,42,37,124,*7E
2017-05-26T20:46:44 -->> $GPGSV,3,2,09,09,23,075,,193,,,,17,,,27,19,,,24*7D
2017-05-26T20:46:45 -->> $GPGSV,3,3,09,25,,,24*71
2017-05-26T20:46:45 -->> $GLGSV,1,1,01,87,39,340,26*52
2017-05-26T20:46:45 -->> $GNRMC,124645.000,A,3030.9714,N,10404.3266,E,0.00,0.00,260517,,,A*7C
2017-05-26T20:46:45 -->> $GNVTG,0.00,T,,M,0.00,N,0.00,K,A*23
2017-05-26T20:46:45 -->> $GNGGA,124646.000,3030.9714,N,10404.3266,E,1,4,3.90,181.9,M,-31.9,M,,*63
2017-05-26T20:46:45 -->> $GPGSA,A,3,02,05,12,,,,,,,,,,4.02,3.90,0.99*0A
2017-05-26T20:46:45 -->> $GLGSA,A,3,87,,,,,,,,,,,,4.02,3.90,0.99*1D
2017-05-26T20:46:45 -->> $GPGSV,3,1,09,02,53,315,29,12,48,281,35,05,44,215,33,42,37,124,*7E
2017-05-26T20:46:46 -->> $GPGSV,3,2,09,09,23,075,,193,,,,17,,,27,19,,,24*7D
2017-05-26T20:46:46 -->> $GPGSV,3,3,09,25,,,24*71
2017-05-26T20:46:46 -->> $GLGSV,1,1,01,87,39,340,27*53
2017-05-26T20:46:46 -->> $GNRMC,124646.000,A,3030.9714,N,10404.3266,E,0.00,0.00,260517,,,A*7F
2017-05-26T20:46:46 -->> $GNVTG,0.00,T,,M,0.00,N,0.00,K,A*23
2017-05-26T20:46:46 -->> $GNGGA,124647.000,3030.9714,N,10404.3266,E,1,4,3.89,181.9,M,-31.9,M,,*6A
2017-05-26T20:46:46 -->> $GPGSA,A,3,02,05,12,,,,,,,,,,4.02,3.89,0.99*02
2017-05-26T20:46:46 -->> $GLGSA,A,3,87,,,,,,,,,,,,4.02,3.89,0.99*15
2017-05-26T20:46:46 -->> $GPGSV,3,1,09,02,53,315,29,12,48,281,35,05,44,215,33,42,37,124,*7E
2017-05-26T20:46:46 -->> $GPGSV,3,2,09,09,23,075,,193,,,,17,,,27,19,,,24*7D
2017-05-26T20:46:47 -->> $GPGSV,3,3,09,25,,,24*71
2017-05-26T20:46:47 -->> $GLGSV,1,1,01,87,39,340,27*53
2017-05-26T20:46:47 -->> $GNRMC,124647.000,A,3030.9714,N,10404.3266,E,0.00,0.00,260517,,,A*7E
2017-05-26T20:46:47 -->> $GNVTG,0.00,T,,M,0.00,N,0.00,K,A*23
2017-05-26T20:46:47 -->> $GNGGA,124648.000,3030.9714,N,10404.3266,E,1,4,3.89,181.9,M,-31.9,M,,*65
2017-05-26T20:46:47 -->> $GPGSA,A,3,02,05,12,,,,,,,,,,4.02,3.89,0.99*02
2017-05-26T20:46:47 -->> $GLGSA,A,3,87,,,,,,,,,,,,4.02,3.89,0.99*15
2017-05-26T20:46:47 -->> $GPGSV,3,1,09,02,53,315,29,12,48,281,35,05,44,215,33,42,37,124,*7E
2017-05-26T20:46:47 -->> $GPGSV,3,2,09,09,23,075,,193,,,,17,,,27,19,,,24*7D
2017-05-26T20:46:48 -->> $GPGSV,3,3,09,25,,,24*71
2017-05-26T20:46:48 -->> $GLGSV,1,1,01,87,39,340,27*53
2017-05-26T20:46:48 -->> $GNRMC,124648.000,A,3030.9714,N,10404.3266,E,0.00,0.00,260517,,,A*71
2017-05-26T20:46:48 -->> $GNVTG,0.00,T,,M,0.00,N,0.00,K,A*23
2017-05-26T20:46:48 -->> $GNGGA,124649.000,3030.9714,N,10404.3266,E,1,4,3.89,181.9,M,-31.9,M,,*64
2017-05-26T20:46:48 -->> $GPGSA,A,3,02,05,12,,,,,,,,,,4.02,3.89,0.99*02
2017-05-26T20:46:48 -->> $GLGSA,A,3,87,,,,,,,,,,,,4.02,3.89,0.99*15
2017-05-26T20:46:48 -->> $GPGSV,3,1,09,02,53,315,29,12,48,281,35,05,44,215,33,44,35,237,*7B
2017-05-26T20:46:48 -->> $GPGSV,3,2,09,09,23,075,,193,,,,17,,,27,19,,,24*7D
2017-05-26T20:46:49 -->> $GPGSV,3,3,09,25,,,24*71
2017-05-26T20:46:49 -->> $GLGSV,1,1,01,87,39,340,27*53
2017-05-26T20:46:49 -->> $GNRMC,124649.000,A,3030.9714,N,10404.3266,E,0.00,0.00,260517,,,A*70
2017-05-26T20:46:49 -->> $GNVTG,0.00,T,,M,0.00,N,0.00,K,A*23
2017-05-26T20:46:49 -->> $GNGGA,124650.000,3030.9714,N,10404.3266,E,1,4,3.89,181.9,M,-31.9,M,,*6C
2017-05-26T20:46:49 -->> $GPGSA,A,3,02,05,12,,,,,,,,,,4.02,3.89,0.99*02
2017-05-26T20:46:49 -->> $GLGSA,A,3,87,,,,,,,,,,,,4.02,3.89,0.99*15
2017-05-26T20:46:49 -->> $GPGSV,3,1,09,02,53,315,29,12,48,281,35,05,44,215,33,44,35,237,*7B
2017-05-26T20:46:50 -->> $GPGSV,3,2,09,09,23,075,,193,,,,17,,,27,19,,,24*7D
2017-05-26T20:46:50 -->> $GPGSV,3,3,09,25,,,24*71
2017-05-26T20:46:50 -->> $GLGSV,1,1,01,87,39,340,27*53
2017-05-26T20:46:50 -->> $GNRMC,124650.000,A,3030.9714,N,10404.3266,E,0.00,0.00,260517,,,A*78
2017-05-26T20:46:50 -->> $GNVTG,0.00,T,,M,0.00,N,0.00,K,A*23
2017-05-26T20:46:50 -->> $GNGGA,124651.000,3030.9714,N,10404.3266,E,1,4,3.89,181.9,M,-31.9,M,,*6D
2017-05-26T20:46:50 -->> $GPGSA,A,3,02,05,12,,,,,,,,,,4.02,3.89,0.99*02
2017-05-26T20:46:50 -->> $GLGSA,A,3,87,,,,,,,,,,,,4.02,3.89,0.99*15
2017-05-26T20:46:50 -->> $GPGSV,3,1,09,02,53,315,29,12,48,281,35,05,44,215,33,44,35,237,*7B
2017-05-26T20:46:50 -->> $GPGSV,3,2,09,09,23,075,,193,,,,17,,,27,19,,,24*7D
2017-05-26T20:46:51 -->> $GPGSV,3,3,09,25,,,24*71
2017-05-26T20:46:51 -->> $GLGSV,1,1,01,87,39,340,27*53
2017-05-26T20:46:51 -->> $GNRMC,124651.000,A,3030.9714,N,10404.3266,E,0.00,0.00,260517,,,A*79
2017-05-26T20:46:51 -->> $GNVTG,0.00,T,,M,0.00,N,0.00,K,A*23
2017-05-26T20:46:51 -->> $GNGGA,124652.000,3030.9714,N,10404.3266,E,1,4,3.89,181.9,M,-31.9,M,,*6E
2017-05-26T20:46:51 -->> $GPGSA,A,3,02,05,12,,,,,,,,,,4.02,3.89,0.99*02
2017-05-26T20:46:51 -->> $GLGSA,A,3,87,,,,,,,,,,,,4.02,3.89,0.99*15
2017-05-26T20:46:51 -->> $GPGSV,3,1,09,02,53,315,29,12,48,281,35,05,44,215,32,44,35,237,*7A
2017-05-26T20:46:52 -->> $GPGSV,3,2,09,09,23,075,,193,,,,17,,,27,19,,,24*7D
2017-05-26T20:46:52 -->> $GPGSV,3,3,09,25,,,24*71
2017-05-26T20:46:52 -->> $GLGSV,1,1,01,87,39,340,27*53
2017-05-26T20:46:52 -->> $GNRMC,124652.000,A,3030.9714,N,10404.3266,E,0.00,0.00,260517,,,A*7A
2017-05-26T20:46:52 -->> $GNVTG,0.00,T,,M,0.00,N,0.00,K,A*23
2017-05-26T20:46:52 -->> $GNGGA,124653.000,3030.9714,N,10404.3266,E,1,4,3.89,181.9,M,-31.9,M,,*6F
2017-05-26T20:46:52 -->> $GPGSA,A,3,02,05,12,,,,,,,,,,4.02,3.89,0.99*02
2017-05-26T20:46:52 -->> $GLGSA,A,3,87,,,,,,,,,,,,4.02,3.89,0.99*15
2017-05-26T20:46:52 -->> $GPGSV,3,1,09,02,53,315,29,12,48,281,35,05,44,215,32,44,35,237,*7A
2017-05-26T20:46:52 -->> $GPGSV,3,2,09,09,23,075,,193,,,,17,,,27,19,,,24*7D
2017-05-26T20:46:53 -->> $GPGSV,3,3,09,25,,,24*71
2017-05-26T20:46:53 -->> $GLGSV,1,1,01,87,39,340,26*52
2017-05-26T20:46:53 -->> $GNRMC,124653.000,A,3030.9714,N,10404.3266,E,0.00,0.00,260517,,,A*7B
2017-05-26T20:46:53 -->> $GNVTG,0.00,T,,M,0.00,N,0.00,K,A*23
2017-05-26T20:46:53 -->> $GNGGA,124654.000,3030.9714,N,10404.3266,E,1,4,3.89,181.9,M,-31.9,M,,*68
2017-05-26T20:46:53 -->> $GPGSA,A,3,02,05,12,,,,,,,,,,4.01,3.89,0.99*01
2017-05-26T20:46:53 -->> $GLGSA,A,3,87,,,,,,,,,,,,4.01,3.89,0.99*16
2017-05-26T20:46:53 -->> $GPGSV,3,1,09,02,53,315,29,12,48,281,35,05,44,215,32,44,35,237,*7A
2017-05-26T20:46:54 -->> $GPGSV,3,2,09,09,23,075,,193,,,,17,,,27,19,,,24*7D
2017-05-26T20:46:54 -->> $GPGSV,3,3,09,25,,,24*71
2017-05-26T20:46:54 -->> $GLGSV,1,1,01,87,39,340,26*52
2017-05-26T20:46:54 -->> $GNRMC,124654.000,A,3030.9714,N,10404.3266,E,0.00,0.00,260517,,,A*7C
2017-05-26T20:46:54 -->> $GNVTG,0.00,T,,M,0.00,N,0.00,K,A*23
2017-05-26T20:46:54 -->> $GNGGA,124655.000,3030.9473,N,10404.2940,E,1,5,1.38,598.1,M,-31.9,M,,*68
2017-05-26T20:46:54 -->> $GPGSA,A,3,02,05,12,17,,,,,,,,,1.70,1.38,0.99*0C
2017-05-26T20:46:54 -->> $GLGSA,A,3,87,,,,,,,,,,,,1.70,1.38,0.99*1D
2017-05-26T20:46:54 -->> $GPGSV,3,1,09,02,53,315,29,12,48,281,35,05,44,215,32,44,35,237,*7A
2017-05-26T20:46:55 -->> $GPGSV,3,2,09,17,32,116,27,09,23,075,,193,,,,19,,,24*4A
2017-05-26T20:46:55 -->> $GPGSV,3,3,09,25,,,24*71
2017-05-26T20:46:55 -->> $GLGSV,1,1,01,87,39,340,26*52
2017-05-26T20:46:55 -->> $GNRMC,124655.000,A,3030.9473,N,10404.2940,E,0.27,80.73,260517,,,A*48
2017-05-26T20:46:55 -->> $GNVTG,80.73,T,,M,0.27,N,0.50,K,A*1F
2017-05-26T20:46:55 -->> $GNGGA,124656.000,3030.9473,N,10404.2942,E,1,5,1.38,598.1,M,-31.9,M,,*69
2017-05-26T20:46:55 -->> $GPGSA,A,3,02,05,12,17,,,,,,,,,1.70,1.38,0.99*0C
2017-05-26T20:46:55 -->> $GLGSA,A,3,87,,,,,,,,,,,,1.70,1.38,0.99*1D
2017-05-26T20:46:55 -->> $GPGSV,3,1,09,02,53,315,29,12,48,281,35,05,44,215,31,44,35,237,*79
2017-05-26T20:46:56 -->> $GPGSV,3,2,09,17,32,116,27,09,23,075,,193,,,,19,,,24*4A
2017-05-26T20:46:56 -->> $GPGSV,3,3,09,25,,,24*71
2017-05-26T20:46:56 -->> $GLGSV,1,1,01,87,39,340,26*52
2017-05-26T20:46:56 -->> $GNRMC,124656.000,A,3030.9473,N,10404.2942,E,0.00,80.73,260517,,,A*4C
2017-05-26T20:46:56 -->> $GNVTG,80.73,T,,M,0.00,N,0.00,K,A*1F
2017-05-26T20:46:56 -->> $GNGGA,124657.000,3030.9472,N,10404.2941,E,1,5,1.38,598.0,M,-31.9,M,,*6B
2017-05-26T20:46:56 -->> $GPGSA,A,3,02,05,12,17,,,,,,,,,1.70,1.38,0.99*0C
2017-05-26T20:46:56 -->> $GLGSA,A,3,87,,,,,,,,,,,,1.70,1.38,0.99*1D
2017-05-26T20:46:56 -->> $GPGSV,3,1,09,02,53,315,29,12,48,281,35,05,44,215,32,44,35,237,*7A
2017-05-26T20:46:57 -->> $GPGSV,3,2,09,17,32,116,28,09,23,075,,193,,,,19,,,24*45
2017-05-26T20:46:57 -->> $GPGSV,3,3,09,25,,,24*71
2017-05-26T20:46:57 -->> $GLGSV,1,1,01,87,39,340,26*52
2017-05-26T20:46:57 -->> $GNRMC,124657.000,A,3030.9472,N,10404.2941,E,0.00,80.73,260517,,,A*4F
2017-05-26T20:46:57 -->> $GNVTG,80.73,T,,M,0.00,N,0.00,K,A*1F
2017-05-26T20:46:57 -->> $GNGGA,124658.000,3030.9473,N,10404.2937,E,1,5,1.38,598.0,M,-31.9,M,,*64
2017-05-26T20:46:57 -->> $GPGSA,A,3,02,05,12,17,,,,,,,,,1.70,1.38,0.99*0C
2017-05-26T20:46:57 -->> $GLGSA,A,3,87,,,,,,,,,,,,1.70,1.38,0.99*1D
2017-05-26T20:46:57 -->> $GPGSV,3,1,09,02,53,315,29,12,48,281,35,05,44,215,33,40,34,238,*71
2017-05-26T20:46:58 -->> $GPGSV,3,2,09,17,32,116,28,09,23,075,,193,,,,19,,,24*45
2017-05-26T20:46:58 -->> $GPGSV,3,3,09,25,,,24*71
2017-05-26T20:46:58 -->> $GLGSV,1,1,01,87,39,340,26*52
2017-05-26T20:46:58 -->> $GNRMC,124658.000,A,3030.9473,N,10404.2937,E,0.00,80.73,260517,,,A*40
2017-05-26T20:46:58 -->> $GNVTG,80.73,T,,M,0.00,N,0.00,K,A*1F
2017-05-26T20:46:58 -->> $GNGGA,124659.000,3030.9473,N,10404.2937,E,1,5,1.38,598.0,M,-31.9,M,,*65
2017-05-26T20:46:58 -->> $GPGSA,A,3,02,05,12,17,,,,,,,,,1.70,1.38,0.99*0C
2017-05-26T20:46:58 -->> $GLGSA,A,3,87,,,,,,,,,,,,1.70,1.38,0.99*1D
2017-05-26T20:46:58 -->> $GPGSV,3,1,09,02,53,315,29,12,48,281,35,05,44,215,33,40,34,238,*71
2017-05-26T20:46:59 -->> $GPGSV,3,2,09,17,32,116,28,09,23,075,,193,,,,19,,,24*45
2017-05-26T20:46:59 -->> $GPGSV,3,3,09,25,,,24*71
2017-05-26T20:46:59 -->> $GLGSV,1,1,01,87,39,340,27*53
2017-05-26T20:46:59 -->> $GNRMC,124659.000,A,3030.9473,N,10404.2937,E,0.00,80.73,260517,,,A*41
2017-05-26T20:46:59 -->> $GNVTG,80.73,T,,M,0.00,N,0.00,K,A*1F
2017-05-26T20:46:59 -->> $GNGGA,124700.000,3030.9473,N,10404.2937,E,1,5,1.38,598.0,M,-31.9,M,,*68
2017-05-26T20:46:59 -->> $GPGSA,A,3,02,05,12,17,,,,,,,,,1.70,1.38,0.99*0C
2017-05-26T20:46:59 -->> $GLGSA,A,3,87,,,,,,,,,,,,1.70,1.38,0.99*1D
2017-05-26T20:46:59 -->> $GPGSV,3,1,09,02,53,315,29,12,48,281,35,05,44,215,33,40,34,238,*71
2017-05-26T20:47:00 -->> $GPGSV,3,2,09,17,32,116,28,09,23,075,,193,,,,19,,,24*45
2017-05-26T20:47:00 -->> $GPGSV,3,3,09,25,,,24*71
2017-05-26T20:47:00 -->> $GLGSV,1,1,01,87,39,340,27*53
2017-05-26T20:47:00 -->> $GNRMC,124700.000,A,3030.9473,N,10404.2937,E,0.00,80.73,260517,,,A*4C
2017-05-26T20:47:00 -->> $GNVTG,80.73,T,,M,0.00,N,0.00,K,A*1F
2017-05-26T20:47:00 -->> $GNGGA,124701.000,3030.9473,N,10404.2937,E,1,6,1.33,598.0,M,-31.9,M,,*61
2017-05-26T20:47:00 -->> $GPGSA,A,3,02,05,12,17,25,,,,,,,,1.62,1.33,0.93*09
2017-05-26T20:47:00 -->> $GLGSA,A,3,87,,,,,,,,,,,,1.62,1.33,0.93*1F
2017-05-26T20:47:01 -->> $GPGSV,3,1,09,02,53,315,29,12,48,281,35,05,44,215,33,40,34,238,*71
2017-05-26T20:47:01 -->> $GPGSV,3,2,09,17,32,116,28,09,23,075,,25,16,316,24,193,,,*79
2017-05-26T20:47:01 -->> $GPGSV,3,3,09,19,,,25*7F
2017-05-26T20:47:01 -->> $GLGSV,1,1,01,87,39,340,27*53
2017-05-26T20:47:01 -->> $GNRMC,124701.000,A,3030.9473,N,10404.2937,E,0.00,80.73,260517,,,A*4D
2017-05-26T20:47:01 -->> $GNVTG,80.73,T,,M,0.00,N,0.00,K,A*1F
2017-05-26T20:47:01 -->> $GNGGA,124702.000,3030.9473,N,10404.2937,E,1,6,1.33,598.0,M,-31.9,M,,*62
2017-05-26T20:47:01 -->> $GPGSA,A,3,02,05,12,17,25,,,,,,,,1.62,1.33,0.93*09
2017-05-26T20:47:01 -->> $GLGSA,A,3,87,,,,,,,,,,,,1.62,1.33,0.93*1F
2017-05-26T20:47:02 -->> $GPGSV,3,1,09,02,53,315,29,12,48,281,35,05,44,215,33,40,34,238,*71
2017-05-26T20:47:02 -->> $GPGSV,3,2,09,17,32,116,28,09,23,075,,25,16,316,24,193,,,*79
2017-05-26T20:47:02 -->> $GPGSV,3,3,09,19,,,25*7F
2017-05-26T20:47:02 -->> $GLGSV,1,1,01,87,39,340,27*53
2017-05-26T20:47:02 -->> $GNRMC,124702.000,A,3030.9473,N,10404.2937,E,0.00,80.73,260517,,,A*4E
2017-05-26T20:47:02 -->> $GNVTG,80.73,T,,M,0.00,N,0.00,K,A*1F
