2017-05-26T20:59:22
2017-05-26T21:00:04 -->> ============================
2017-05-26T21:00:06 -->> $PMTK011,MTKGPS*08
2017-05-26T21:00:06 -->> $PMTK010,001*2E
2017-05-26T21:00:06 -->> $PMTK011,MTKGPS*08
2017-05-26T21:00:06 -->> $PMTK010,002*2D
2017-05-26T21:00:07 -->> $GNGGA,235942.800,,,,,0,0,,,M,,M,,*55
2017-05-26T21:00:07 -->> $GPGSA,A,1,,,,,,,,,,,,,,,*1E
2017-05-26T21:00:07 -->> $GLGSA,A,1,,,,,,,,,,,,,,,*02
2017-05-26T21:00:07 -->> $GPGSV,1,1,00*79
2017-05-26T21:00:07 -->> $GLGSV,1,1,00*65
2017-05-26T21:00:07 -->> $GNRMC,235942.800,V,,,,,0.00,0.00,050180,,,N*5C
2017-05-26T21:00:07 -->> $GNVTG,0.00,T,,M,0.00,N,0.00,K,N*2C
2017-05-26T21:00:08 -->> $GNGGA,235943.800,,,,,0,0,,,M,,M,,*54
2017-05-26T21:00:08 -->> $GPGSA,A,1,,,,,,,,,,,,,,,*1E
2017-05-26T21:00:08 -->> $GLGSA,A,1,,,,,,,,,,,,,,,*02
2017-05-26T21:00:08 -->> $GPGSV,1,1,01,02,,,29*71
2017-05-26T21:00:08 -->> $GLGSV,1,1,00*65
2017-05-26T21:00:08 -->> $GNRMC,235943.800,V,,,,,0.00,0.00,050180,,,N*5D
2017-05-26T21:00:08 -->> $GNVTG,0.00,T,,M,0.00,N,0.00,K,N*2C
2017-05-26T21:00:09 -->> $GNGGA,235944.799,,,,,0,0,,,M,,M,,*5C
2017-05-26T21:00:09 -->> $GPGSA,A,1,,,,,,,,,,,,,,,*1E
2017-05-26T21:00:09 -->> $GLGSA,A,1,,,,,,,,,,,,,,,*02
2017-05-26T21:00:09 -->> $GPGSV,1,1,03,02,,,31,05,,,37,06,,,29*76
2017-05-26T21:00:09 -->> $GLGSV,1,1,00*65
2017-05-26T21:00:09 -->> $GNRMC,235944.799,V,,,,,0.00,0.00,050180,,,N*55
2017-05-26T21:00:09 -->> $GNVTG,0.00,T,,M,0.00,N,0.00,K,N*2C
2017-05-26T21:00:10 -->> $GNGGA,235945.799,,,,,0,0,,,M,,M,,*5D
2017-05-26T21:00:10 -->> $GPGSA,A,1,,,,,,,,,,,,,,,*1E
2017-05-26T21:00:10 -->> $GLGSA,A,1,,,,,,,,,,,,,,,*02
2017-05-26T21:00:10 -->> $GPGSV,1,1,03,02,,,30,05,,,37,06,,,31*7E
2017-05-26T21:00:10 -->> $GLGSV,1,1,00*65
2017-05-26T21:00:10 -->> $GNRMC,235945.799,V,,,,,0.00,0.00,050180,,,N*54
2017-05-26T21:00:10 -->> $GNVTG,0.00,T,,M,0.00,N,0.00,K,N*2C
2017-05-26T21:00:11 -->> $GNGGA,235946.799,,,,,0,0,,,M,,M,,*5E
2017-05-26T21:00:11 -->> $GPGSA,A,1,,,,,,,,,,,,,,,*1E
2017-05-26T21:00:11 -->> $GLGSA,A,1,,,,,,,,,,,,,,,*02
2017-05-26T21:00:11 -->> $GPGSV,2,1,05,02,,,31,05,,,38,06,,,31,17,,,36*76
2017-05-26T21:00:11 -->> $GPGSV,2,2,05,12,,,37*7B
2017-05-26T21:00:11 -->> $GLGSV,1,1,00*65
2017-05-26T21:00:11 -->> $GNRMC,235946.799,V,,,,,0.00,0.00,050180,,,N*57
2017-05-26T21:00:11 -->> $GNVTG,0.00,T,,M,0.00,N,0.00,K,N*2C
2017-05-26T21:00:12 -->> $GNGGA,235947.799,,,,,0,0,,,M,,M,,*5F
2017-05-26T21:00:12 -->> $GPGSA,A,1,,,,,,,,,,,,,,,*1E
2017-05-26T21:00:12 -->> $GLGSA,A,1,,,,,,,,,,,,,,,*02
2017-05-26T21:00:12 -->> $GPGSV,2,1,05,02,,,31,05,,,36,06,,,33,17,,,36*7A
2017-05-26T21:00:12 -->> $GPGSV,2,2,05,12,,,36*7A
2017-05-26T21:00:12 -->> $GLGSV,1,1,00*65
2017-05-26T21:00:12 -->> $GNRMC,235947.799,V,,,,,0.00,0.00,050180,,,N*56
2017-05-26T21:00:12 -->> $GNVTG,0.00,T,,M,0.00,N,0.00,K,N*2C
2017-05-26T21:00:13 -->> $GNGGA,235948.799,,,,,0,0,,,M,,M,,*50
2017-05-26T21:00:13 -->> $GPGSA,A,1,,,,,,,,,,,,,,,*1E
2017-05-26T21:00:13 -->> $GLGSA,A,1,,,,,,,,,,,,,,,*02
2017-05-26T21:00:13 -->> $GPGSV,2,1,05,02,,,31,05,,,37,06,,,33,17,,,36*7B
2017-05-26T21:00:13 -->> $GPGSV,2,2,05,12,,,36*7A
2017-05-26T21:00:13 -->> $GLGSV,1,1,00*65
2017-05-26T21:00:13 -->> $GNRMC,235948.799,V,,,,,0.00,0.00,050180,,,N*59
2017-05-26T21:00:13 -->> $GNVTG,0.00,T,,M,0.00,N,0.00,K,N*2C
2017-05-26T21:00:14 -->> $GNGGA,235949.799,,,,,0,0,,,M,,M,,*51
2017-05-26T21:00:14 -->> $GPGSA,A,1,,,,,,,,,,,,,,,*1E
2017-05-26T21:00:14 -->> $GLGSA,A,1,,,,,,,,,,,,,,,*02
2017-05-26T21:00:14 -->> $GPGSV,2,1,05,02,,,31,05,,,37,06,,,31,17,,,36*79
2017-05-26T21:00:14 -->> $GPGSV,2,2,05,12,,,36*7A
2017-05-26T21:00:14 -->> $GLGSV,1,1,00*65
2017-05-26T21:00:14 -->> $GNRMC,235949.799,V,,,,,0.00,0.00,050180,,,N*58
2017-05-26T21:00:14 -->> $GNVTG,0.00,T,,M,0.00,N,0.00,K,N*2C
2017-05-26T21:00:15 -->> $GNGGA,235950.800,,,,,0,0,,,M,,M,,*56
2017-05-26T21:00:15 -->> $GPGSA,A,1,,,,,,,,,,,,,,,*1E
2017-05-26T21:00:15 -->> $GLGSA,A,1,,,,,,,,,,,,,,,*02
2017-05-26T21:00:15 -->> $GPGSV,2,1,06,02,,,31,05,,,37,06,,,31,17,,,36*7A
2017-05-26T21:00:15 -->> $GPGSV,2,2,06,12,,,36,09,,,25*77
2017-05-26T21:00:15 -->> $GLGSV,1,1,00*65
2017-05-26T21:00:15 -->> $GNRMC,235950.800,V,,,,,0.00,0.00,050180,,,N*5F
2017-05-26T21:00:15 -->> $GNVTG,0.00,T,,M,0.00,N,0.00,K,N*2C
2017-05-26T21:00:16 -->> $GNGGA,235951.800,,,,,0,0,,,M,,M,,*57
2017-05-26T21:00:16 -->> $GPGSA,A,1,,,,,,,,,,,,,,,*1E
2017-05-26T21:00:16 -->> $GLGSA,A,1,,,,,,,,,,,,,,,*02
2017-05-26T21:00:16 -->> $GPGSV,2,1,07,02,,,31,05,,,37,06,,,31,17,,,36*7B
2017-05-26T21:00:16 -->> $GPGSV,2,2,07,12,,,36,09,,,31,25,,,29*7F
2017-05-26T21:00:16 -->> $GLGSV,1,1,00*65
2017-05-26T21:00:16 -->> $GNRMC,235951.800,V,,,,,0.00,0.00,050180,,,N*5E
2017-05-26T21:00:16 -->> $GNVTG,0.00,T,,M,0.00,N,0.00,K,N*2C
2017-05-26T21:00:17 -->> $GNGGA,235952.800,,,,,0,0,,,M,,M,,*54
2017-05-26T21:00:17 -->> $GPGSA,A,1,,,,,,,,,,,,,,,*1E
2017-05-26T21:00:17 -->> $GLGSA,A,1,,,,,,,,,,,,,,,*02
2017-05-26T21:00:17 -->> $GPGSV,2,1,07,02,,,31,05,,,37,06,,,31,17,,,36*7B
2017-05-26T21:00:17 -->> $GPGSV,2,2,07,12,,,36,09,,,30,25,,,29*7E
2017-05-26T21:00:17 -->> $GLGSV,1,1,00*65
2017-05-26T21:00:17 -->> $GNRMC,235952.800,V,,,,,0.00,0.00,050180,,,N*5D
2017-05-26T21:00:17 -->> $GNVTG,0.00,T,,M,0.00,N,0.00,K,N*2C
2017-05-26T21:00:17 -->> $GNGGA,235953.166,,,,,0,0,,,M,,M,,*5C
2017-05-26T21:00:17 -->> $GPGSA,A,1,,,,,,,,,,,,,,,*1E
2017-05-26T21:00:17 -->> $GLGSA,A,1,,,,,,,,,,,,,,,*02
2017-05-26T21:00:17 -->> $GPGSV,2,1,07,02,,,31,05,,,37,06,,,32,17,,,36*78
2017-05-26T21:00:17 -->> $GPGSV,2,2,07,12,,,36,09,,,30,25,,,28*7F
2017-05-26T21:00:17 -->> $GLGSV,1,1,00*65
2017-05-26T21:00:18 -->> $GNRMC,235953.166,V,,,,,0.00,0.00,050180,,,N*55
2017-05-26T21:00:18 -->> $GNVTG,0.00,T,,M,0.00,N,0.00,K,N*2C
2017-05-26T21:00:18 -->> $GNGGA,235954.166,,,,,0,0,,,M,,M,,*5B
2017-05-26T21:00:18 -->> $GPGSA,A,1,,,,,,,,,,,,,,,*1E
2017-05-26T21:00:18 -->> $GLGSA,A,1,,,,,,,,,,,,,,,*02
2017-05-26T21:00:18 -->> $GPGSV,2,1,07,02,,,31,05,,,37,06,,,32,17,,,36*78
2017-05-26T21:00:18 -->> $GPGSV,2,2,07,12,,,36,09,,,31,25,,,29*7F
2017-05-26T21:00:18 -->> $GLGSV,1,1,00*65
2017-05-26T21:00:19 -->> $GNRMC,235954.166,V,,,,,0.00,0.00,050180,,,N*52
2017-05-26T21:00:19 -->> $GNVTG,0.00,T,,M,0.00,N,0.00,K,N*2C
2017-05-26T21:00:19 -->> $GNGGA,130020.094,,,,,0,0,,,M,,M,,*5B
2017-05-26T21:00:19 -->> $GPGSA,A,1,,,,,,,,,,,,,,,*1E
2017-05-26T21:00:19 -->> $GLGSA,A,1,,,,,,,,,,,,,,,*02
2017-05-26T21:00:19 -->> $GPGSV,2,1,07,02,,,31,05,,,37,06,,,31,17,,,36*7B
2017-05-26T21:00:19 -->> $GPGSV,2,2,07,12,,,36,09,,,31,25,,,30*77
2017-05-26T21:00:19 -->> $GLGSV,1,1,00*65
2017-05-26T21:00:20 -->> $GNRMC,130020.094,V,,,,,0.00,0.00,110180,,,N*57
2017-05-26T21:00:20 -->> $GNVTG,0.00,T,,M,0.00,N,0.00,K,N*2C
2017-05-26T21:00:20 -->> $GNGGA,130021.094,,,,,0,0,,,M,,M,,*5A
2017-05-26T21:00:20 -->> $GPGSA,A,1,,,,,,,,,,,,,,,*1E
2017-05-26T21:00:20 -->> $GLGSA,A,1,,,,,,,,,,,,,,,*02
2017-05-26T21:00:20 -->> $GPGSV,2,1,07,02,,,31,05,,,37,06,,,31,17,,,36*7B
2017-05-26T21:00:20 -->> $GPGSV,2,2,07,12,,,36,09,,,31,25,,,28*7E
2017-05-26T21:00:20 -->> $GLGSV,1,1,00*65
2017-05-26T21:00:21 -->> $GNRMC,130021.094,V,,,,,0.00,0.00,110180,,,N*56
2017-05-26T21:00:21 -->> $GNVTG,0.00,T,,M,0.00,N,0.00,K,N*2C
2017-05-26T21:00:21 -->> $GNGGA,130022.094,,,,,0,0,,,M,,M,,*59
2017-05-26T21:00:21 -->> $GPGSA,A,1,,,,,,,,,,,,,,,*1E
2017-05-26T21:00:21 -->> $GLGSA,A,1,,,,,,,,,,,,,,,*02
2017-05-26T21:00:21 -->> $GPGSV,2,1,07,02,,,31,05,,,37,06,,,31,17,,,36*7B
2017-05-26T21:00:21 -->> $GPGSV,2,2,07,12,,,36,09,,,31,25,,,28*7E
2017-05-26T21:00:21 -->> $GLGSV,1,1,00*65
2017-05-26T21:00:22 -->> $GNRMC,130022.094,V,,,,,0.00,0.00,110180,,,N*55
2017-05-26T21:00:22 -->> $GNVTG,0.00,T,,M,0.00,N,0.00,K,N*2C
2017-05-26T21:00:22 -->> $GNGGA,130023.094,,,,,0,0,,,M,,M,,*58
2017-05-26T21:00:22 -->> $GPGSA,A,1,,,,,,,,,,,,,,,*1E
2017-05-26T21:00:22 -->> $GLGSA,A,1,,,,,,,,,,,,,,,*02
2017-05-26T21:00:22 -->> $GPGSV,2,1,07,02,,,31,05,,,37,06,,,31,17,,,36*7B
2017-05-26T21:00:22 -->> $GPGSV,2,2,07,12,,,36,09,,,31,25,,,28*7E
2017-05-26T21:00:22 -->> $GLGSV,1,1,00*65
2017-05-26T21:00:23 -->> $GNRMC,130023.094,V,,,,,0.00,0.00,110180,,,N*54
2017-05-26T21:00:23 -->> $GNVTG,0.00,T,,M,0.00,N,0.00,K,N*2C
2017-05-26T21:00:23 -->> $GNGGA,130024.094,,,,,0,0,,,M,,M,,*5F
2017-05-26T21:00:23 -->> $GPGSA,A,1,,,,,,,,,,,,,,,*1E
2017-05-26T21:00:23 -->> $GLGSA,A,1,,,,,,,,,,,,,,,*02
2017-05-26T21:00:23 -->> $GPGSV,2,1,07,02,,,31,05,,,37,06,,,31,17,,,36*7B
2017-05-26T21:00:23 -->> $GPGSV,2,2,07,12,,,36,09,,,31,25,,,28*7E
2017-05-26T21:00:23 -->> $GLGSV,1,1,00*65
2017-05-26T21:00:24 -->> $GNRMC,130024.094,V,,,,,0.00,0.00,110180,,,N*53
2017-05-26T21:00:24 -->> $GNVTG,0.00,T,,M,0.00,N,0.00,K,N*2C
2017-05-26T21:00:24 -->> $GNGGA,130025.094,,,,,0,0,,,M,,M,,*5E
2017-05-26T21:00:24 -->> $GPGSA,A,1,,,,,,,,,,,,,,,*1E
2017-05-26T21:00:24 -->> $GLGSA,A,1,,,,,,,,,,,,,,,*02
2017-05-26T21:00:24 -->> $GPGSV,2,1,07,02,,,31,05,,,37,06,,,31,17,,,36*7B
2017-05-26T21:00:24 -->> $GPGSV,2,2,07,12,,,36,09,,,31,25,,,29*7F
2017-05-26T21:00:24 -->> $GLGSV,1,1,00*65
2017-05-26T21:00:25 -->> $GNRMC,130025.094,V,,,,,0.00,0.00,110180,,,N*52
2017-05-26T21:00:25 -->> $GNVTG,0.00,T,,M,0.00,N,0.00,K,N*2C
2017-05-26T21:00:25 -->> $GNGGA,130026.094,,,,,0,0,,,M,,M,,*5D
2017-05-26T21:00:25 -->> $GPGSA,A,1,,,,,,,,,,,,,,,*1E
2017-05-26T21:00:25 -->> $GLGSA,A,1,,,,,,,,,,,,,,,*02
2017-05-26T21:00:25 -->> $GPGSV,2,1,07,02,,,31,05,,,37,06,,,31,17,,,36*7B
2017-05-26T21:00:25 -->> $GPGSV,2,2,07,12,,,36,09,,,31,25,,,29*7F
2017-05-26T21:00:25 -->> $GLGSV,1,1,00*65
2017-05-26T21:00:26 -->> $GNRMC,130026.094,V,,,,,0.00,0.00,110180,,,N*51
2017-05-26T21:00:26 -->> $GNVTG,0.00,T,,M,0.00,N,0.00,K,N*2C
2017-05-26T21:00:26 -->> $GNGGA,130027.094,,,,,0,0,,,M,,M,,*5C
2017-05-26T21:00:26 -->> $GPGSA,A,1,,,,,,,,,,,,,,,*1E
2017-05-26T21:00:26 -->> $GLGSA,A,1,,,,,,,,,,,,,,,*02
2017-05-26T21:00:26 -->> $GPGSV,2,1,07,02,,,31,05,,,37,06,,,31,17,,,36*7B
2017-05-26T21:00:26 -->> $GPGSV,2,2,07,12,,,36,09,,,31,25,,,29*7F
2017-05-26T21:00:26 -->> $GLGSV,1,1,00*65
2017-05-26T21:00:27 -->> $GNRMC,130027.094,V,,,,,0.00,0.00,110180,,,N*50
2017-05-26T21:00:27 -->> $GNVTG,0.00,T,,M,0.00,N,0.00,K,N*2C
2017-05-26T21:00:27 -->> $GNGGA,130028.094,,,,,0,0,,,M,,M,,*53
2017-05-26T21:00:27 -->> $GPGSA,A,1,,,,,,,,,,,,,,,*1E
2017-05-26T21:00:27 -->> $GLGSA,A,1,,,,,,,,,,,,,,,*02
2017-05-26T21:00:27 -->> $GPGSV,2,1,07,02,,,31,05,,,37,06,,,31,17,,,36*7B
2017-05-26T21:00:27 -->> $GPGSV,2,2,07,12,,,36,09,,,31,25,,,29*7F
2017-05-26T21:00:27 -->> $GLGSV,1,1,00*65
2017-05-26T21:00:28 -->> $GNRMC,130028.094,V,,,,,0.00,0.00,110180,,,N*5F
2017-05-26T21:00:28 -->> $GNVTG,0.00,T,,M,0.00,N,0.00,K,N*2C
2017-05-26T21:00:28 -->> $GNGGA,130029.094,,,,,0,0,,,M,,M,,*52
2017-05-26T21:00:28 -->> $GPGSA,A,1,,,,,,,,,,,,,,,*1E
2017-05-26T21:00:28 -->> $GLGSA,A,1,,,,,,,,,,,,,,,*02
2017-05-26T21:00:28 -->> $GPGSV,2,1,07,02,,,31,05,,,37,06,,,31,17,,,36*7B
2017-05-26T21:00:28 -->> $GPGSV,2,2,07,12,,,36,09,,,31,25,,,29*7F
2017-05-26T21:00:28 -->> $GLGSV,1,1,00*65
2017-05-26T21:00:29 -->> $GNRMC,130029.094,V,,,,,0.00,0.00,110180,,,N*5E
2017-05-26T21:00:29 -->> $GNVTG,0.00,T,,M,0.00,N,0.00,K,N*2C
2017-05-26T21:00:29 -->> $GNGGA,130030.091,,,,,0,0,,,M,,M,,*5F
2017-05-26T21:00:29 -->> $GPGSA,A,1,,,,,,,,,,,,,,,*1E
2017-05-26T21:00:29 -->> $GLGSA,A,1,,,,,,,,,,,,,,,*02
2017-05-26T21:00:29 -->> $GPGSV,2,1,07,02,,,31,05,,,37,06,,,31,17,,,36*7B
2017-05-26T21:00:29 -->> $GPGSV,2,2,07,12,,,36,09,,,31,25,,,29*7F
2017-05-26T21:00:30 -->> $GLGSV,1,1,00*65
2017-05-26T21:00:30 -->> $GNRMC,130030.091,V,,,,,0.07,0.00,260517,,,N*5A
2017-05-26T21:00:30 -->> $GNVTG,0.00,T,,M,0.07,N,0.12,K,N*28
2017-05-26T21:00:30 -->> $GNGGA,130031.091,3030.9480,N,10404.2874,E,1,5,1.33,555.4,M,-31.9,M,,*64
2017-05-26T21:00:30 -->> $GPGSA,A,2,02,05,06,17,12,,,,,,,,1.66,1.33,0.99*07
2017-05-26T21:00:30 -->> $GLGSA,A,2,,,,,,,,,,,,,1.66,1.33,0.99*1F
2017-05-26T21:00:31 -->> $GPGSV,3,1,09,02,55,325,31,05,51,220,37,12,48,271,36,06,44,044,31*79
2017-05-26T21:00:31 -->> $GPGSV,3,2,09,42,37,124,,17,27,121,36,193,,,,09,,,31*40
2017-05-26T21:00:31 -->> $GPGSV,3,3,09,25,,,29*7C
2017-05-26T21:00:31 -->> $GLGSV,1,1,00*65
2017-05-26T21:00:31 -->> $GNRMC,130031.091,A,3030.9480,N,10404.2874,E,0.18,0.00,260517,,,A*7B
2017-05-26T21:00:31 -->> $GNVTG,0.00,T,,M,0.18,N,0.34,K,A*2D
2017-05-26T21:00:32 -->> $GNGGA,130033.000,3030.9481,N,10404.2862,E,1,5,1.33,547.9,M,-31.9,M,,*66
2017-05-26T21:00:32 -->> $GPGSA,A,3,02,05,06,17,12,,,,,,,,1.66,1.33,0.99*06
2017-05-26T21:00:32 -->> $GLGSA,A,3,,,,,,,,,,,,,1.66,1.33,0.99*1E
2017-05-26T21:00:32 -->> $GPGSV,3,1,09,02,55,325,31,05,51,220,37,12,48,271,36,06,44,044,32*7A
2017-05-26T21:00:32 -->> $GPGSV,3,2,09,42,37,124,,17,27,121,36,193,,,,09,,,31*40
2017-05-26T21:00:33 -->> $GPGSV,3,3,09,25,,,29*7C
2017-05-26T21:00:33 -->> $GLGSV,1,1,00*65
2017-05-26T21:00:33 -->> $GNRMC,130033.000,A,3030.9481,N,10404.2862,E,0.40,0.00,260517,,,A*7A
2017-05-26T21:00:33 -->> $GNVTG,0.00,T,,M,0.40,N,0.74,K,A*24
2017-05-26T21:00:33 -->> $GNGGA,130034.000,3030.9486,N,10404.2856,E,1,5,2.33,545.0,M,-31.9,M,,*69
2017-05-26T21:00:33 -->> $GPGSA,A,3,02,05,06,17,12,,,,,,,,8.91,2.33,8.60*0A
2017-05-26T21:00:33 -->> $GLGSA,A,3,,,,,,,,,,,,,8.91,2.33,8.60*12
2017-05-26T21:00:33 -->> $GPGSV,3,1,09,02,55,325,31,05,51,220,37,12,48,271,36,06,44,044,32*7A
2017-05-26T21:00:33 -->> $GPGSV,3,2,09,42,37,124,,17,27,121,36,193,,,,09,,,31*40
2017-05-26T21:00:34 -->> $GPGSV,3,3,09,25,,,29*7C
2017-05-26T21:00:34 -->> $GLGSV,1,1,00*65
2017-05-26T21:00:34 -->> $GNRMC,130034.000,A,3030.9486,N,10404.2856,E,0.53,0.00,260517,,,A*7F
2017-05-26T21:00:34 -->> $GNVTG,0.00,T,,M,0.53,N,0.98,K,A*24
2017-05-26T21:00:34 -->> $GNGGA,130035.000,3030.9485,N,10404.2859,E,1,5,2.33,548.4,M,-31.9,M,,*6D
2017-05-26T21:00:34 -->> $GPGSA,A,3,02,05,06,17,12,,,,,,,,8.89,2.33,8.58*08
2017-05-26T21:00:34 -->> $GLGSA,A,3,,,,,,,,,,,,,8.89,2.33,8.58*10
2017-05-26T21:00:34 -->> $GPGSV,3,1,09,02,55,325,31,05,51,220,37,12,48,271,35,06,44,044,32*79
2017-05-26T21:00:34 -->> $GPGSV,3,2,09,42,37,124,,17,27,121,36,193,,,29,09,,,31*4B
2017-05-26T21:00:35 -->> $GPGSV,3,3,09,25,,,29*7C
2017-05-26T21:00:35 -->> $GLGSV,1,1,00*65
2017-05-26T21:00:35 -->> $GNRMC,130035.000,A,3030.9485,N,10404.2859,E,0.00,0.00,260517,,,A*74
2017-05-26T21:00:35 -->> $GNVTG,0.00,T,,M,0.00,N,0.00,K,A*23
2017-05-26T21:00:35 -->> $GNGGA,130036.000,3030.9486,N,10404.2855,E,1,5,2.33,546.2,M,-31.9,M,,*69
2017-05-26T21:00:35 -->> $GPGSA,A,3,02,05,06,17,12,,,,,,,,8.90,2.33,8.59*01
2017-05-26T21:00:35 -->> $GLGSA,A,3,,,,,,,,,,,,,8.90,2.33,8.59*19
2017-05-26T21:00:35 -->> $GPGSV,3,1,09,02,55,325,31,05,51,220,37,12,48,271,35,06,44,044,33*78
2017-05-26T21:00:35 -->> $GPGSV,3,2,09,42,37,124,,17,27,121,36,193,,,30,09,,,31*43
2017-05-26T21:00:36 -->> $GPGSV,3,3,09,25,,,29*7C
2017-05-26T21:00:36 -->> $GLGSV,1,1,00*65
2017-05-26T21:00:36 -->> $GNRMC,130036.000,A,3030.9486,N,10404.2855,E,0.00,0.00,260517,,,A*78
2017-05-26T21:00:36 -->> $GNVTG,0.00,T,,M,0.00,N,0.00,K,A*23
2017-05-26T21:00:36 -->> $GNGGA,130037.000,3030.9485,N,10404.2855,E,1,5,1.33,546.2,M,-31.9,M,,*68
2017-05-26T21:00:36 -->> $GPGSA,A,3,02,05,06,17,12,,,,,,,,1.66,1.33,0.99*06
2017-05-26T21:00:36 -->> $GLGSA,A,3,,,,,,,,,,,,,1.66,1.33,0.99*1E
2017-05-26T21:00:36 -->> $GPGSV,3,1,09,02,55,325,31,05,51,220,37,12,48,271,35,06,44,044,33*78
2017-05-26T21:00:37 -->> $GPGSV,3,2,09,42,37,124,,17,27,121,36,193,,,30,09,,,31*43
2017-05-26T21:00:37 -->> $GPGSV,3,3,09,25,,,29*7C
2017-05-26T21:00:37 -->> $GLGSV,1,1,00*65
2017-05-26T21:00:37 -->> $GNRMC,130037.000,A,3030.9485,N,10404.2855,E,0.00,0.00,260517,,,A*7A
2017-05-26T21:00:37 -->> $GNVTG,0.00,T,,M,0.00,N,0.00,K,A*23
2017-05-26T21:00:37 -->> $GNGGA,130038.000,3030.9485,N,10404.2855,E,1,5,2.33,546.2,M,-31.9,M,,*64
2017-05-26T21:00:37 -->> $GPGSA,A,3,02,05,06,17,12,,,,,,,,8.88,2.33,8.57*06
2017-05-26T21:00:37 -->> $GLGSA,A,3,,,,,,,,,,,,,8.88,2.33,8.57*1E
2017-05-26T21:00:37 -->> $GPGSV,3,1,09,02,55,325,32,05,51,220,37,12,48,271,35,06,44,044,33*7B
2017-05-26T21:00:37 -->> $GPGSV,3,2,09,42,37,124,,17,27,121,36,193,,,30,09,,,31*43
2017-05-26T21:00:38 -->> $GPGSV,3,3,09,25,,,29*7C
2017-05-26T21:00:38 -->> $GLGSV,1,1,00*65
2017-05-26T21:00:38 -->> $GNRMC,130038.000,A,3030.9485,N,10404.2855,E,0.00,0.00,260517,,,A*75
2017-05-26T21:00:38 -->> $GNVTG,0.00,T,,M,0.00,N,0.00,K,A*23
2017-05-26T21:00:38 -->> $GNGGA,130039.000,3030.9485,N,10404.2855,E,1,5,1.33,546.2,M,-31.9,M,,*66
2017-05-26T21:00:38 -->> $GPGSA,A,3,02,05,06,17,12,,,,,,,,1.66,1.33,0.99*06
2017-05-26T21:00:38 -->> $GLGSA,A,3,,,,,,,,,,,,,1.66,1.33,0.99*1E
2017-05-26T21:00:38 -->> $GPGSV,3,1,09,02,55,325,32,05,51,220,37,12,48,271,36,06,44,044,33*78
2017-05-26T21:00:38 -->> $GPGSV,3,2,09,42,37,124,,17,27,121,36,193,,,29,09,,,31*4B
2017-05-26T21:00:39 -->> $GPGSV,3,3,09,25,,,29*7C
2017-05-26T21:00:39 -->> $GLGSV,1,1,00*65
2017-05-26T21:00:39 -->> $GNRMC,130039.000,A,3030.9485,N,10404.2855,E,0.00,0.00,260517,,,A*74
2017-05-26T21:00:39 -->> $GNVTG,0.00,T,,M,0.00,N,0.00,K,A*23
2017-05-26T21:00:39 -->> $GNGGA,130040.000,3030.9485,N,10404.2855,E,1,5,1.33,546.2,M,-31.9,M,,*68
2017-05-26T21:00:39 -->> $GPGSA,A,3,02,05,06,17,12,,,,,,,,1.66,1.33,0.99*06
2017-05-26T21:00:39 -->> $GLGSA,A,3,,,,,,,,,,,,,1.66,1.33,0.99*1E
2017-05-26T21:00:39 -->> $GPGSV,3,1,09,02,55,325,32,05,51,220,37,12,48,271,36,06,44,044,32*79
2017-05-26T21:00:39 -->> $GPGSV,3,2,09,42,37,124,,17,27,121,36,193,,,30,09,,,31*43
2017-05-26T21:00:40 -->> $GPGSV,3,3,09,25,,,29*7C
2017-05-26T21:00:40 -->> $GLGSV,1,1,00*65
2017-05-26T21:00:40 -->> $GNRMC,130040.000,A,3030.9485,N,10404.2855,E,0.00,0.00,260517,,,A*7A
2017-05-26T21:00:40 -->> $GNVTG,0.00,T,,M,0.00,N,0.00,K,A*23
2017-05-26T21:00:40 -->> $GNGGA,130041.000,3030.9485,N,10404.2855,E,1,5,1.33,546.2,M,-31.9,M,,*69
2017-05-26T21:00:40 -->> $GPGSA,A,3,02,05,06,17,12,,,,,,,,1.66,1.33,0.99*06
2017-05-26T21:00:40 -->> $GLGSA,A,3,,,,,,,,,,,,,1.66,1.33,0.99*1E
2017-05-26T21:00:40 -->> $GPGSV,3,1,09,02,55,325,32,05,51,220,37,12,48,271,36,06,44,044,32*79
2017-05-26T21:00:40 -->> $GPGSV,3,2,09,42,37,124,,17,27,121,36,193,,,30,09,,,31*43
2017-05-26T21:00:41 -->> $GPGSV,3,3,09,25,,,29*7C
2017-05-26T21:00:41 -->> $GLGSV,1,1,00*65
2017-05-26T21:00:41 -->> $GNRMC,130041.000,A,3030.9485,N,10404.2855,E,0.00,0.00,260517,,,A*7B
2017-05-26T21:00:41 -->> $GNVTG,0.00,T,,M,0.00,N,0.00,K,A*23
2017-05-26T21:00:41 -->> $GNGGA,130042.000,3030.9485,N,10404.2855,E,1,5,1.33,546.2,M,-31.9,M,,*6A
2017-05-26T21:00:41 -->> $GPGSA,A,3,02,05,06,17,12,,,,,,,,1.66,1.33,0.99*06
2017-05-26T21:00:41 -->> $GLGSA,A,3,,,,,,,,,,,,,1.66,1.33,0.99*1E
2017-05-26T21:00:41 -->> $GPGSV,3,1,09,02,55,325,32,05,51,220,37,12,48,271,36,06,44,044,32*79
2017-05-26T21:00:41 -->> $GPGSV,3,2,09,42,37,124,27,17,27,121,36,193,,,30,09,,,31*46
2017-05-26T21:00:42 -->> $GPGSV,3,3,09,25,,,29*7C
2017-05-26T21:00:42 -->> $GLGSV,1,1,00*65
2017-05-26T21:00:42 -->> $GNRMC,130042.000,A,3030.9485,N,10404.2855,E,0.00,0.00,260517,,,A*78
2017-05-26T21:00:42 -->> $GNVTG,0.00,T,,M,0.00,N,0.00,K,A*23
2017-05-26T21:00:42 -->> $GNGGA,130043.000,3030.9485,N,10404.2855,E,1,5,1.33,546.2,M,-31.9,M,,*6B
2017-05-26T21:00:42 -->> $GPGSA,A,3,02,05,06,17,12,,,,,,,,1.66,1.33,0.99*06
2017-05-26T21:00:42 -->> $GLGSA,A,3,,,,,,,,,,,,,1.66,1.33,0.99*1E
2017-05-26T21:00:42 -->> $GPGSV,3,1,09,02,55,325,32,05,51,220,37,12,48,271,36,06,44,044,32*79
2017-05-26T21:00:42 -->> $GPGSV,3,2,09,42,37,124,27,17,27,121,36,193,,,30,09,,,31*46
2017-05-26T21:00:43 -->> $GPGSV,3,3,09,25,,,29*7C
2017-05-26T21:00:43 -->> $GLGSV,1,1,00*65
2017-05-26T21:00:43 -->> $GNRMC,130043.000,A,3030.9485,N,10404.2855,E,0.00,0.00,260517,,,A*79
2017-05-26T21:00:43 -->> $GNVTG,0.00,T,,M,0.00,N,0.00,K,A*23
2017-05-26T21:00:43 -->> $GNGGA,130044.000,3030.9485,N,10404.2855,E,1,5,1.33,546.2,M,-31.9,M,,*6C
2017-05-26T21:00:43 -->> $GPGSA,A,3,02,05,06,17,12,,,,,,,,1.66,1.33,0.99*06
2017-05-26T21:00:43 -->> $GLGSA,A,3,,,,,,,,,,,,,1.66,1.33,0.99*1E
2017-05-26T21:00:43 -->> $GPGSV,3,1,09,02,55,325,32,05,51,220,37,12,48,271,36,06,44,044,32*79
2017-05-26T21:00:43 -->> $GPGSV,3,2,09,42,37,124,27,17,27,121,36,193,,,30,09,,,31*46
2017-05-26T21:00:44 -->> $GPGSV,3,3,09,25,,,30*74
2017-05-26T21:00:44 -->> $GLGSV,1,1,00*65
2017-05-26T21:00:44 -->> $GNRMC,130044.000,A,3030.9485,N,10404.2855,E,0.00,0.00,260517,,,A*7E
2017-05-26T21:00:44 -->> $GNVTG,0.00,T,,M,0.00,N,0.00,K,A*23
2017-05-26T21:00:44 -->> $GNGGA,130045.000,3030.9485,N,10404.2855,E,1,5,2.32,546.2,M,-31.9,M,,*6F
2017-05-26T21:00:44 -->> $GPGSA,A,3,02,05,06,17,12,,,,,,,,8.85,2.32,8.54*09
2017-05-26T21:00:44 -->> $GLGSA,A,3,,,,,,,,,,,,,8.85,2.32,8.54*11
2017-05-26T21:00:44 -->> $GPGSV,3,1,09,02,55,325,31,05,51,220,37,12,48,271,36,06,44,044,32*7A
2017-05-26T21:00:44 -->> $GPGSV,3,2,09,42,37,124,27,17,27,121,36,193,,,30,09,,,31*46
2017-05-26T21:00:45 -->> $GPGSV,3,3,09,25,,,30*74
2017-05-26T21:00:45 -->> $GLGSV,1,1,00*65
2017-05-26T21:00:45 -->> $GNRMC,130045.000,A,3030.9485,N,10404.2855,E,0.00,0.00,260517,,,A*7F
2017-05-26T21:00:45 -->> $GNVTG,0.00,T,,M,0.00,N,0.00,K,A*23
2017-05-26T21:00:45 -->> $GNGGA,130046.000,3030.9485,N,10404.2855,E,1,5,1.33,546.2,M,-31.9,M,,*6E
2017-05-26T21:00:45 -->> $GPGSA,A,3,02,05,06,17,12,,,,,,,,1.66,1.33,0.99*06
2017-05-26T21:00:45 -->> $GLGSA,A,3,,,,,,,,,,,,,1.66,1.33,0.99*1E
2017-05-26T21:00:45 -->> $GPGSV,3,1,09,02,55,325,31,05,51,220,37,12,48,271,36,06,44,044,32*7A
2017-05-26T21:00:45 -->> $GPGSV,3,2,09,42,37,124,27,17,27,121,36,193,,,30,09,,,31*46
2017-05-26T21:00:46 -->> $GPGSV,3,3,09,25,,,30*74
2017-05-26T21:00:46 -->> $GLGSV,1,1,00*65
2017-05-26T21:00:46 -->> $GNRMC,130046.000,A,3030.9485,N,10404.2855,E,0.00,0.00,260517,,,A*7C
2017-05-26T21:00:46 -->> $GNVTG,0.00,T,,M,0.00,N,0.00,K,A*23
2017-05-26T21:00:46 -->> $GNGGA,130047.000,3030.9485,N,10404.2855,E,1,5,1.33,546.2,M,-31.9,M,,*6F
2017-05-26T21:00:46 -->> $GPGSA,A,3,02,05,06,17,12,,,,,,,,1.66,1.33,0.99*06
2017-05-26T21:00:46 -->> $GLGSA,A,3,,,,,,,,,,,,,1.66,1.33,0.99*1E
2017-05-26T21:00:46 -->> $GPGSV,3,1,09,02,55,325,31,05,51,220,36,12,48,271,36,06,44,044,32*7B
2017-05-26T21:00:46 -->> $GPGSV,3,2,09,42,37,124,27,17,27,121,36,193,,,30,09,,,30*47
2017-05-26T21:00:47 -->> $GPGSV,3,3,09,25,,,30*74
2017-05-26T21:00:47 -->> $GLGSV,1,1,00*65
2017-05-26T21:00:47 -->> $GNRMC,130047.000,A,3030.9485,N,10404.2855,E,0.00,0.00,260517,,,A*7D
2017-05-26T21:00:47 -->> $GNVTG,0.00,T,,M,0.00,N,0.00,K,A*23
2017-05-26T21:00:47 -->> $GNGGA,130048.000,3030.9485,N,10404.2855,E,1,5,1.33,546.2,M,-31.9,M,,*60
2017-05-26T21:00:47 -->> $GPGSA,A,3,02,05,06,17,12,,,,,,,,1.66,1.33,0.99*06
2017-05-26T21:00:47 -->> $GLGSA,A,3,,,,,,,,,,,,,1.66,1.33,0.99*1E
2017-05-26T21:00:47 -->> $GPGSV,3,1,09,02,55,325,31,05,51,220,36,12,48,271,36,06,44,044,32*7B
2017-05-26T21:00:48 -->> $GPGSV,3,2,09,42,37,124,27,17,27,121,36,193,,,30,09,,,31*46
2017-05-26T21:00:48 -->> $GPGSV,3,3,09,25,,,30*74
2017-05-26T21:00:48 -->> $GLGSV,1,1,00*65
2017-05-26T21:00:48 -->> $GNRMC,130048.000,A,3030.9485,N,10404.2855,E,0.00,0.00,260517,,,A*72
2017-05-26T21:00:48 -->> $GNVTG,0.00,T,,M,0.00,N,0.00,K,A*23
2017-05-26T21:00:48 -->> $GNGGA,130049.000,3030.9485,N,10404.2855,E,1,7,1.08,546.2,M,-31.9,M,,*6B
2017-05-26T21:00:48 -->> $GPGSA,A,3,02,05,06,17,12,09,25,,,,,,1.41,1.08,0.91*0D
2017-05-26T21:00:48 -->> $GLGSA,A,3,,,,,,,,,,,,,1.41,1.08,0.91*1B
2017-05-26T21:00:49 -->> $GPGSV,3,1,09,02,55,325,31,05,51,220,36,12,48,271,36,06,44,044,32*7B
2017-05-26T21:00:49 -->> $GPGSV,3,2,09,42,37,124,27,17,27,121,36,09,23,068,31,25,20,312,30*77
2017-05-26T21:00:49 -->> $GPGSV,3,3,09,193,,,30*48
2017-05-26T21:00:49 -->> $GLGSV,1,1,00*65
2017-05-26T21:00:49 -->> $GNRMC,130049.000,A,3030.9485,N,10404.2855,E,0.00,0.00,260517,,,A*73
2017-05-26T21:00:49 -->> $GNVTG,0.00,T,,M,0.00,N,0.00,K,A*23
2017-05-26T21:00:49 -->> $GNGGA,130050.000,3030.9485,N,10404.2855,E,1,7,1.08,546.2,M,-31.9,M,,*63
2017-05-26T21:00:49 -->> $GPGSA,A,3,02,05,06,17,12,09,25,,,,,,1.41,1.08,0.91*0D
2017-05-26T21:00:49 -->> $GLGSA,A,3,,,,,,,,,,,,,1.41,1.08,0.91*1B
2017-05-26T21:00:50 -->> $GPGSV,3,1,09,02,55,325,31,05,51,220,37,12,48,271,36,06,44,044,32*7A
2017-05-26T21:00:50 -->> $GPGSV,3,2,09,42,37,124,27,17,27,121,36,09,23,068,31,25,20,312,30*77
2017-05-26T21:00:50 -->> $GPGSV,3,3,09,193,,,30*48
2017-05-26T21:00:50 -->> $GLGSV,1,1,00*65
2017-05-26T21:00:50 -->> $GNRMC,130050.000,A,3030.9485,N,10404.2855,E,0.00,0.00,260517,,,A*7B
2017-05-26T21:00:50 -->> $GNVTG,0.00,T,,M,0.00,N,0.00,K,A*23
2017-05-26T21:00:50 -->> $GNGGA,130051.000,3030.9485,N,10404.2855,E,1,7,1.08,546.2,M,-31.9,M,,*62
2017-05-26T21:00:50 -->> $GPGSA,A,3,02,05,06,17,12,09,25,,,,,,1.41,1.08,0.91*0D
2017-05-26T21:00:50 -->> $GLGSA,A,3,,,,,,,,,,,,,1.41,1.08,0.91*1B
2017-05-26T21:00:51 -->> $GPGSV,3,1,09,02,55,325,31,05,51,220,37,12,48,271,36,06,44,044,32*7A
2017-05-26T21:00:51 -->> $GPGSV,3,2,09,44,35,237,,17,27,121,36,09,23,068,31,25,20,312,30*77
2017-05-26T21:00:51 -->> $GPGSV,3,3,09,193,,,30*48
2017-05-26T21:00:51 -->> $GLGSV,1,1,00*65
2017-05-26T21:00:51 -->> $GNRMC,130051.000,A,3030.9485,N,10404.2855,E,0.00,0.00,260517,,,A*7A
2017-05-26T21:00:51 -->> $GNVTG,0.00,T,,M,0.00,N,0.00,K,A*23
2017-05-26T21:00:51 -->> $GNGGA,130052.000,3030.9485,N,10404.2855,E,1,7,1.08,546.2,M,-31.9,M,,*61
2017-05-26T21:00:51 -->> $GPGSA,A,3,02,05,06,17,12,09,25,,,,,,1.41,1.08,0.91*0D
2017-05-26T21:00:51 -->> $GLGSA,A,3,,,,,,,,,,,,,1.41,1.08,0.91*1B
2017-05-26T21:00:52 -->> $GPGSV,3,1,09,02,55,325,31,05,51,220,37,12,48,271,36,06,44,044,32*7A
2017-05-26T21:00:52 -->> $GPGSV,3,2,09,44,35,237,,17,27,121,36,09,23,068,31,25,20,312,30*77
2017-05-26T21:00:52 -->> $GPGSV,3,3,09,193,,,30*48
2017-05-26T21:00:52 -->> $GLGSV,1,1,00*65
2017-05-26T21:00:52 -->> $GNRMC,130052.000,A,3030.9485,N,10404.2855,E,0.00,0.00,260517,,,A*79
2017-05-26T21:00:52 -->> $GNVTG,0.00,T,,M,0.00,N,0.00,K,A*23
2017-05-26T21:00:52 -->> $GNGGA,130053.000,3030.9485,N,10404.2855,E,1,7,1.08,546.2,M,-31.9,M,,*60
2017-05-26T21:00:52 -->> $GPGSA,A,3,02,05,06,17,12,09,25,,,,,,1.41,1.08,0.91*0D
2017-05-26T21:00:52 -->> $GLGSA,A,3,,,,,,,,,,,,,1.41,1.08,0.91*1B
2017-05-26T21:00:53 -->> $GPGSV,3,1,09,02,55,325,31,05,51,220,37,12,48,271,36,06,44,044,33*7B
2017-05-26T21:00:53 -->> $GPGSV,3,2,09,44,35,237,,17,27,121,36,09,23,068,31,25,20,312,30*77
2017-05-26T21:00:53 -->> $GPGSV,3,3,09,193,,,30*48
2017-05-26T21:00:53 -->> $GLGSV,1,1,00*65
2017-05-26T21:00:53 -->> $GNRMC,130053.000,A,3030.9485,N,10404.2855,E,0.00,0.00,260517,,,A*78
2017-05-26T21:00:53 -->> $GNVTG,0.00,T,,M,0.00,N,0.00,K,A*23
2017-05-26T21:00:53 -->> $GNGGA,130054.000,3030.9485,N,10404.2855,E,1,7,1.08,546.2,M,-31.9,M,,*67
2017-05-26T21:00:53 -->> $GPGSA,A,3,02,05,06,17,12,09,25,,,,,,1.41,1.08,0.91*0D
2017-05-26T21:00:53 -->> $GLGSA,A,3,,,,,,,,,,,,,1.41,1.08,0.91*1B
2017-05-26T21:00:54 -->> $GPGSV,3,1,09,02,55,325,31,05,51,220,37,12,48,271,36,06,44,044,33*7B
2017-05-26T21:00:54 -->> $GPGSV,3,2,09,44,35,237,,17,27,121,36,09,23,068,31,25,20,312,30*77
2017-05-26T21:00:54 -->> $GPGSV,3,3,09,193,,,30*48
2017-05-26T21:00:54 -->> $GLGSV,1,1,00*65
2017-05-26T21:00:54 -->> $GNRMC,130054.000,A,3030.9485,N,10404.2855,E,0.00,0.00,260517,,,A*7F
2017-05-26T21:00:54 -->> $GNVTG,0.00,T,,M,0.00,N,0.00,K,A*23
2017-05-26T21:00:54 -->> $GNGGA,130055.000,3030.9485,N,10404.2855,E,1,7,1.12,546.2,M,-31.9,M,,*6D
2017-05-26T21:00:54 -->> $GPGSA,A,3,02,05,06,17,12,09,25,,,,,,2.50,1.12,2.24*09
2017-05-26T21:00:54 -->> $GLGSA,A,3,,,,,,,,,,,,,2.50,1.12,2.24*1F
2017-05-26T21:00:55 -->> $GPGSV,3,1,09,02,55,325,31,05,51,220,37,12,48,271,36,06,44,044,33*7B
2017-05-26T21:00:55 -->> $GPGSV,3,2,09,44,35,237,,17,27,121,36,09,23,068,31,25,20,312,30*77
2017-05-26T21:00:55 -->> $GPGSV,3,3,09,193,,,30*48
2017-05-26T21:00:55 -->> $GLGSV,1,1,00*65
2017-05-26T21:00:55 -->> $GNRMC,130055.000,A,3030.9485,N,10404.2855,E,0.00,0.00,260517,,,A*7E
2017-05-26T21:00:55 -->> $GNVTG,0.00,T,,M,0.00,N,0.00,K,A*23
2017-05-26T21:00:55 -->> $GNGGA,130056.000,3030.9485,N,10404.2855,E,1,7,1.08,546.2,M,-31.9,M,,*65
2017-05-26T21:00:55 -->> $GPGSA,A,3,02,05,06,17,12,09,25,,,,,,1.41,1.08,0.91*0D
2017-05-26T21:00:55 -->> $GLGSA,A,3,,,,,,,,,,,,,1.41,1.08,0.91*1B
2017-05-26T21:00:56 -->> $GPGSV,3,1,09,02,55,325,31,05,51,220,37,12,48,271,36,06,44,044,33*7B
2017-05-26T21:00:56 -->> $GPGSV,3,2,09,44,35,237,,17,27,121,36,09,23,068,31,25,20,312,31*76
2017-05-26T21:00:56 -->> $GPGSV,3,3,09,193,,,30*48
2017-05-26T21:00:56 -->> $GLGSV,1,1,00*65
2017-05-26T21:00:56 -->> $GNRMC,130056.000,A,3030.9485,N,10404.2855,E,0.00,0.00,260517,,,A*7D
2017-05-26T21:00:56 -->> $GNVTG,0.00,T,,M,0.00,N,0.00,K,A*23
2017-05-26T21:00:56 -->> $GNGGA,130057.000,3030.9485,N,10404.2855,E,1,7,1.08,546.2,M,-31.9,M,,*64
2017-05-26T21:00:56 -->> $GPGSA,A,3,02,05,06,17,12,09,25,,,,,,1.41,1.08,0.91*0D
2017-05-26T21:00:56 -->> $GLGSA,A,3,,,,,,,,,,,,,1.41,1.08,0.91*1B
2017-05-26T21:00:57 -->> $GPGSV,3,1,09,02,55,325,31,05,51,220,37,12,48,271,36,06,44,044,33*7B
2017-05-26T21:00:57 -->> $GPGSV,3,2,09,44,35,237,,17,27,121,36,09,23,068,31,25,20,312,31*76
2017-05-26T21:00:57 -->> $GPGSV,3,3,09,193,,,29*40
2017-05-26T21:00:57 -->> $GLGSV,1,1,00*65
2017-05-26T21:00:57 -->> $GNRMC,130057.000,A,3030.9485,N,10404.2855,E,0.00,0.00,260517,,,A*7C
2017-05-26T21:00:57 -->> $GNVTG,0.00,T,,M,0.00,N,0.00,K,A*23
2017-05-26T21:00:57 -->> $GNGGA,130058.000,3030.9485,N,10404.2855,E,1,7,1.08,546.2,M,-31.9,M,,*6B
2017-05-26T21:00:57 -->> $GPGSA,A,3,02,05,06,17,12,09,25,,,,,,1.41,1.08,0.91*0D
2017-05-26T21:00:57 -->> $GLGSA,A,3,,,,,,,,,,,,,1.41,1.08,0.91*1B
2017-05-26T21:00:58 -->> $GPGSV,3,1,09,02,55,325,31,05,51,220,37,12,48,271,36,06,44,044,33*7B
2017-05-26T21:00:58 -->> $GPGSV,3,2,09,44,35,237,,17,27,121,36,09,23,068,31,25,20,312,30*77
2017-05-26T21:00:58 -->> $GPGSV,3,3,09,193,,,29*40
2017-05-26T21:00:58 -->> $GLGSV,1,1,00*65
2017-05-26T21:00:58 -->> $GNRMC,130058.000,A,3030.9485,N,10404.2855,E,0.00,0.00,260517,,,A*73
2017-05-26T21:00:58 -->> $GNVTG,0.00,T,,M,0.00,N,0.00,K,A*23
2017-05-26T21:00:58 -->> $GNGGA,130059.000,3030.9485,N,10404.2855,E,1,7,1.08,546.2,M,-31.9,M,,*6A
2017-05-26T21:00:58 -->> $GPGSA,A,3,02,05,06,17,12,09,25,,,,,,1.41,1.08,0.91*0D
2017-05-26T21:00:58 -->> $GLGSA,A,3,,,,,,,,,,,,,1.41,1.08,0.91*1B
2017-05-26T21:00:59 -->> $GPGSV,3,1,09,02,55,325,31,05,51,220,37,12,48,271,36,06,44,044,33*7B
2017-05-26T21:00:59 -->> $GPGSV,3,2,09,44,35,237,,17,27,121,36,09,23,068,31,25,20,312,31*76
2017-05-26T21:00:59 -->> $GPGSV,3,3,09,193,,,29*40
2017-05-26T21:00:59 -->> $GLGSV,1,1,00*65
2017-05-26T21:00:59 -->> $GNRMC,130059.000,A,3030.9485,N,10404.2855,E,0.00,0.00,260517,,,A*72
2017-05-26T21:00:59 -->> $GNVTG,0.00,T,,M,0.00,N,0.00,K,A*23
2017-05-26T21:00:59 -->> $GNGGA,130100.000,3030.9485,N,10404.2855,E,1,7,1.08,546.2,M,-31.9,M,,*67
2017-05-26T21:00:59 -->> $GPGSA,A,3,02,05,06,17,12,09,25,,,,,,1.41,1.08,0.91*0D
2017-05-26T21:00:59 -->> $GLGSA,A,3,,,,,,,,,,,,,1.41,1.08,0.91*1B
2017-05-26T21:01:00 -->> $GPGSV,3,1,09,02,55,325,32,05,51,220,37,12,48,271,36,06,44,044,33*78
2017-05-26T21:01:00 -->> $GPGSV,3,2,09,44,35,237,,17,27,121,36,09,23,068,31,25,20,312,31*76
2017-05-26T21:01:00 -->> $GPGSV,3,3,09,193,,,29*40
2017-05-26T21:01:00 -->> $GLGSV,1,1,00*65
2017-05-26T21:01:00 -->> $GNRMC,130100.000,A,3030.9485,N,10404.2855,E,0.00,0.00,260517,,,A*7F
2017-05-26T21:01:00 -->> $GNVTG,0.00,T,,M,0.00,N,0.00,K,A*23
2017-05-26T21:01:00 -->> $GNGGA,130101.000,3030.9485,N,10404.2855,E,1,8,1.06,546.2,M,-31.9,M,,*67
2017-05-26T21:01:00 -->> $GPGSA,A,3,02,05,06,17,12,09,25,193,,,,,1.38,1.06,0.88*3E
2017-05-26T21:01:00 -->> $GLGSA,A,3,,,,,,,,,,,,,1.38,1.06,0.88*13
2017-05-26T21:01:01 -->> $GPGSV,3,1,09,02,55,325,32,05,51,220,37,12,48,271,36,06,44,044,33*78
2017-05-26T21:01:01 -->> $GPGSV,3,2,09,40,34,238,,17,27,121,36,09,23,068,31,25,20,312,31*7C
2017-05-26T21:01:01 -->> $GPGSV,3,3,09,193,,,29*40
2017-05-26T21:01:01 -->> $GLGSV,1,1,00*65
2017-05-26T21:01:01 -->> $GNRMC,130101.000,A,3030.9485,N,10404.2855,E,0.00,0.00,260517,,,A*7E
2017-05-26T21:01:01 -->> $GNVTG,0.00,T,,M,0.00,N,0.00,K,A*23
2017-05-26T21:01:01 -->> $GNGGA,130102.000,3030.9485,N,10404.2855,E,1,8,1.06,546.2,M,-31.9,M,,*64
2017-05-26T21:01:01 -->> $GPGSA,A,3,02,05,06,17,12,09,25,193,,,,,1.38,1.06,0.88*3E
2017-05-26T21:01:01 -->> $GLGSA,A,3,,,,,,,,,,,,,1.38,1.06,0.88*13
2017-05-26T21:01:02 -->> $GPGSV,3,1,09,02,55,325,31,05,51,220,37,12,48,271,36,06,44,044,33*7B
2017-05-26T21:01:02 -->> $GPGSV,3,2,09,40,34,238,,17,27,121,36,09,23,068,30,25,20,312,31*7D
2017-05-26T21:01:02 -->> $GPGSV,3,3,09,193,,,29*40
2017-05-26T21:01:02 -->> $GLGSV,1,1,00*65
2017-05-26T21:01:02 -->> $GNRMC,130102.000,A,3030.9485,N,10404.2855,E,0.00,0.00,260517,,,A*7D
2017-05-26T21:01:02 -->> $GNVTG,0.00,T,,M,0.00,N,0.00,K,A*23
2017-05-26T21:01:02 -->> $GNGGA,130103.000,3030.9485,N,10404.2855,E,1,8,1.06,546.2,M,-31.9,M,,*65
2017-05-26T21:01:02 -->> $GPGSA,A,3,02,05,06,17,12,09,25,193,,,,,1.38,1.06,0.88*3E
2017-05-26T21:01:02 -->> $GLGSA,A,3,,,,,,,,,,,,,1.38,1.06,0.88*13
2017-05-26T21:01:03 -->> $GPGSV,3,1,09,02,55,325,31,05,51,220,37,12,48,271,35,06,44,044,33*78
2017-05-26T21:01:03 -->> $GPGSV,3,2,09,40,34,238,,17,27,121,36,09,23,068,30,25,20,312,31*7D
2017-05-26T21:01:03 -->> $GPGSV,3,3,09,193,,,29*40
2017-05-26T21:01:03 -->> $GLGSV,1,1,00*65
2017-05-26T21:01:03 -->> $GNRMC,130103.000,A,3030.9485,N,10404.2855,E,0.00,0.00,260517,,,A*7C
2017-05-26T21:01:03 -->> $GNVTG,0.00,T,,M,0.00,N,0.00,K,A*23
2017-05-26T21:01:03 -->> $GNGGA,130104.000,3030.9485,N,10404.2855,E,1,8,1.06,546.2,M,-31.9,M,,*62
2017-05-26T21:01:03 -->> $GPGSA,A,3,02,05,06,17,12,09,25,193,,,,,1.38,1.06,0.88*3E
2017-05-26T21:01:03 -->> $GLGSA,A,3,,,,,,,,,,,,,1.38,1.06,0.88*13
2017-05-26T21:01:04 -->> $GPGSV,3,1,09,02,55,325,31,05,51,220,37,12,48,271,35,06,44,044,33*78
2017-05-26T21:01:04 -->> $GPGSV,3,2,09,40,34,238,,17,27,121,36,09,23,068,31,25,20,312,31*7C
2017-05-26T21:01:04 -->> $GPGSV,3,3,09,193,,,29*40
2017-05-26T21:01:04 -->> $GLGSV,1,1,00*65
2017-05-26T21:01:04 -->> $GNRMC,130104.000,A,3030.9485,N,10404.2855,E,0.00,0.00,260517,,,A*7B
2017-05-26T21:01:04 -->> $GNVTG,0.00,T,,M,0.00,N,0.00,K,A*23
2017-05-26T21:01:04 -->> $GNGGA,130105.000,3030.9485,N,10404.2855,E,1,8,1.06,546.2,M,-31.9,M,,*63
2017-05-26T21:01:04 -->> $GPGSA,A,3,02,05,06,17,12,09,25,193,,,,,1.38,1.06,0.88*3E
2017-05-26T21:01:04 -->> $GLGSA,A,3,,,,,,,,,,,,,1.38,1.06,0.88*13
2017-05-26T21:01:05 -->> $GPGSV,3,1,09,02,55,325,31,05,51,220,37,12,48,271,35,06,44,044,33*78
2017-05-26T21:01:05 -->> $GPGSV,3,2,09,40,34,238,,17,27,121,36,09,23,068,31,25,20,312,32*7F
2017-05-26T21:01:05 -->> $GPGSV,3,3,09,193,,,29*40
2017-05-26T21:01:05 -->> $GLGSV,1,1,00*65
2017-05-26T21:01:05 -->> $GNRMC,130105.000,A,3030.9485,N,10404.2855,E,0.00,0.00,260517,,,A*7A
2017-05-26T21:01:05 -->> $GNVTG,0.00,T,,M,0.00,N,0.00,K,A*23
2017-05-26T21:01:05 -->> $GNGGA,130106.000,3030.9485,N,10404.2855,E,1,8,1.06,546.2,M,-31.9,M,,*60
2017-05-26T21:01:05 -->> $GPGSA,A,3,02,05,06,17,12,09,25,193,,,,,1.38,1.06,0.88*3E
2017-05-26T21:01:05 -->> $GLGSA,A,3,,,,,,,,,,,,,1.38,1.06,0.88*13
2017-05-26T21:01:06 -->> $GPGSV,3,1,09,193,61,072,29,02,55,325,31,05,51,220,37,12,48,271,35*4C
2017-05-26T21:01:06 -->> $GPGSV,3,2,09,06,44,044,33,40,34,238,27,17,27,121,36,09,23,068,31*78
2017-05-26T21:01:06 -->> $GPGSV,3,3,09,25,20,312,32*44
2017-05-26T21:01:06 -->> $GLGSV,1,1,00*65
2017-05-26T21:01:06 -->> $GNRMC,130106.000,A,3030.9485,N,10404.2855,E,0.00,0.00,260517,,,A*79
2017-05-26T21:01:06 -->> $GNVTG,0.00,T,,M,0.00,N,0.00,K,A*23
2017-05-26T21:01:06 -->> $GNGGA,130107.000,3030.9485,N,10404.2855,E,1,8,1.06,546.2,M,-31.9,M,,*61
2017-05-26T21:01:06 -->> $GPGSA,A,3,02,05,06,17,12,09,25,193,,,,,1.38,1.06,0.88*3E
2017-05-26T21:01:06 -->> $GLGSA,A,3,,,,,,,,,,,,,1.38,1.06,0.88*13
2017-05-26T21:01:07 -->> $GPGSV,3,1,09,193,61,072,29,02,55,325,31,05,51,220,36,12,48,271,36*4E
2017-05-26T21:01:07 -->> $GPGSV,3,2,09,06,44,044,33,40,34,238,29,17,27,121,36,09,23,068,31*76
2017-05-26T21:01:07 -->> $GPGSV,3,3,09,25,20,312,32*44
2017-05-26T21:01:07 -->> $GLGSV,1,1,00*65
2017-05-26T21:01:07 -->> $GNRMC,130107.000,A,3030.9485,N,10404.2855,E,0.00,0.00,260517,,,A*78
2017-05-26T21:01:07 -->> $GNVTG,0.00,T,,M,0.00,N,0.00,K,A*23
2017-05-26T21:01:07 -->> $GNGGA,130108.000,3030.9485,N,10404.2855,E,1,8,1.06,546.2,M,-31.9,M,,*6E
2017-05-26T21:01:07 -->> $GPGSA,A,3,02,05,06,17,12,09,25,193,,,,,1.38,1.06,0.88*3E
2017-05-26T21:01:07 -->> $GLGSA,A,3,,,,,,,,,,,,,1.38,1.06,0.88*13
2017-05-26T21:01:08 -->> $GPGSV,3,1,09,193,61,072,29,02,55,325,31,05,51,220,36,12,48,271,36*4E
2017-05-26T21:01:08 -->> $GPGSV,3,2,09,06,44,044,33,40,34,238,29,17,27,121,36,09,23,068,30*77
2017-05-26T21:01:08 -->> $GPGSV,3,3,09,25,20,312,32*44
2017-05-26T21:01:08 -->> $GLGSV,1,1,00*65
2017-05-26T21:01:08 -->> $GNRMC,130108.000,A,3030.9485,N,10404.2855,E,0.00,0.00,260517,,,A*77
2017-05-26T21:01:08 -->> $GNVTG,0.00,T,,M,0.00,N,0.00,K,A*23
2017-05-26T21:01:08 -->> $GNGGA,130109.000,3030.9485,N,10404.2855,E,1,8,1.08,546.2,M,-31.9,M,,*61
2017-05-26T21:01:08 -->> $GPGSA,A,3,02,05,06,17,12,09,25,193,,,,,2.16,1.08,1.87*31
2017-05-26T21:01:08 -->> $GLGSA,A,3,,,,,,,,,,,,,2.16,1.08,1.87*1C
2017-05-26T21:01:09 -->> $GPGSV,3,1,09,193,61,072,29,02,55,325,31,05,51,220,36,12,48,271,37*4F
2017-05-26T21:01:09 -->> $GPGSV,3,2,09,06,44,044,33,40,34,238,29,17,27,121,36,09,23,068,30*77
2017-05-26T21:01:09 -->> $GPGSV,3,3,09,25,20,312,32*44
2017-05-26T21:01:09 -->> $GLGSV,1,1,00*65
2017-05-26T21:01:09 -->> $GNRMC,130109.000,A,3030.9485,N,10404.2855,E,0.00,0.00,260517,,,A*76
2017-05-26T21:01:09 -->> $GNVTG,0.00,T,,M,0.00,N,0.00,K,A*23
2017-05-26T21:01:09 -->> $GNGGA,130110.000,3030.9485,N,10404.2855,E,1,9,1.04,546.2,M,-31.9,M,,*64
2017-05-26T21:01:09 -->> $GPGSA,A,3,02,05,06,17,12,09,25,193,,,,,1.35,1.04,0.86*3F
2017-05-26T21:01:10 -->> $GLGSA,A,3,72,,,,,,,,,,,,1.35,1.04,0.86*17
2017-05-26T21:01:10 -->> $GPGSV,3,1,09,193,61,072,29,02,55,325,31,05,51,220,36,12,48,271,37*4F
2017-05-26T21:01:10 -->> $GPGSV,3,2,09,06,44,044,33,40,34,238,29,17,27,121,36,09,23,068,31*76
2017-05-26T21:01:10 -->> $GPGSV,3,3,09,25,20,312,31*47
2017-05-26T21:01:10 -->> $GLGSV,1,1,01,72,71,131,26*50
2017-05-26T21:01:10 -->> $GNRMC,130110.000,A,3030.9485,N,10404.2855,E,0.00,0.00,260517,,,A*7E
2017-05-26T21:01:10 -->> $GNVTG,0.00,T,,M,0.00,N,0.00,K,A*23
2017-05-26T21:01:10 -->> $GNGGA,130111.000,3030.9485,N,10404.2855,E,1,9,1.04,546.2,M,-31.9,M,,*65
2017-05-26T21:01:10 -->> $GPGSA,A,3,02,05,06,17,12,09,25,193,,,,,1.35,1.04,0.86*3F
2017-05-26T21:01:10 -->> $GLGSA,A,3,72,,,,,,,,,,,,1.35,1.04,0.86*17
2017-05-26T21:01:11 -->> $GPGSV,3,1,09,193,61,072,29,02,55,325,31,05,51,220,36,12,48,271,37*4F
2017-05-26T21:01:11 -->> $GPGSV,3,2,09,06,44,044,33,40,34,238,29,17,27,121,36,09,23,068,31*76
2017-05-26T21:01:11 -->> $GPGSV,3,3,09,25,20,312,31*47
2017-05-26T21:01:11 -->> $GLGSV,1,1,01,72,71,131,26*50
2017-05-26T21:01:11 -->> $GNRMC,130111.000,A,3030.9485,N,10404.2855,E,0.00,0.00,260517,,,A*7F
2017-05-26T21:01:11 -->> $GNVTG,0.00,T,,M,0.00,N,0.00,K,A*23
2017-05-26T21:01:11 -->> $GNGGA,130112.000,3030.9485,N,10404.2855,E,1,9,1.04,546.2,M,-31.9,M,,*66
2017-05-26T21:01:11 -->> $GPGSA,A,3,02,05,06,17,12,09,25,193,,,,,1.35,1.04,0.86*3F
2017-05-26T21:01:12 -->> $GLGSA,A,3,72,,,,,,,,,,,,1.35,1.04,0.86*17
2017-05-26T21:01:12 -->> $GPGSV,3,1,09,193,61,072,29,02,55,325,31,05,51,220,36,12,48,271,37*4F
2017-05-26T21:01:12 -->> $GPGSV,3,2,09,06,44,044,33,40,34,238,29,17,27,121,36,09,23,068,31*76
2017-05-26T21:01:12 -->> $GPGSV,3,3,09,25,20,312,31*47
2017-05-26T21:01:12 -->> $GLGSV,1,1,01,72,71,131,26*50
2017-05-26T21:01:12 -->> $GNRMC,130112.000,A,3030.9485,N,10404.2855,E,0.00,0.00,260517,,,A*7C
2017-05-26T21:01:12 -->> $GNVTG,0.00,T,,M,0.00,N,0.00,K,A*23
2017-05-26T21:01:12 -->> $GNGGA,130113.000,3030.9485,N,10404.2855,E,1,9,1.06,546.2,M,-31.9,M,,*65
2017-05-26T21:01:12 -->> $GPGSA,A,3,02,05,06,17,12,09,25,193,,,,,1.99,1.06,1.68*3A
2017-05-26T21:01:13 -->> $GLGSA,A,3,72,,,,,,,,,,,,1.99,1.06,1.68*12
2017-05-26T21:01:13 -->> $GPGSV,3,1,09,193,61,072,29,02,55,325,31,05,51,220,36,12,48,271,36*4E
2017-05-26T21:01:13 -->> $GPGSV,3,2,09,06,44,044,33,40,34,238,29,17,27,121,36,09,23,068,31*76
2017-05-26T21:01:13 -->> $GPGSV,3,3,09,25,20,312,31*47
2017-05-26T21:01:13 -->> $GLGSV,1,1,01,72,71,131,26*50
2017-05-26T21:01:13 -->> $GNRMC,130113.000,A,3030.9485,N,10404.2855,E,0.00,0.00,260517,,,A*7D
2017-05-26T21:01:13 -->> $GNVTG,0.00,T,,M,0.00,N,0.00,K,A*23
2017-05-26T21:01:13 -->> $GNGGA,130114.000,3030.9485,N,10404.2855,E,1,9,1.06,546.2,M,-31.9,M,,*62
2017-05-26T21:01:13 -->> $GPGSA,A,3,02,05,06,17,12,09,25,193,,,,,1.99,1.06,1.68*3A
2017-05-26T21:01:13 -->> $GLGSA,A,3,72,,,,,,,,,,,,1.99,1.06,1.68*12
2017-05-26T21:01:14 -->> $GPGSV,3,1,09,193,61,072,29,02,55,325,31,05,51,220,36,12,48,271,36*4E
2017-05-26T21:01:14 -->> $GPGSV,3,2,09,06,44,044,33,40,34,238,29,17,27,121,36,09,23,068,31*76
2017-05-26T21:01:14 -->> $GPGSV,3,3,09,25,20,312,31*47
2017-05-26T21:01:14 -->> $GLGSV,1,1,01,72,71,131,27*51
2017-05-26T21:01:14 -->> $GNRMC,130114.000,A,3030.9485,N,10404.2855,E,0.00,0.00,260517,,,A*7A
2017-05-26T21:01:14 -->> $GNVTG,0.00,T,,M,0.00,N,0.00,K,A*23
2017-05-26T21:01:14 -->> $GNGGA,130115.000,3030.9485,N,10404.2855,E,1,9,1.06,546.2,M,-31.9,M,,*63
2017-05-26T21:01:14 -->> $GPGSA,A,3,02,05,06,17,12,09,25,193,,,,,1.99,1.06,1.68*3A
2017-05-26T21:01:14 -->> $GLGSA,A,3,72,,,,,,,,,,,,1.99,1.06,1.68*12
2017-05-26T21:01:15 -->> $GPGSV,3,1,09,193,61,072,29,02,55,325,31,05,51,220,36,12,48,271,36*4E
2017-05-26T21:01:15 -->> $GPGSV,3,2,09,06,44,044,33,40,34,238,29,17,27,121,36,09,23,068,30*77
2017-05-26T21:01:15 -->> $GPGSV,3,3,09,25,20,312,31*47
2017-05-26T21:01:15 -->> $GLGSV,1,1,01,72,71,131,28*5E
2017-05-26T21:01:15 -->> $GNRMC,130115.000,A,3030.9485,N,10404.2855,E,0.00,0.00,260517,,,A*7B
2017-05-26T21:01:15 -->> $GNVTG,0.00,T,,M,0.00,N,0.00,K,A*23
2017-05-26T21:01:15 -->> $GNGGA,130116.000,3030.9485,N,10404.2855,E,1,9,1.04,546.2,M,-31.9,M,,*62
2017-05-26T21:01:15 -->> $GPGSA,A,3,02,05,06,17,12,09,25,193,,,,,1.35,1.04,0.86*3F
2017-05-26T21:01:15 -->> $GLGSA,A,3,72,,,,,,,,,,,,1.35,1.04,0.86*17
2017-05-26T21:01:16 -->> $GPGSV,3,1,09,193,61,072,29,02,55,325,31,05,51,220,36,12,48,271,36*4E
2017-05-26T21:01:16 -->> $GPGSV,3,2,09,06,44,044,33,40,34,238,29,17,27,121,36,09,23,068,31*76
2017-05-26T21:01:16 -->> $GPGSV,3,3,09,25,20,312,31*47
2017-05-26T21:01:16 -->> $GLGSV,1,1,01,72,71,131,28*5E
2017-05-26T21:01:16 -->> $GNRMC,130116.000,A,3030.9485,N,10404.2855,E,0.00,0.00,260517,,,A*78
2017-05-26T21:01:16 -->> $GNVTG,0.00,T,,M,0.00,N,0.00,K,A*23
2017-05-26T21:01:16 -->> $GNGGA,130117.000,3030.9485,N,10404.2855,E,1,9,1.04,546.2,M,-31.9,M,,*63
2017-05-26T21:01:16 -->> $GPGSA,A,3,02,05,06,17,12,09,25,193,,,,,1.35,1.04,0.86*3F
2017-05-26T21:01:16 -->> $GLGSA,A,3,72,,,,,,,,,,,,1.35,1.04,0.86*17
2017-05-26T21:01:17 -->> $GPGSV,3,1,09,193,61,072,29,02,55,325,31,05,51,220,36,12,48,271,36*4E
2017-05-26T21:01:17 -->> $GPGSV,3,2,09,06,44,044,33,40,34,238,29,17,27,121,36,09,23,068,31*76
2017-05-26T21:01:17 -->> $GPGSV,3,3,09,25,20,312,31*47
2017-05-26T21:01:17 -->> $GLGSV,1,1,01,72,71,131,28*5E
2017-05-26T21:01:17 -->> $GNRMC,130117.000,A,3030.9485,N,10404.2855,E,0.00,0.00,260517,,,A*79
2017-05-26T21:01:17 -->> $GNVTG,0.00,T,,M,0.00,N,0.00,K,A*23
2017-05-26T21:01:17 -->> $GNGGA,130118.000,3030.9485,N,10404.2855,E,1,9,1.04,546.2,M,-31.9,M,,*6C
2017-05-26T21:01:17 -->> $GPGSA,A,3,02,05,06,17,12,09,25,193,,,,,1.35,1.04,0.86*3F
2017-05-26T21:01:17 -->> $GLGSA,A,3,72,,,,,,,,,,,,1.35,1.04,0.86*17
2017-05-26T21:01:18 -->> $GPGSV,3,1,09,193,61,072,29,02,55,325,31,05,51,220,37,12,48,271,36*4F
2017-05-26T21:01:18 -->> $GPGSV,3,2,09,06,44,044,33,40,34,238,29,17,27,121,36,09,23,068,31*76
2017-05-26T21:01:18 -->> $GPGSV,3,3,09,25,20,312,31*47
2017-05-26T21:01:18 -->> $GLGSV,1,1,01,72,71,131,29*5F
2017-05-26T21:01:18 -->> $GNRMC,130118.000,A,3030.9485,N,10404.2855,E,0.00,0.00,260517,,,A*76
2017-05-26T21:01:18 -->> $GNVTG,0.00,T,,M,0.00,N,0.00,K,A*23
2017-05-26T21:01:18 -->> $GNGGA,130119.000,3030.9485,N,10404.2855,E,1,9,1.06,546.2,M,-31.9,M,,*6F
2017-05-26T21:01:18 -->> $GPGSA,A,3,02,05,06,17,12,09,25,193,,,,,1.99,1.06,1.68*3A
2017-05-26T21:01:19 -->> $GLGSA,A,3,72,,,,,,,,,,,,1.99,1.06,1.68*12
2017-05-26T21:01:19 -->> $GPGSV,3,1,09,193,61,072,29,02,55,325,31,05,51,220,37,12,48,271,36*4F
2017-05-26T21:01:19 -->> $GPGSV,3,2,09,06,44,044,33,40,34,238,29,17,27,121,36,09,23,068,31*76
2017-05-26T21:01:19 -->> $GPGSV,3,3,09,25,20,312,31*47
2017-05-26T21:01:19 -->> $GLGSV,1,1,01,72,71,131,28*5E
2017-05-26T21:01:19 -->> $GNRMC,130119.000,A,3030.9485,N,10404.2855,E,0.00,0.00,260517,,,A*77
2017-05-26T21:01:19 -->> $GNVTG,0.00,T,,M,0.00,N,0.00,K,A*23
2017-05-26T21:01:19 -->> $GNGGA,130120.000,3030.9485,N,10404.2855,E,1,9,1.04,546.2,M,-31.9,M,,*67
2017-05-26T21:01:19 -->> $GPGSA,A,3,02,05,06,17,12,09,25,193,,,,,1.35,1.04,0.86*3F
2017-05-26T21:01:19 -->> $GLGSA,A,3,72,,,,,,,,,,,,1.35,1.04,0.86*17
2017-05-26T21:01:20 -->> $GPGSV,3,1,09,193,61,072,29,02,55,325,31,05,51,220,36,12,48,271,36*4E
2017-05-26T21:01:20 -->> $GPGSV,3,2,09,06,44,044,33,40,34,238,29,17,27,121,36,09,23,068,31*76
2017-05-26T21:01:20 -->> $GPGSV,3,3,09,25,20,312,31*47
2017-05-26T21:01:20 -->> $GLGSV,1,1,01,72,71,131,28*5E
2017-05-26T21:01:20 -->> $GNRMC,130120.000,A,3030.9485,N,10404.2855,E,0.00,0.00,260517,,,A*7D
2017-05-26T21:01:20 -->> $GNVTG,0.00,T,,M,0.00,N,0.00,K,A*23
2017-05-26T21:01:20 -->> $GNGGA,130121.000,3030.9485,N,10404.2855,E,1,9,1.06,546.2,M,-31.9,M,,*64
2017-05-26T21:01:20 -->> $GPGSA,A,3,02,05,06,17,12,09,25,193,,,,,1.99,1.06,1.68*3A
2017-05-26T21:01:21 -->> $GLGSA,A,3,72,,,,,,,,,,,,1.99,1.06,1.68*12
2017-05-26T21:01:21 -->> $GPGSV,3,1,09,193,61,072,29,02,55,325,31,05,51,220,36,12,48,271,36*4E
2017-05-26T21:01:21 -->> $GPGSV,3,2,09,06,44,044,33,40,34,238,29,17,27,121,36,09,23,068,31*76
2017-05-26T21:01:21 -->> $GPGSV,3,3,09,25,20,312,31*47
2017-05-26T21:01:21 -->> $GLGSV,1,1,01,72,71,131,28*5E
2017-05-26T21:01:21 -->> $GNRMC,130121.000,A,3030.9485,N,10404.2855,E,0.00,0.00,260517,,,A*7C
2017-05-26T21:01:21 -->> $GNVTG,0.00,T,,M,0.00,N,0.00,K,A*23
2017-05-26T21:01:21 -->> $GNGGA,130122.000,3030.9485,N,10404.2855,E,1,9,1.04,546.2,M,-31.9,M,,*65
2017-05-26T21:01:21 -->> $GPGSA,A,3,02,05,06,17,12,09,25,193,,,,,1.35,1.04,0.86*3F
2017-05-26T21:01:22 -->> $GLGSA,A,3,72,,,,,,,,,,,,1.35,1.04,0.86*17
2017-05-26T21:01:22 -->> $GPGSV,3,1,09,193,61,072,29,02,55,325,31,05,51,220,36,12,48,271,36*4E
2017-05-26T21:01:22 -->> $GPGSV,3,2,09,06,44,044,33,40,34,238,29,17,27,121,36,09,23,068,31*76
2017-05-26T21:01:22 -->> $GPGSV,3,3,09,25,20,312,31*47
2017-05-26T21:01:22 -->> $GLGSV,1,1,02,72,71,131,28,77,14,264,*68
2017-05-26T21:01:22 -->> $GNRMC,130122.000,A,3030.9485,N,10404.2855,E,0.00,0.00,260517,,,A*7F
2017-05-26T21:01:22 -->> $GNVTG,0.00,T,,M,0.00,N,0.00,K,A*23
2017-05-26T21:01:22 -->> $GNGGA,130123.000,3030.9485,N,10404.2855,E,1,9,1.04,546.2,M,-31.9,M,,*64
2017-05-26T21:01:22 -->> $GPGSA,A,3,02,05,06,17,12,09,25,193,,,,,1.35,1.04,0.86*3F
2017-05-26T21:01:23 -->> $GLGSA,A,3,72,,,,,,,,,,,,1.35,1.04,0.86*17
2017-05-26T21:01:23 -->> $GPGSV,3,1,09,193,61,072,29,02,55,325,31,05,51,220,37,12,48,271,36*4F
2017-05-26T21:01:23 -->> $GPGSV,3,2,09,06,44,044,33,40,34,238,29,17,27,121,36,09,23,068,31*76
2017-05-26T21:01:23 -->> $GPGSV,3,3,09,25,20,312,31*47
2017-05-26T21:01:23 -->> $GLGSV,1,1,02,72,71,131,28,77,14,264,*68
2017-05-26T21:01:23 -->> $GNRMC,130123.000,A,3030.9485,N,10404.2855,E,0.00,0.00,260517,,,A*7E
2017-05-26T21:01:23 -->> $GNVTG,0.00,T,,M,0.00,N,0.00,K,A*23
2017-05-26T21:01:23 -->> $GNGGA,130124.000,3030.9485,N,10404.2855,E,1,9,1.04,546.2,M,-31.9,M,,*63
2017-05-26T21:01:23 -->> $GPGSA,A,3,02,05,06,17,12,09,25,193,,,,,1.35,1.04,0.86*3F
2017-05-26T21:01:23 -->> $GLGSA,A,3,72,,,,,,,,,,,,1.35,1.04,0.86*17
2017-05-26T21:01:24 -->> $GPGSV,3,1,09,193,61,072,29,02,55,325,31,05,51,220,37,12,48,271,36*4F
2017-05-26T21:01:24 -->> $GPGSV,3,2,09,06,44,044,33,40,34,238,29,17,27,121,36,09,23,068,31*76
2017-05-26T21:01:24 -->> $GPGSV,3,3,09,25,20,312,31*47
2017-05-26T21:01:24 -->> $GLGSV,1,1,02,72,71,131,28,77,14,264,*68
2017-05-26T21:01:24 -->> $GNRMC,130124.000,A,3030.9485,N,10404.2855,E,0.00,0.00,260517,,,A*79
2017-05-26T21:01:24 -->> $GNVTG,0.00,T,,M,0.00,N,0.00,K,A*23
2017-05-26T21:01:24 -->> $GNGGA,130125.000,3030.9485,N,10404.2855,E,1,9,1.04,546.2,M,-31.9,M,,*62
2017-05-26T21:01:24 -->> $GPGSA,A,3,02,05,06,17,12,09,25,193,,,,,1.35,1.04,0.86*3F
2017-05-26T21:01:25 -->> $GLGSA,A,3,72,,,,,,,,,,,,1.35,1.04,0.86*17
2017-05-26T21:01:25 -->> $GPGSV,3,1,09,193,61,072,29,02,55,325,31,05,51,220,37,12,48,271,36*4F
2017-05-26T21:01:25 -->> $GPGSV,3,2,09,06,44,044,33,40,34,238,29,17,27,121,36,09,23,068,31*76
2017-05-26T21:01:25 -->> $GPGSV,3,3,09,25,20,312,31*47
2017-05-26T21:01:25 -->> $GLGSV,1,1,02,72,71,131,28,77,14,264,*68
2017-05-26T21:01:25 -->> $GNRMC,130125.000,A,3030.9485,N,10404.2855,E,0.00,0.00,260517,,,A*78
2017-05-26T21:01:25 -->> $GNVTG,0.00,T,,M,0.00,N,0.00,K,A*23
2017-05-26T21:01:25 -->> $GNGGA,130126.000,3030.9485,N,10404.2855,E,1,9,1.06,546.2,M,-31.9,M,,*63
2017-05-26T21:01:25 -->> $GPGSA,A,3,02,05,06,17,12,09,25,193,,,,,1.99,1.06,1.68*3A
2017-05-26T21:01:26 -->> $GLGSA,A,3,72,,,,,,,,,,,,1.99,1.06,1.68*12
2017-05-26T21:01:26 -->> $GPGSV,3,1,09,193,61,072,30,02,55,325,31,05,51,220,36,12,48,271,36*46
2017-05-26T21:01:26 -->> $GPGSV,3,2,09,06,44,044,33,40,34,238,29,17,27,121,36,09,23,068,31*76
2017-05-26T21:01:26 -->> $GPGSV,3,3,09,25,20,312,31*47
2017-05-26T21:01:26 -->> $GLGSV,1,1,03,72,71,131,28,77,14,264,,78,08,316,*5A
2017-05-26T21:01:26 -->> $GNRMC,130126.000,A,3030.9485,N,10404.2855,E,0.00,0.00,260517,,,A*7B
2017-05-26T21:01:26 -->> $GNVTG,0.00,T,,M,0.00,N,0.00,K,A*23
2017-05-26T21:01:26 -->> $GNGGA,130127.000,3030.9485,N,10404.2855,E,1,9,1.06,546.2,M,-31.9,M,,*62
2017-05-26T21:01:26 -->> $GPGSA,A,3,02,05,06,17,12,09,25,193,,,,,1.99,1.06,1.68*3A
2017-05-26T21:01:26 -->> $GLGSA,A,3,72,,,,,,,,,,,,1.99,1.06,1.68*12
2017-05-26T21:01:27 -->> $GPGSV,3,1,09,193,61,072,29,02,55,325,31,05,51,220,36,12,48,271,36*4E
2017-05-26T21:01:27 -->> $GPGSV,3,2,09,06,44,044,33,40,34,238,29,17,27,121,36,09,23,068,31*76
2017-05-26T21:01:27 -->> $GPGSV,3,3,09,25,20,312,31*47
2017-05-26T21:01:27 -->> $GLGSV,1,1,03,72,71,131,28,77,14,264,,78,08,316,*5A
2017-05-26T21:01:27 -->> $GNRMC,130127.000,A,3030.9485,N,10404.2855,E,0.00,0.00,260517,,,A*7A
2017-05-26T21:01:27 -->> $GNVTG,0.00,T,,M,0.00,N,0.00,K,A*23
2017-05-26T21:01:27 -->> $GNGGA,130128.000,3030.9485,N,10404.2855,E,1,9,1.06,546.2,M,-31.9,M,,*6D
2017-05-26T21:01:27 -->> $GPGSA,A,3,02,05,06,17,12,09,25,193,,,,,1.99,1.06,1.68*3A
2017-05-26T21:01:28 -->> $GLGSA,A,3,72,,,,,,,,,,,,1.99,1.06,1.68*12
2017-05-26T21:01:28 -->> $GPGSV,3,1,09,193,61,072,29,02,55,325,31,05,51,220,36,12,48,271,36*4E
2017-05-26T21:01:28 -->> $GPGSV,3,2,09,06,44,044,32,40,34,238,29,17,27,121,36,09,23,068,30*76
2017-05-26T21:01:28 -->> $GPGSV,3,3,09,25,20,312,31*47
2017-05-26T21:01:28 -->> $GLGSV,1,1,03,72,71,131,28,77,14,264,,78,08,316,*5A
2017-05-26T21:01:28 -->> $GNRMC,130128.000,A,3030.9485,N,10404.2855,E,0.00,0.00,260517,,,A*75
2017-05-26T21:01:28 -->> $GNVTG,0.00,T,,M,0.00,N,0.00,K,A*23
2017-05-26T21:01:28 -->> $GNGGA,130129.000,3030.9485,N,10404.2855,E,1,9,1.06,546.2,M,-31.9,M,,*6C
2017-05-26T21:01:28 -->> $GPGSA,A,3,02,05,06,17,12,09,25,193,,,,,1.99,1.06,1.68*3A
2017-05-26T21:01:29 -->> $GLGSA,A,3,72,,,,,,,,,,,,1.99,1.06,1.68*12
2017-05-26T21:01:29 -->> $GPGSV,3,1,09,193,61,072,29,02,55,325,31,05,51,220,36,12,48,271,36*4E
2017-05-26T21:01:29 -->> $GPGSV,3,2,09,06,44,044,32,40,34,238,29,17,27,121,36,09,23,068,30*76
2017-05-26T21:01:29 -->> $GPGSV,3,3,09,25,20,312,31*47
2017-05-26T21:01:29 -->> $GLGSV,1,1,03,72,71,131,28,77,14,264,,78,08,316,*5A
2017-05-26T21:01:29 -->> $GNRMC,130129.000,A,3030.9485,N,10404.2855,E,0.00,0.00,260517,,,A*74
2017-05-26T21:01:29 -->> $GNVTG,0.00,T,,M,0.00,N,0.00,K,A*23
2017-05-26T21:01:29 -->> $GNGGA,130130.000,3030.9485,N,10404.2855,E,1,9,1.06,546.2,M,-31.9,M,,*64
2017-05-26T21:01:29 -->> $GPGSA,A,3,02,05,06,17,12,09,25,193,,,,,1.99,1.06,1.68*3A
2017-05-26T21:01:30 -->> $GLGSA,A,3,72,,,,,,,,,,,,1.99,1.06,1.68*12
2017-05-26T21:01:30 -->> $GPGSV,3,1,09,193,61,072,29,02,55,325,31,05,51,220,36,12,48,271,36*4E
2017-05-26T21:01:30 -->> $GPGSV,3,2,09,06,44,044,31,40,34,238,29,17,27,121,36,09,23,068,30*75
2017-05-26T21:01:30 -->> $GPGSV,3,3,09,25,20,312,31*47
2017-05-26T21:01:30 -->> $GLGSV,1,1,03,72,71,131,28,77,14,264,,78,08,316,*5A
2017-05-26T21:01:30 -->> $GNRMC,130130.000,A,3030.9485,N,10404.2855,E,0.00,0.00,260517,,,A*7C
2017-05-26T21:01:30 -->> $GNVTG,0.00,T,,M,0.00,N,0.00,K,A*23
2017-05-26T21:01:30 -->> $GNGGA,130131.000,3030.9485,N,10404.2855,E,1,9,1.06,546.2,M,-31.9,M,,*65
2017-05-26T21:01:30 -->> $GPGSA,A,3,02,05,06,17,12,09,25,193,,,,,1.99,1.06,1.68*3A
2017-05-26T21:01:31 -->> $GLGSA,A,3,72,,,,,,,,,,,,1.99,1.06,1.68*12
2017-05-26T21:01:31 -->> $GPGSV,3,1,09,193,61,072,29,02,55,325,31,05,51,220,36,12,48,271,36*4E
2017-05-26T21:01:31 -->> $GPGSV,3,2,09,06,44,044,31,40,34,238,29,17,27,121,36,09,23,068,30*75
2017-05-26T21:01:31 -->> $GPGSV,3,3,09,25,20,312,31*47
2017-05-26T21:01:31 -->> $GLGSV,1,1,03,72,71,131,28,77,14,264,,78,08,316,*5A
2017-05-26T21:01:31 -->> $GNRMC,130131.000,A,3030.9485,N,10404.2855,E,0.00,0.00,260517,,,A*7D
2017-05-26T21:01:31 -->> $GNVTG,0.00,T,,M,0.00,N,0.00,K,A*23
2017-05-26T21:01:31 -->> $GNGGA,130132.000,3030.9485,N,10404.2855,E,1,9,1.06,546.2,M,-31.9,M,,*66
2017-05-26T21:01:31 -->> $GPGSA,A,3,02,05,06,17,12,09,25,193,,,,,1.99,1.06,1.68*3A
2017-05-26T21:01:32 -->> $GLGSA,A,3,72,,,,,,,,,,,,1.99,1.06,1.68*12
2017-05-26T21:01:32 -->> $GPGSV,3,1,09,193,61,072,29,02,55,325,31,05,51,220,36,12,48,271,36*4E
2017-05-26T21:01:32 -->> $GPGSV,3,2,09,06,44,044,31,40,34,238,29,17,27,121,36,09,23,068,29*7D
2017-05-26T21:01:32 -->> $GPGSV,3,3,09,25,20,312,31*47
2017-05-26T21:01:32 -->> $GLGSV,1,1,03,72,71,131,28,77,14,264,,78,08,316,*5A
2017-05-26T21:01:32 -->> $GNRMC,130132.000,A,3030.9485,N,10404.2855,E,0.00,0.00,260517,,,A*7E
2017-05-26T21:01:32 -->> $GNVTG,0.00,T,,M,0.00,N,0.00,K,A*23
2017-05-26T21:01:32 -->> $GNGGA,130133.000,3030.9485,N,10404.2855,E,1,9,1.06,546.2,M,-31.9,M,,*67
2017-05-26T21:01:32 -->> $GPGSA,A,3,02,05,06,17,12,09,25,193,,,,,1.99,1.06,1.68*3A
2017-05-26T21:01:33 -->> $GLGSA,A,3,72,,,,,,,,,,,,1.99,1.06,1.68*12
2017-05-26T21:01:33 -->> $GPGSV,3,1,09,193,61,072,29,02,55,325,31,05,51,220,36,12,48,271,36*4E
2017-05-26T21:01:33 -->> $GPGSV,3,2,09,06,44,044,31,40,34,238,29,17,27,121,36,09,23,068,29*7D
2017-05-26T21:01:33 -->> $GPGSV,3,3,09,25,20,312,31*47
2017-05-26T21:01:33 -->> $GLGSV,1,1,03,72,71,131,28,77,14,264,,78,08,316,*5A
2017-05-26T21:01:33 -->> $GNRMC,130133.000,A,3030.9485,N,10404.2855,E,0.00,0.00,260517,,,A*7F
2017-05-26T21:01:33 -->> $GNVTG,0.00,T,,M,0.00,N,0.00,K,A*23
2017-05-26T21:01:33 -->> $GNGGA,130134.000,3030.9485,N,10404.2855,E,1,9,1.06,546.2,M,-31.9,M,,*60
2017-05-26T21:01:33 -->> $GPGSA,A,3,02,05,06,17,12,09,25,193,,,,,1.99,1.06,1.68*3A
2017-05-26T21:01:34 -->> $GLGSA,A,3,72,,,,,,,,,,,,1.99,1.06,1.68*12
2017-05-26T21:01:34 -->> $GPGSV,3,1,09,193,61,072,29,02,55,325,31,05,51,220,36,12,48,271,36*4E
2017-05-26T21:01:34 -->> $GPGSV,3,2,09,06,44,044,31,40,34,238,29,17,27,121,36,09,23,068,30*75
2017-05-26T21:01:34 -->> $GPGSV,3,3,09,25,20,312,31*47
2017-05-26T21:01:34 -->> $GLGSV,1,1,03,72,71,131,28,77,14,264,,78,08,316,*5A
2017-05-26T21:01:34 -->> $GNRMC,130134.000,A,3030.9485,N,10404.2855,E,0.00,0.00,260517,,,A*78
2017-05-26T21:01:34 -->> $GNVTG,0.00,T,,M,0.00,N,0.00,K,A*23
2017-05-26T21:01:34 -->> $GNGGA,130135.000,3030.9485,N,10404.2855,E,1,9,1.06,546.2,M,-31.9,M,,*61
2017-05-26T21:01:34 -->> $GPGSA,A,3,02,05,06,17,12,09,25,193,,,,,1.99,1.06,1.68*3A
2017-05-26T21:01:35 -->> $GLGSA,A,3,72,,,,,,,,,,,,1.99,1.06,1.68*12
2017-05-26T21:01:35 -->> $GPGSV,3,1,09,193,61,072,29,02,55,325,31,05,51,220,36,12,48,271,36*4E
2017-05-26T21:01:35 -->> $GPGSV,3,2,09,06,44,044,31,40,34,238,29,17,27,121,36,09,23,068,30*75
2017-05-26T21:01:35 -->> $GPGSV,3,3,09,25,20,312,30*46
2017-05-26T21:01:35 -->> $GLGSV,1,1,03,72,71,131,28,77,14,264,,78,08,316,*5A
2017-05-26T21:01:35 -->> $GNRMC,130135.000,A,3030.9485,N,10404.2855,E,0.00,0.00,260517,,,A*79
2017-05-26T21:01:35 -->> $GNVTG,0.00,T,,M,0.00,N,0.00,K,A*23
2017-05-26T21:01:35 -->> $GNGGA,130136.000,3030.9485,N,10404.2855,E,1,9,1.06,546.2,M,-31.9,M,,*62
2017-05-26T21:01:35 -->> $GPGSA,A,3,02,05,06,17,12,09,25,193,,,,,1.99,1.06,1.68*3A
2017-05-26T21:01:36 -->> $GLGSA,A,3,72,,,,,,,,,,,,1.99,1.06,1.68*12
2017-05-26T21:01:36 -->> $GPGSV,3,1,09,193,61,072,29,02,55,325,31,05,51,220,36,12,48,271,36*4E
2017-05-26T21:01:36 -->> $GPGSV,3,2,09,06,44,044,31,40,34,238,29,17,27,121,36,09,23,068,30*75
2017-05-26T21:01:36 -->> $GPGSV,3,3,09,25,20,312,30*46
2017-05-26T21:01:36 -->> $GLGSV,1,1,03,72,71,131,28,77,14,264,,78,08,316,*5A
2017-05-26T21:01:36 -->> $GNRMC,130136.000,A,3030.9485,N,10404.2855,E,0.00,0.00,260517,,,A*7A
2017-05-26T21:01:36 -->> $GNVTG,0.00,T,,M,0.00,N,0.00,K,A*23
2017-05-26T21:01:36 -->> $GNGGA,130137.000,3030.9485,N,10404.2855,E,1,9,1.06,546.2,M,-31.9,M,,*63
2017-05-26T21:01:36 -->> $GPGSA,A,3,02,05,06,17,12,09,25,193,,,,,1.99,1.06,1.68*3A
2017-05-26T21:01:37 -->> $GLGSA,A,3,72,,,,,,,,,,,,1.99,1.06,1.68*12
2017-05-26T21:01:37 -->> $GPGSV,3,1,09,193,61,072,29,02,55,325,31,05,51,220,36,12,48,271,36*4E
2017-05-26T21:01:37 -->> $GPGSV,3,2,09,06,44,044,31,40,34,238,29,17,27,121,36,09,23,068,30*75
2017-05-26T21:01:37 -->> $GPGSV,3,3,09,25,20,312,30*46
2017-05-26T21:01:37 -->> $GLGSV,1,1,03,72,71,131,28,77,14,264,,78,08,316,*5A
2017-05-26T21:01:37 -->> $GNRMC,130137.000,A,3030.9485,N,10404.2855,E,0.00,0.00,260517,,,A*7B
2017-05-26T21:01:37 -->> $GNVTG,0.00,T,,M,0.00,N,0.00,K,A*23
2017-05-26T21:01:37 -->> $GNGGA,130138.000,3030.9485,N,10404.2855,E,1,9,1.06,546.2,M,-31.9,M,,*6C
2017-05-26T21:01:37 -->> $GPGSA,A,3,02,05,06,17,12,09,25,193,,,,,1.98,1.06,1.68*3B
2017-05-26T21:01:37 -->> $GLGSA,A,3,72,,,,,,,,,,,,1.98,1.06,1.68*13
2017-05-26T21:01:38 -->> $GPGSV,3,1,09,193,61,072,29,02,55,325,31,05,51,220,36,12,48,271,36*4E
2017-05-26T21:01:38 -->> $GPGSV,3,2,09,06,44,044,31,40,34,238,29,17,27,121,36,09,23,068,30*75
2017-05-26T21:01:38 -->> $GPGSV,3,3,09,25,20,312,30*46
2017-05-26T21:01:38 -->> $GLGSV,1,1,03,72,71,131,28,77,14,264,,78,08,316,*5A
2017-05-26T21:01:38 -->> $GNRMC,130138.000,A,3030.9485,N,10404.2855,E,0.00,0.00,260517,,,A*74
2017-05-26T21:01:38 -->> $GNVTG,0.00,T,,M,0.00,N,0.00,K,A*23
2017-05-26T21:01:38 -->> $GNGGA,130139.000,3030.9485,N,10404.2855,E,1,9,1.06,546.2,M,-31.9,M,,*6D
2017-05-26T21:01:38 -->> $GPGSA,A,3,02,05,06,17,12,09,25,193,,,,,1.98,1.06,1.68*3B
2017-05-26T21:01:38 -->> $GLGSA,A,3,72,,,,,,,,,,,,1.98,1.06,1.68*13
2017-05-26T21:01:39 -->> $GPGSV,3,1,09,193,61,072,29,02,55,325,31,05,51,220,36,12,48,271,36*4E
2017-05-26T21:01:39 -->> $GPGSV,3,2,09,06,44,044,31,40,34,238,29,17,27,121,36,09,23,068,30*75
2017-05-26T21:01:39 -->> $GPGSV,3,3,09,25,20,312,30*46
2017-05-26T21:01:39 -->> $GLGSV,1,1,03,72,71,131,28,77,14,264,,78,08,316,*5A
2017-05-26T21:01:39 -->> $GNRMC,130139.000,A,3030.9485,N,10404.2855,E,0.00,0.00,260517,,,A*75
2017-05-26T21:01:39 -->> $GNVTG,0.00,T,,M,0.00,N,0.00,K,A*23
2017-05-26T21:01:39 -->> $GNGGA,130140.000,3030.9485,N,10404.2855,E,1,11,0.98,546.2,M,-31.9,M,,*5C
2017-05-26T21:01:39 -->> $GPGSA,A,3,02,05,06,17,12,09,25,193,,,,,1.93,0.98,1.67*39
2017-05-26T21:01:40 -->> $GLGSA,A,3,86,72,71,,,,,,,,,,1.93,0.98,1.67*19
2017-05-26T21:01:40 -->> $GPGSV,3,1,09,193,61,072,29,02,55,325,31,05,51,220,36,12,48,271,36*4E
2017-05-26T21:01:40 -->> $GPGSV,3,2,09,06,44,044,31,40,34,238,29,17,27,121,36,09,23,068,30*75
2017-05-26T21:01:40 -->> $GPGSV,3,3,09,25,20,312,30*46
2017-05-26T21:01:40 -->> $GLGSV,2,1,05,72,71,131,28,86,42,074,26,71,38,038,25,77,14,264,*62
2017-05-26T21:01:40 -->> $GLGSV,2,2,05,78,08,316,*53
2017-05-26T21:01:40 -->> $GNRMC,130140.000,A,3030.9485,N,10404.2855,E,0.00,0.00,260517,,,A*7B
2017-05-26T21:01:40 -->> $GNVTG,0.00,T,,M,0.00,N,0.00,K,A*23
2017-05-26T21:01:40 -->> $GNGGA,130141.000,3030.9485,N,10404.2855,E,1,11,0.98,546.2,M,-31.9,M,,*5D
2017-05-26T21:01:40 -->> $GPGSA,A,3,02,05,06,17,12,09,25,193,,,,,1.93,0.98,1.67*39
2017-05-26T21:01:41 -->> $GLGSA,A,3,86,72,71,,,,,,,,,,1.93,0.98,1.67*19
2017-05-26T21:01:41 -->> $GPGSV,3,1,09,193,61,072,29,02,55,325,31,05,51,220,37,12,48,271,36*4F
2017-05-26T21:01:41 -->> $GPGSV,3,2,09,06,44,044,31,40,34,238,29,17,27,121,36,09,23,068,30*75
2017-05-26T21:01:41 -->> $GPGSV,3,3,09,25,20,312,30*46
2017-05-26T21:01:41 -->> $GLGSV,2,1,05,72,71,131,28,86,42,074,26,71,38,038,25,77,14,264,*62
2017-05-26T21:01:41 -->> $GLGSV,2,2,05,78,08,316,*53
