2017-05-26T21:14:21
2017-05-26T21:15:04 -->> ============================
2017-05-26T21:15:06 -->> $PMTK011,MTKGPS*08
2017-05-26T21:15:06 -->> $PMTK010,001*2E
2017-05-26T21:15:06 -->> $PMTK011,MTKGPS*08
2017-05-26T21:15:06 -->> $PMTK010,002*2D
2017-05-26T21:15:07 -->> $GNGGA,235942.800,,,,,0,0,,,M,,M,,*55
2017-05-26T21:15:07 -->> $GPGSA,A,1,,,,,,,,,,,,,,,*1E
2017-05-26T21:15:07 -->> $GLGSA,A,1,,,,,,,,,,,,,,,*02
2017-05-26T21:15:07 -->> $GPGSV,1,1,00*79
2017-05-26T21:15:07 -->> $GLGSV,1,1,00*65
2017-05-26T21:15:07 -->> $GNRMC,235942.800,V,,,,,0.00,0.00,050180,,,N*5C
2017-05-26T21:15:07 -->> $GNVTG,0.00,T,,M,0.00,N,0.00,K,N*2C
2017-05-26T21:15:08 -->> $GNGGA,235943.800,,,,,0,0,,,M,,M,,*54
2017-05-26T21:15:08 -->> $GPGSA,A,1,,,,,,,,,,,,,,,*1E
2017-05-26T21:15:08 -->> $GLGSA,A,1,,,,,,,,,,,,,,,*02
2017-05-26T21:15:08 -->> $GPGSV,1,1,00*79
2017-05-26T21:15:08 -->> $GLGSV,1,1,00*65
2017-05-26T21:15:08 -->> $GNRMC,235943.800,V,,,,,0.00,0.00,050180,,,N*5D
2017-05-26T21:15:08 -->> $GNVTG,0.00,T,,M,0.00,N,0.00,K,N*2C
2017-05-26T21:15:09 -->> $GNGGA,235944.799,,,,,0,0,,,M,,M,,*5C
2017-05-26T21:15:09 -->> $GPGSA,A,1,,,,,,,,,,,,,,,*1E
2017-05-26T21:15:09 -->> $GLGSA,A,1,,,,,,,,,,,,,,,*02
2017-05-26T21:15:09 -->> $GPGSV,1,1,01,09,,,31*73
2017-05-26T21:15:09 -->> $GLGSV,1,1,00*65
2017-05-26T21:15:09 -->> $GNRMC,235944.799,V,,,,,0.00,0.00,050180,,,N*55
2017-05-26T21:15:09 -->> $GNVTG,0.00,T,,M,0.00,N,0.00,K,N*2C
2017-05-26T21:15:10 -->> $GNGGA,235945.799,,,,,0,0,,,M,,M,,*5D
2017-05-26T21:15:10 -->> $GPGSA,A,1,,,,,,,,,,,,,,,*1E
2017-05-26T21:15:10 -->> $GLGSA,A,1,,,,,,,,,,,,,,,*02
2017-05-26T21:15:10 -->> $GPGSV,1,1,02,09,,,31,25,,,30*74
2017-05-26T21:15:10 -->> $GLGSV,1,1,00*65
2017-05-26T21:15:10 -->> $GNRMC,235945.799,V,,,,,0.00,0.00,050180,,,N*54
2017-05-26T21:15:10 -->> $GNVTG,0.00,T,,M,0.00,N,0.00,K,N*2C
2017-05-26T21:15:11 -->> $GNGGA,235946.799,,,,,0,0,,,M,,M,,*5E
2017-05-26T21:15:11 -->> $GPGSA,A,1,,,,,,,,,,,,,,,*1E
2017-05-26T21:15:11 -->> $GLGSA,A,1,,,,,,,,,,,,,,,*02
2017-05-26T21:15:11 -->> $GPGSV,1,1,02,09,,,33,25,,,35*73
2017-05-26T21:15:11 -->> $GLGSV,1,1,00*65
2017-05-26T21:15:11 -->> $GNRMC,235946.799,V,,,,,0.00,0.00,050180,,,N*57
2017-05-26T21:15:11 -->> $GNVTG,0.00,T,,M,0.00,N,0.00,K,N*2C
2017-05-26T21:15:12 -->> $GNGGA,235947.799,,,,,0,0,,,M,,M,,*5F
2017-05-26T21:15:12 -->> $GPGSA,A,1,,,,,,,,,,,,,,,*1E
2017-05-26T21:15:12 -->> $GLGSA,A,1,,,,,,,,,,,,,,,*02
2017-05-26T21:15:12 -->> $GPGSV,1,1,02,09,,,32,25,,,23*75
2017-05-26T21:15:12 -->> $GLGSV,1,1,00*65
2017-05-26T21:15:12 -->> $GNRMC,235947.799,V,,,,,0.00,0.00,050180,,,N*56
2017-05-26T21:15:12 -->> $GNVTG,0.00,T,,M,0.00,N,0.00,K,N*2C
2017-05-26T21:15:13 -->> $GNGGA,235948.799,,,,,0,0,,,M,,M,,*50
2017-05-26T21:15:13 -->> $GPGSA,A,1,,,,,,,,,,,,,,,*1E
2017-05-26T21:15:13 -->> $GLGSA,A,1,,,,,,,,,,,,,,,*02
2017-05-26T21:15:13 -->> $GPGSV,1,1,02,09,,,33,25,,,18*7C
2017-05-26T21:15:13 -->> $GLGSV,1,1,00*65
2017-05-26T21:15:13 -->> $GNRMC,235948.799,V,,,,,0.00,0.00,050180,,,N*59
2017-05-26T21:15:13 -->> $GNVTG,0.00,T,,M,0.00,N,0.00,K,N*2C
2017-05-26T21:15:14 -->> $GNGGA,235949.799,,,,,0,0,,,M,,M,,*51
2017-05-26T21:15:14 -->> $GPGSA,A,1,,,,,,,,,,,,,,,*1E
2017-05-26T21:15:14 -->> $GLGSA,A,1,,,,,,,,,,,,,,,*02
2017-05-26T21:15:14 -->> $GPGSV,1,1,02,09,,,32,25,,,30*77
2017-05-26T21:15:14 -->> $GLGSV,1,1,00*65
2017-05-26T21:15:14 -->> $GNRMC,235949.799,V,,,,,0.00,0.00,050180,,,N*58
2017-05-26T21:15:14 -->> $GNVTG,0.00,T,,M,0.00,N,0.00,K,N*2C
2017-05-26T21:15:15 -->> $GNGGA,235950.800,,,,,0,0,,,M,,M,,*56
2017-05-26T21:15:15 -->> $GPGSA,A,1,,,,,,,,,,,,,,,*1E
2017-05-26T21:15:15 -->> $GLGSA,A,1,,,,,,,,,,,,,,,*02
2017-05-26T21:15:15 -->> $GPGSV,1,1,04,09,,,32,25,,,29,05,,,23,06,,,20*79
2017-05-26T21:15:15 -->> $GLGSV,1,1,00*65
2017-05-26T21:15:15 -->> $GNRMC,235950.800,V,,,,,0.00,0.00,050180,,,N*5F
2017-05-26T21:15:15 -->> $GNVTG,0.00,T,,M,0.00,N,0.00,K,N*2C
2017-05-26T21:15:16 -->> $GNGGA,235951.800,,,,,0,0,,,M,,M,,*57
2017-05-26T21:15:16 -->> $GPGSA,A,1,,,,,,,,,,,,,,,*1E
2017-05-26T21:15:16 -->> $GLGSA,A,1,,,,,,,,,,,,,,,*02
2017-05-26T21:15:16 -->> $GPGSV,2,1,05,09,,,32,25,,,30,05,,,23,06,,,32*70
2017-05-26T21:15:16 -->> $GPGSV,2,2,05,19,,,31*76
2017-05-26T21:15:16 -->> $GLGSV,1,1,00*65
2017-05-26T21:15:16 -->> $GNRMC,235951.800,V,,,,,0.00,0.00,050180,,,N*5E
2017-05-26T21:15:16 -->> $GNVTG,0.00,T,,M,0.00,N,0.00,K,N*2C
2017-05-26T21:15:17 -->> $GNGGA,235952.800,,,,,0,0,,,M,,M,,*54
2017-05-26T21:15:17 -->> $GPGSA,A,1,,,,,,,,,,,,,,,*1E
2017-05-26T21:15:17 -->> $GLGSA,A,1,,,,,,,,,,,,,,,*02
2017-05-26T21:15:17 -->> $GPGSV,2,1,05,09,,,31,25,,,29,05,,,28,06,,,31*73
2017-05-26T21:15:17 -->> $GPGSV,2,2,05,19,,,29*7F
2017-05-26T21:15:17 -->> $GLGSV,1,1,00*65
2017-05-26T21:15:17 -->> $GNRMC,235952.800,V,,,,,0.00,0.00,050180,,,N*5D
2017-05-26T21:15:17 -->> $GNVTG,0.00,T,,M,0.00,N,0.00,K,N*2C
2017-05-26T21:15:17 -->> $GNGGA,235953.249,,,,,0,0,,,M,,M,,*52
2017-05-26T21:15:17 -->> $GPGSA,A,1,,,,,,,,,,,,,,,*1E
2017-05-26T21:15:17 -->> $GLGSA,A,1,,,,,,,,,,,,,,,*02
2017-05-26T21:15:17 -->> $GPGSV,2,1,05,09,,,31,25,,,29,05,,,24,06,,,30*7E
2017-05-26T21:15:17 -->> $GPGSV,2,2,05,19,,,24*72
2017-05-26T21:15:17 -->> $GLGSV,1,1,00*65
2017-05-26T21:15:17 -->> $GNRMC,235953.249,V,,,,,0.00,0.00,050180,,,N*5B
2017-05-26T21:15:18 -->> $GNVTG,0.00,T,,M,0.00,N,0.00,K,N*2C
2017-05-26T21:15:18 -->> $GNGGA,235954.249,,,,,0,0,,,M,,M,,*55
2017-05-26T21:15:18 -->> $GPGSA,A,1,,,,,,,,,,,,,,,*1E
2017-05-26T21:15:18 -->> $GLGSA,A,1,,,,,,,,,,,,,,,*02
2017-05-26T21:15:18 -->> $GPGSV,2,1,05,09,,,30,25,,,28,05,,,25,06,,,31*7E
2017-05-26T21:15:18 -->> $GPGSV,2,2,05,19,,,26*70
2017-05-26T21:15:18 -->> $GLGSV,1,1,00*65
2017-05-26T21:15:18 -->> $GNRMC,235954.249,V,,,,,0.00,0.00,050180,,,N*5C
2017-05-26T21:15:19 -->> $GNVTG,0.00,T,,M,0.00,N,0.00,K,N*2C
2017-05-26T21:15:19 -->> $GNGGA,131520.090,,,,,0,0,,,M,,M,,*5B
2017-05-26T21:15:19 -->> $GPGSA,A,1,,,,,,,,,,,,,,,*1E
2017-05-26T21:15:19 -->> $GLGSA,A,1,,,,,,,,,,,,,,,*02
2017-05-26T21:15:19 -->> $GPGSV,2,1,05,09,,,30,25,,,28,05,,,25,06,,,32*7D
2017-05-26T21:15:19 -->> $GPGSV,2,2,05,19,,,24*72
2017-05-26T21:15:19 -->> $GLGSV,1,1,00*65
2017-05-26T21:15:19 -->> $GNRMC,131520.090,V,,,,,0.00,0.00,110180,,,N*57
2017-05-26T21:15:20 -->> $GNVTG,0.00,T,,M,0.00,N,0.00,K,N*2C
2017-05-26T21:15:20 -->> $GNGGA,131521.090,,,,,0,0,,,M,,M,,*5A
2017-05-26T21:15:20 -->> $GPGSA,A,1,,,,,,,,,,,,,,,*1E
2017-05-26T21:15:20 -->> $GLGSA,A,1,,,,,,,,,,,,,,,*02
2017-05-26T21:15:20 -->> $GPGSV,2,1,06,09,,,29,25,,,29,05,,,23,06,,,31*72
2017-05-26T21:15:20 -->> $GPGSV,2,2,06,19,,,27,12,,,21*72
2017-05-26T21:15:20 -->> $GLGSV,1,1,00*65
2017-05-26T21:15:21 -->> $GNRMC,131521.090,V,,,,,0.00,0.00,110180,,,N*56
2017-05-26T21:15:21 -->> $GNVTG,0.00,T,,M,0.00,N,0.00,K,N*2C
2017-05-26T21:15:21 -->> $GNGGA,131522.090,,,,,0,0,,,M,,M,,*59
2017-05-26T21:15:21 -->> $GPGSA,A,1,,,,,,,,,,,,,,,*1E
2017-05-26T21:15:21 -->> $GLGSA,A,1,,,,,,,,,,,,,,,*02
2017-05-26T21:15:21 -->> $GPGSV,2,1,06,09,,,29,25,,,29,05,,,23,06,,,31*72
2017-05-26T21:15:21 -->> $GPGSV,2,2,06,19,,,20,12,,,27*73
2017-05-26T21:15:21 -->> $GLGSV,1,1,00*65
2017-05-26T21:15:22 -->> $GNRMC,131522.090,V,,,,,0.00,0.00,110180,,,N*55
2017-05-26T21:15:22 -->> $GNVTG,0.00,T,,M,0.00,N,0.00,K,N*2C
2017-05-26T21:15:22 -->> $GNGGA,131523.090,,,,,0,0,,,M,,M,,*58
2017-05-26T21:15:22 -->> $GPGSA,A,1,,,,,,,,,,,,,,,*1E
2017-05-26T21:15:22 -->> $GLGSA,A,1,,,,,,,,,,,,,,,*02
2017-05-26T21:15:22 -->> $GPGSV,2,1,06,09,,,29,25,,,29,05,,,23,06,,,31*72
2017-05-26T21:15:22 -->> $GPGSV,2,2,06,19,,,21,12,,,30*74
2017-05-26T21:15:22 -->> $GLGSV,1,1,00*65
2017-05-26T21:15:23 -->> $GNRMC,131523.090,V,,,,,0.00,0.00,110180,,,N*54
2017-05-26T21:15:23 -->> $GNVTG,0.00,T,,M,0.00,N,0.00,K,N*2C
2017-05-26T21:15:23 -->> $GNGGA,131524.088,,,,,0,0,,,M,,M,,*56
2017-05-26T21:15:23 -->> $GPGSA,A,1,,,,,,,,,,,,,,,*1E
2017-05-26T21:15:23 -->> $GLGSA,A,1,,,,,,,,,,,,,,,*02
2017-05-26T21:15:23 -->> $GPGSV,2,1,06,09,,,29,25,,,29,05,,,23,06,,,31*72
2017-05-26T21:15:23 -->> $GPGSV,2,2,06,19,,,23,12,,,26*71
2017-05-26T21:15:23 -->> $GLGSV,1,1,00*65
2017-05-26T21:15:24 -->> $GNRMC,131524.088,V,,,,,0.00,0.00,110180,,,N*5A
2017-05-26T21:15:24 -->> $GNVTG,0.00,T,,M,0.00,N,0.00,K,N*2C
2017-05-26T21:15:24 -->> $GNGGA,131525.088,,,,,0,0,,,M,,M,,*57
2017-05-26T21:15:24 -->> $GPGSA,A,1,,,,,,,,,,,,,,,*1E
2017-05-26T21:15:24 -->> $GLGSA,A,1,,,,,,,,,,,,,,,*02
2017-05-26T21:15:24 -->> $GPGSV,2,1,06,09,,,29,25,,,29,05,,,24,06,,,31*75
2017-05-26T21:15:24 -->> $GPGSV,2,2,06,19,,,23,12,,,31*77
2017-05-26T21:15:24 -->> $GLGSV,1,1,00*65
2017-05-26T21:15:25 -->> $GNRMC,131525.088,V,,,,,0.00,0.00,110180,,,N*5B
2017-05-26T21:15:25 -->> $GNVTG,0.00,T,,M,0.00,N,0.00,K,N*2C
2017-05-26T21:15:25 -->> $GNGGA,131526.088,,,,,0,0,,,M,,M,,*54
2017-05-26T21:15:25 -->> $GPGSA,A,1,,,,,,,,,,,,,,,*1E
2017-05-26T21:15:25 -->> $GLGSA,A,1,,,,,,,,,,,,,,,*02
2017-05-26T21:15:25 -->> $GPGSV,2,1,06,09,,,29,25,,,29,05,,,24,06,,,31*75
2017-05-26T21:15:25 -->> $GPGSV,2,2,06,19,,,23,12,,,30*76
2017-05-26T21:15:25 -->> $GLGSV,1,1,00*65
2017-05-26T21:15:26 -->> $GNRMC,131526.088,V,,,,,0.00,0.00,110180,,,N*58
2017-05-26T21:15:26 -->> $GNVTG,0.00,T,,M,0.00,N,0.00,K,N*2C
2017-05-26T21:15:26 -->> $GNGGA,131527.088,,,,,0,0,,,M,,M,,*55
2017-05-26T21:15:26 -->> $GPGSA,A,1,,,,,,,,,,,,,,,*1E
2017-05-26T21:15:26 -->> $GLGSA,A,1,,,,,,,,,,,,,,,*02
2017-05-26T21:15:26 -->> $GPGSV,2,1,07,09,,,29,25,,,29,05,,,24,06,,,31*74
2017-05-26T21:15:26 -->> $GPGSV,2,2,07,19,,,23,12,,,30,02,,,26*71
2017-05-26T21:15:26 -->> $GLGSV,1,1,00*65
2017-05-26T21:15:27 -->> $GNRMC,131527.088,V,,,,,0.00,0.00,110180,,,N*59
2017-05-26T21:15:27 -->> $GNVTG,0.00,T,,M,0.00,N,0.00,K,N*2C
2017-05-26T21:15:27 -->> $GNGGA,131528.088,,,,,0,0,,,M,,M,,*5A
2017-05-26T21:15:27 -->> $GPGSA,A,1,,,,,,,,,,,,,,,*1E
2017-05-26T21:15:27 -->> $GLGSA,A,1,,,,,,,,,,,,,,,*02
2017-05-26T21:15:27 -->> $GPGSV,2,1,07,09,,,28,25,,,29,05,,,23,06,,,31*72
2017-05-26T21:15:27 -->> $GPGSV,2,2,07,19,,,25,12,,,30,02,,,30*70
2017-05-26T21:15:27 -->> $GLGSV,1,1,00*65
2017-05-26T21:15:28 -->> $GNRMC,131528.088,V,,,,,0.00,0.00,110180,,,N*56
2017-05-26T21:15:28 -->> $GNVTG,0.00,T,,M,0.00,N,0.00,K,N*2C
2017-05-26T21:15:28 -->> $GNGGA,131529.088,,,,,0,0,,,M,,M,,*5B
2017-05-26T21:15:28 -->> $GPGSA,A,1,,,,,,,,,,,,,,,*1E
2017-05-26T21:15:28 -->> $GLGSA,A,1,,,,,,,,,,,,,,,*02
2017-05-26T21:15:28 -->> $GPGSV,2,1,07,09,,,28,25,,,30,05,,,23,06,,,31*7A
2017-05-26T21:15:28 -->> $GPGSV,2,2,07,19,,,25,12,,,29,02,,,32*7A
2017-05-26T21:15:28 -->> $GLGSV,1,1,00*65
2017-05-26T21:15:29 -->> $GNRMC,131529.088,V,,,,,0.00,0.00,110180,,,N*57
2017-05-26T21:15:29 -->> $GNVTG,0.00,T,,M,0.00,N,0.00,K,N*2C
2017-05-26T21:15:29 -->> $GNGGA,131530.081,,,,,0,0,,,M,,M,,*5A
2017-05-26T21:15:29 -->> $GPGSA,A,1,,,,,,,,,,,,,,,*1E
2017-05-26T21:15:29 -->> $GLGSA,A,1,,,,,,,,,,,,,,,*02
2017-05-26T21:15:29 -->> $GPGSV,2,1,07,09,,,28,25,,,30,05,,,24,06,,,32*7E
2017-05-26T21:15:29 -->> $GPGSV,2,2,07,19,,,25,12,,,28,02,,,33*7A
2017-05-26T21:15:29 -->> $GLGSV,1,1,00*65
2017-05-26T21:15:30 -->> $GNRMC,131530.081,V,,,,,0.00,0.00,260517,,,N*58
2017-05-26T21:15:30 -->> $GNVTG,0.00,T,,M,0.00,N,0.00,K,N*2C
2017-05-26T21:15:30 -->> $GNGGA,131531.081,,,,,0,0,,,M,,M,,*5B
2017-05-26T21:15:30 -->> $GPGSA,A,1,,,,,,,,,,,,,,,*1E
2017-05-26T21:15:30 -->> $GLGSA,A,1,,,,,,,,,,,,,,,*02
2017-05-26T21:15:30 -->> $GPGSV,2,1,07,09,,,27,25,,,31,05,,,24,06,,,32*70
2017-05-26T21:15:30 -->> $GPGSV,2,2,07,19,,,25,12,,,28,02,,,31*78
2017-05-26T21:15:30 -->> $GLGSV,1,1,00*65
2017-05-26T21:15:31 -->> $GNRMC,131531.081,V,,,,,0.00,0.00,260517,,,N*59
2017-05-26T21:15:31 -->> $GNVTG,0.00,T,,M,0.00,N,0.00,K,N*2C
2017-05-26T21:15:31 -->> $GNGGA,131532.081,,,,,0,0,,,M,,M,,*58
2017-05-26T21:15:31 -->> $GPGSA,A,1,,,,,,,,,,,,,,,*1E
2017-05-26T21:15:31 -->> $GLGSA,A,1,,,,,,,,,,,,,,,*02
2017-05-26T21:15:31 -->> $GPGSV,2,1,07,09,,,28,25,,,31,05,,,24,06,,,32*7F
2017-05-26T21:15:31 -->> $GPGSV,2,2,07,19,,,25,12,,,27,02,,,31*77
2017-05-26T21:15:31 -->> $GLGSV,1,1,00*65
2017-05-26T21:15:32 -->> $GNRMC,131532.081,V,,,,,0.00,0.00,260517,,,N*5A
2017-05-26T21:15:32 -->> $GNVTG,0.00,T,,M,0.00,N,0.00,K,N*2C
2017-05-26T21:15:32 -->> $GNGGA,131533.081,,,,,0,0,,,M,,M,,*59
2017-05-26T21:15:32 -->> $GPGSA,A,1,,,,,,,,,,,,,,,*1E
2017-05-26T21:15:32 -->> $GLGSA,A,1,,,,,,,,,,,,,,,*02
2017-05-26T21:15:32 -->> $GPGSV,2,1,07,09,,,28,25,,,30,05,,,23,06,,,32*79
2017-05-26T21:15:32 -->> $GPGSV,2,2,07,19,,,25,12,,,27,02,,,31*77
2017-05-26T21:15:32 -->> $GLGSV,1,1,00*65
2017-05-26T21:15:33 -->> $GNRMC,131533.081,V,,,,,0.00,0.00,260517,,,N*5B
2017-05-26T21:15:33 -->> $GNVTG,0.00,T,,M,0.00,N,0.00,K,N*2C
2017-05-26T21:15:33 -->> $GNGGA,131534.081,,,,,0,0,,,M,,M,,*5E
2017-05-26T21:15:33 -->> $GPGSA,A,1,,,,,,,,,,,,,,,*1E
2017-05-26T21:15:33 -->> $GLGSA,A,1,,,,,,,,,,,,,,,*02
2017-05-26T21:15:33 -->> $GPGSV,2,1,07,09,,,28,25,,,29,05,,,21,06,,,32*73
2017-05-26T21:15:33 -->> $GPGSV,2,2,07,19,,,26,12,,,27,02,,,31*74
2017-05-26T21:15:33 -->> $GLGSV,1,1,00*65
2017-05-26T21:15:34 -->> $GNRMC,131534.081,V,,,,,0.00,0.00,260517,,,N*5C
2017-05-26T21:15:34 -->> $GNVTG,0.00,T,,M,0.00,N,0.00,K,N*2C
2017-05-26T21:15:34 -->> $GNGGA,131535.081,,,,,0,0,,,M,,M,,*5F
2017-05-26T21:15:34 -->> $GPGSA,A,1,,,,,,,,,,,,,,,*1E
2017-05-26T21:15:34 -->> $GLGSA,A,1,,,,,,,,,,,,,,,*02
2017-05-26T21:15:34 -->> $GPGSV,2,1,07,09,,,29,25,,,29,05,,,21,06,,,32*72
2017-05-26T21:15:34 -->> $GPGSV,2,2,07,19,,,26,12,,,25,02,,,31*76
2017-05-26T21:15:34 -->> $GLGSV,1,1,00*65
2017-05-26T21:15:35 -->> $GNRMC,131535.081,V,,,,,0.00,0.00,260517,,,N*5D
2017-05-26T21:15:35 -->> $GNVTG,0.00,T,,M,0.00,N,0.00,K,N*2C
2017-05-26T21:15:35 -->> $GNGGA,131536.081,,,,,0,0,,,M,,M,,*5C
2017-05-26T21:15:35 -->> $GPGSA,A,1,,,,,,,,,,,,,,,*1E
2017-05-26T21:15:35 -->> $GLGSA,A,1,,,,,,,,,,,,,,,*02
2017-05-26T21:15:35 -->> $GPGSV,2,1,07,09,,,30,25,,,28,05,,,20,06,,,31*79
2017-05-26T21:15:35 -->> $GPGSV,2,2,07,19,,,28,12,,,27,02,,,31*7A
2017-05-26T21:15:35 -->> $GLGSV,1,1,00*65
2017-05-26T21:15:36 -->> $GNRMC,131536.081,V,,,,,0.00,0.00,260517,,,N*5E
2017-05-26T21:15:36 -->> $GNVTG,0.00,T,,M,0.00,N,0.00,K,N*2C
2017-05-26T21:15:36 -->> $GNGGA,131537.081,,,,,0,0,,,M,,M,,*5D
2017-05-26T21:15:36 -->> $GPGSA,A,1,,,,,,,,,,,,,,,*1E
2017-05-26T21:15:36 -->> $GLGSA,A,1,,,,,,,,,,,,,,,*02
2017-05-26T21:15:36 -->> $GPGSV,2,1,07,09,,,30,25,,,29,05,,,21,06,,,31*79
2017-05-26T21:15:36 -->> $GPGSV,2,2,07,19,,,28,12,,,28,02,,,30*74
2017-05-26T21:15:36 -->> $GLGSV,1,1,00*65
2017-05-26T21:15:37 -->> $GNRMC,131537.081,V,,,,,0.00,0.00,260517,,,N*5F
2017-05-26T21:15:37 -->> $GNVTG,0.00,T,,M,0.00,N,0.00,K,N*2C
2017-05-26T21:15:37 -->> $GNGGA,131538.081,,,,,0,0,,,M,,M,,*52
2017-05-26T21:15:37 -->> $GPGSA,A,1,,,,,,,,,,,,,,,*1E
2017-05-26T21:15:37 -->> $GLGSA,A,1,,,,,,,,,,,,,,,*02
2017-05-26T21:15:37 -->> $GPGSV,2,1,07,09,,,30,25,,,30,05,,,24,06,,,31*74
2017-05-26T21:15:37 -->> $GPGSV,2,2,07,19,,,28,12,,,28,02,,,31*75
2017-05-26T21:15:37 -->> $GLGSV,1,1,00*65
2017-05-26T21:15:38 -->> $GNRMC,131538.081,V,,,,,0.00,0.00,260517,,,N*50
2017-05-26T21:15:38 -->> $GNVTG,0.00,T,,M,0.00,N,0.00,K,N*2C
2017-05-26T21:15:38 -->> $GNGGA,131539.081,,,,,0,0,,,M,,M,,*53
2017-05-26T21:15:38 -->> $GPGSA,A,1,,,,,,,,,,,,,,,*1E
2017-05-26T21:15:38 -->> $GLGSA,A,1,,,,,,,,,,,,,,,*02
2017-05-26T21:15:38 -->> $GPGSV,2,1,07,09,,,29,25,,,30,05,,,18,06,,,31*73
2017-05-26T21:15:38 -->> $GPGSV,2,2,07,19,,,28,12,,,27,02,,,31*7A
2017-05-26T21:15:38 -->> $GLGSV,1,1,00*65
2017-05-26T21:15:39 -->> $GNRMC,131539.081,V,,,,,0.00,0.00,260517,,,N*51
2017-05-26T21:15:39 -->> $GNVTG,0.00,T,,M,0.00,N,0.00,K,N*2C
2017-05-26T21:15:39 -->> $GNGGA,131540.081,,,,,0,0,,,M,,M,,*5D
2017-05-26T21:15:39 -->> $GPGSA,A,1,,,,,,,,,,,,,,,*1E
2017-05-26T21:15:39 -->> $GLGSA,A,1,,,,,,,,,,,,,,,*02
2017-05-26T21:15:39 -->> $GPGSV,2,1,07,09,,,29,25,,,30,05,,,28,06,,,31*70
2017-05-26T21:15:39 -->> $GPGSV,2,2,07,19,,,28,12,,,29,02,,,32*77
2017-05-26T21:15:39 -->> $GLGSV,1,1,00*65
2017-05-26T21:15:40 -->> $GNRMC,131540.081,V,,,,,0.00,0.00,260517,,,N*5F
2017-05-26T21:15:40 -->> $GNVTG,0.00,T,,M,0.00,N,0.00,K,N*2C
2017-05-26T21:15:40 -->> $GNGGA,131541.081,,,,,0,0,,,M,,M,,*5C
2017-05-26T21:15:40 -->> $GPGSA,A,1,,,,,,,,,,,,,,,*1E
2017-05-26T21:15:40 -->> $GLGSA,A,1,,,,,,,,,,,,,,,*02
2017-05-26T21:15:40 -->> $GPGSV,2,1,07,09,,,28,25,,,30,05,,,27,06,,,31*7E
2017-05-26T21:15:40 -->> $GPGSV,2,2,07,19,,,28,12,,,29,02,,,32*77
2017-05-26T21:15:40 -->> $GLGSV,1,1,00*65
2017-05-26T21:15:41 -->> $GNRMC,131541.081,V,,,,,0.00,0.00,260517,,,N*5E
2017-05-26T21:15:41 -->> $GNVTG,0.00,T,,M,0.00,N,0.00,K,N*2C
2017-05-26T21:15:41 -->> $GNGGA,131542.081,,,,,0,0,,,M,,M,,*5F
2017-05-26T21:15:41 -->> $GPGSA,A,1,,,,,,,,,,,,,,,*1E
2017-05-26T21:15:41 -->> $GLGSA,A,1,,,,,,,,,,,,,,,*02
2017-05-26T21:15:41 -->> $GPGSV,2,1,07,09,,,28,25,,,30,05,,,25,06,,,32*7F
2017-05-26T21:15:41 -->> $GPGSV,2,2,07,19,,,27,12,,,30,02,,,32*70
2017-05-26T21:15:41 -->> $GLGSV,1,1,00*65
2017-05-26T21:15:42 -->> $GNRMC,131542.081,V,,,,,0.00,0.00,260517,,,N*5D
2017-05-26T21:15:42 -->> $GNVTG,0.00,T,,M,0.00,N,0.00,K,N*2C
2017-05-26T21:15:42 -->> $GNGGA,131543.081,,,,,0,0,,,M,,M,,*5E
2017-05-26T21:15:42 -->> $GPGSA,A,1,,,,,,,,,,,,,,,*1E
2017-05-26T21:15:42 -->> $GLGSA,A,1,,,,,,,,,,,,,,,*02
2017-05-26T21:15:42 -->> $GPGSV,2,1,07,09,,,28,25,,,30,05,,,26,06,,,32*7C
2017-05-26T21:15:42 -->> $GPGSV,2,2,07,19,,,20,12,,,29,02,,,32*7F
2017-05-26T21:15:42 -->> $GLGSV,1,1,00*65
2017-05-26T21:15:43 -->> $GNRMC,131543.081,V,,,,,0.00,0.00,260517,,,N*5C
2017-05-26T21:15:43 -->> $GNVTG,0.00,T,,M,0.00,N,0.00,K,N*2C
2017-05-26T21:15:43 -->> $GNGGA,131544.081,,,,,0,0,,,M,,M,,*59
2017-05-26T21:15:43 -->> $GPGSA,A,1,,,,,,,,,,,,,,,*1E
2017-05-26T21:15:43 -->> $GLGSA,A,1,,,,,,,,,,,,,,,*02
2017-05-26T21:15:43 -->> $GPGSV,2,1,07,09,,,25,25,,,30,05,,,24,06,,,32*73
2017-05-26T21:15:43 -->> $GPGSV,2,2,07,19,,,21,12,,,27,02,,,31*73
2017-05-26T21:15:43 -->> $GLGSV,1,1,00*65
2017-05-26T21:15:44 -->> $GNRMC,131544.081,V,,,,,0.00,0.00,260517,,,N*5B
2017-05-26T21:15:44 -->> $GNVTG,0.00,T,,M,0.00,N,0.00,K,N*2C
2017-05-26T21:15:44 -->> $GNGGA,131545.081,,,,,0,0,,,M,,M,,*58
2017-05-26T21:15:44 -->> $GPGSA,A,1,,,,,,,,,,,,,,,*1E
2017-05-26T21:15:44 -->> $GLGSA,A,1,,,,,,,,,,,,,,,*02
2017-05-26T21:15:44 -->> $GPGSV,2,1,07,09,,,26,25,,,30,05,,,24,06,,,32*70
2017-05-26T21:15:44 -->> $GPGSV,2,2,07,19,,,23,12,,,28,02,,,32*7D
2017-05-26T21:15:44 -->> $GLGSV,1,1,00*65
2017-05-26T21:15:45 -->> $GNRMC,131545.081,V,,,,,0.00,0.00,260517,,,N*5A
2017-05-26T21:15:45 -->> $GNVTG,0.00,T,,M,0.00,N,0.00,K,N*2C
2017-05-26T21:15:45 -->> $GNGGA,131546.081,,,,,0,0,,,M,,M,,*5B
2017-05-26T21:15:45 -->> $GPGSA,A,1,,,,,,,,,,,,,,,*1E
2017-05-26T21:15:45 -->> $GLGSA,A,1,,,,,,,,,,,,,,,*02
2017-05-26T21:15:45 -->> $GPGSV,2,1,08,09,,,27,25,,,30,05,,,24,06,,,31*7D
2017-05-26T21:15:45 -->> $GPGSV,2,2,08,19,,,24,12,,,28,02,,,32,17,,,34*74
2017-05-26T21:15:45 -->> $GLGSV,1,1,00*65
2017-05-26T21:15:46 -->> $GNRMC,131546.081,V,,,,,0.00,0.00,260517,,,N*59
2017-05-26T21:15:46 -->> $GNVTG,0.00,T,,M,0.00,N,0.00,K,N*2C
2017-05-26T21:15:46 -->> $GNGGA,131547.081,,,,,0,0,,,M,,M,,*5A
2017-05-26T21:15:46 -->> $GPGSA,A,1,,,,,,,,,,,,,,,*1E
2017-05-26T21:15:46 -->> $GLGSA,A,1,,,,,,,,,,,,,,,*02
2017-05-26T21:15:46 -->> $GPGSV,2,1,08,09,,,27,25,,,30,05,,,20,06,,,31*79
2017-05-26T21:15:46 -->> $GPGSV,2,2,08,19,,,23,12,,,28,02,,,31,17,,,30*74
2017-05-26T21:15:46 -->> $GLGSV,1,1,00*65
2017-05-26T21:15:47 -->> $GNRMC,131547.081,V,,,,,0.00,0.00,260517,,,N*58
2017-05-26T21:15:47 -->> $GNVTG,0.00,T,,M,0.00,N,0.00,K,N*2C
2017-05-26T21:15:47 -->> $GNGGA,131548.077,,,,,0,0,,,M,,M,,*5C
2017-05-26T21:15:47 -->> $GPGSA,A,1,,,,,,,,,,,,,,,*1E
2017-05-26T21:15:47 -->> $GLGSA,A,1,,,,,,,,,,,,,,,*02
2017-05-26T21:15:47 -->> $GPGSV,2,1,08,09,,,28,25,,,30,05,,,22,06,,,31*74
2017-05-26T21:15:47 -->> $GPGSV,2,2,08,19,,,25,12,,,30,02,,,31,17,,,32*79
2017-05-26T21:15:48 -->> $GLGSV,1,1,00*65
2017-05-26T21:15:48 -->> $GNRMC,131548.077,V,,,,,0.00,0.00,260517,,,N*5E
2017-05-26T21:15:48 -->> $GNVTG,0.00,T,,M,0.00,N,0.00,K,N*2C
2017-05-26T21:15:48 -->> $GNGGA,131549.080,,,,,0,0,,,M,,M,,*55
2017-05-26T21:15:48 -->> $GPGSA,A,1,,,,,,,,,,,,,,,*1E
2017-05-26T21:15:48 -->> $GLGSA,A,1,,,,,,,,,,,,,,,*02
2017-05-26T21:15:48 -->> $GPGSV,2,1,08,09,,,28,25,,,31,05,,,23,06,,,32*77
2017-05-26T21:15:48 -->> $GPGSV,2,2,08,19,,,26,12,,,31,02,,,31,17,,,32*7B
2017-05-26T21:15:48 -->> $GLGSV,1,1,00*65
2017-05-26T21:15:49 -->> $GNRMC,131549.080,V,,,,,0.00,0.00,260517,,,N*57
2017-05-26T21:15:49 -->> $GNVTG,0.00,T,,M,0.00,N,0.00,K,N*2C
2017-05-26T21:15:49 -->> $GNGGA,131550.082,,,,,0,0,,,M,,M,,*5F
2017-05-26T21:15:49 -->> $GPGSA,A,1,,,,,,,,,,,,,,,*1E
2017-05-26T21:15:49 -->> $GLGSA,A,1,,,,,,,,,,,,,,,*02
2017-05-26T21:15:49 -->> $GPGSV,2,1,08,09,,,27,25,,,31,05,,,24,06,,,32*7F
2017-05-26T21:15:49 -->> $GPGSV,2,2,08,19,,,26,12,,,31,02,,,31,17,,,33*7A
2017-05-26T21:15:49 -->> $GLGSV,1,1,00*65
2017-05-26T21:15:50 -->> $GNRMC,131550.082,V,,,,,0.00,0.00,260517,,,N*5D
2017-05-26T21:15:50 -->> $GNVTG,0.00,T,,M,0.00,N,0.00,K,N*2C
2017-05-26T21:15:50 -->> $GNGGA,131551.082,,,,,0,0,,,M,,M,,*5E
2017-05-26T21:15:50 -->> $GPGSA,A,1,,,,,,,,,,,,,,,*1E
2017-05-26T21:15:50 -->> $GLGSA,A,1,,,,,,,,,,,,,,,*02
2017-05-26T21:15:50 -->> $GPGSV,2,1,08,09,,,28,25,,,31,05,,,27,06,,,32*73
2017-05-26T21:15:50 -->> $GPGSV,2,2,08,19,,,27,12,,,31,02,,,32,17,,,33*78
2017-05-26T21:15:50 -->> $GLGSV,1,1,00*65
2017-05-26T21:15:51 -->> $GNRMC,131551.082,V,,,,,0.00,0.00,260517,,,N*5C
2017-05-26T21:15:51 -->> $GNVTG,0.00,T,,M,0.00,N,0.00,K,N*2C
2017-05-26T21:15:51 -->> $GNGGA,131552.082,,,,,0,0,,,M,,M,,*5D
2017-05-26T21:15:51 -->> $GPGSA,A,1,,,,,,,,,,,,,,,*1E
2017-05-26T21:15:51 -->> $GLGSA,A,1,,,,,,,,,,,,,,,*02
2017-05-26T21:15:51 -->> $GPGSV,2,1,08,09,,,28,25,,,31,05,,,20,06,,,31*77
2017-05-26T21:15:51 -->> $GPGSV,2,2,08,19,,,27,12,,,32,02,,,32,17,,,32*7A
2017-05-26T21:15:51 -->> $GLGSV,1,1,00*65
2017-05-26T21:15:52 -->> $GNRMC,131552.082,V,,,,,0.00,0.00,260517,,,N*5F
2017-05-26T21:15:52 -->> $GNVTG,0.00,T,,M,0.00,N,0.00,K,N*2C
2017-05-26T21:15:52 -->> $GNGGA,131553.083,,,,,0,0,,,M,,M,,*5D
2017-05-26T21:15:52 -->> $GPGSA,A,1,,,,,,,,,,,,,,,*1E
2017-05-26T21:15:52 -->> $GLGSA,A,1,,,,,,,,,,,,,,,*02
2017-05-26T21:15:52 -->> $GPGSV,2,1,08,09,,,29,25,,,31,05,,,22,06,,,31*74
2017-05-26T21:15:52 -->> $GPGSV,2,2,08,19,,,28,12,,,32,02,,,32,17,,,32*75
2017-05-26T21:15:52 -->> $GLGSV,1,1,00*65
2017-05-26T21:15:53 -->> $GNRMC,131553.083,V,,,,,92.02,271.81,260517,,,N*6B
2017-05-26T21:15:53 -->> $GNVTG,271.81,T,,M,92.02,N,170.51,K,N*1A
2017-05-26T21:15:53 -->> $GNGGA,131554.083,,,,,0,0,,,M,,M,,*5A
2017-05-26T21:15:53 -->> $GPGSA,A,1,,,,,,,,,,,,,,,*1E
2017-05-26T21:15:53 -->> $GLGSA,A,1,,,,,,,,,,,,,,,*02
2017-05-26T21:15:53 -->> $GPGSV,2,1,08,09,,,29,25,,,31,05,,,24,06,,,31*72
2017-05-26T21:15:53 -->> $GPGSV,2,2,08,19,,,28,12,,,31,02,,,32,17,,,32*76
2017-05-26T21:15:53 -->> $GLGSV,1,1,00*65
2017-05-26T21:15:54 -->> $GNRMC,131554.083,V,,,,,11.02,271.85,260517,,,N*63
2017-05-26T21:15:54 -->> $GNVTG,271.85,T,,M,11.02,N,20.42,K,N*23
2017-05-26T21:15:54 -->> $GNGGA,131555.083,,,,,0,0,,,M,,M,,*5B
2017-05-26T21:15:54 -->> $GPGSA,A,1,,,,,,,,,,,,,,,*1E
2017-05-26T21:15:54 -->> $GLGSA,A,1,,,,,,,,,,,,,,,*02
2017-05-26T21:15:54 -->> $GPGSV,2,1,08,09,,,29,25,,,31,05,,,24,06,,,31*72
2017-05-26T21:15:54 -->> $GPGSV,2,2,08,19,,,28,12,,,31,02,,,32,17,,,32*76
2017-05-26T21:15:54 -->> $GLGSV,1,1,00*65
2017-05-26T21:15:55 -->> $GNRMC,131555.083,V,,,,,73.38,272.10,260517,,,N*60
2017-05-26T21:15:55 -->> $GNVTG,272.10,T,,M,73.38,N,135.97,K,N*1C
2017-05-26T21:15:55 -->> $GNGGA,131556.083,,,,,0,0,,,M,,M,,*58
2017-05-26T21:15:55 -->> $GPGSA,A,1,,,,,,,,,,,,,,,*1E
2017-05-26T21:15:55 -->> $GLGSA,A,1,,,,,,,,,,,,,,,*02
2017-05-26T21:15:55 -->> $GPGSV,2,1,08,09,,,29,25,,,31,05,,,25,06,,,31*73
2017-05-26T21:15:55 -->> $GPGSV,2,2,08,19,,,28,12,,,32,02,,,32,17,,,32*75
2017-05-26T21:15:55 -->> $GLGSV,1,1,00*65
2017-05-26T21:15:56 -->> $GNRMC,131556.083,V,,,,,8.29,272.14,260517,,,N*5B
2017-05-26T21:15:56 -->> $GNVTG,272.14,T,,M,8.29,N,15.36,K,N*1C
2017-05-26T21:15:56 -->> $GNGGA,131557.083,,,,,0,0,,,M,,M,,*59
2017-05-26T21:15:56 -->> $GPGSA,A,1,,,,,,,,,,,,,,,*1E
2017-05-26T21:15:56 -->> $GLGSA,A,1,,,,,,,,,,,,,,,*02
2017-05-26T21:15:56 -->> $GPGSV,2,1,08,09,,,29,25,,,29,05,,,26,06,,,31*79
2017-05-26T21:15:56 -->> $GPGSV,2,2,08,19,,,28,12,,,30,02,,,32,17,,,32*77
2017-05-26T21:15:56 -->> $GLGSV,1,1,00*65
2017-05-26T21:15:57 -->> $GNRMC,131557.083,V,,,,,61.16,271.85,260517,,,N*62
2017-05-26T21:15:57 -->> $GNVTG,271.85,T,,M,61.16,N,113.33,K,N*16
2017-05-26T21:15:57 -->> $GNGGA,131558.083,,,,,0,0,,,M,,M,,*56
2017-05-26T21:15:57 -->> $GPGSA,A,1,,,,,,,,,,,,,,,*1E
2017-05-26T21:15:57 -->> $GLGSA,A,1,,,,,,,,,,,,,,,*02
2017-05-26T21:15:57 -->> $GPGSV,2,1,08,09,,,29,25,,,28,05,,,24,06,,,31*7A
2017-05-26T21:15:57 -->> $GPGSV,2,2,08,19,,,28,12,,,30,02,,,32,17,,,33*76
2017-05-26T21:15:57 -->> $GLGSV,1,1,00*65
2017-05-26T21:15:58 -->> $GNRMC,131558.083,V,,,,,6.53,271.91,260517,,,N*58
2017-05-26T21:15:58 -->> $GNVTG,271.91,T,,M,6.53,N,12.11,K,N*13
2017-05-26T21:15:58 -->> $GNGGA,131559.083,,,,,0,0,,,M,,M,,*57
2017-05-26T21:15:58 -->> $GPGSA,A,1,,,,,,,,,,,,,,,*1E
2017-05-26T21:15:58 -->> $GLGSA,A,1,,,,,,,,,,,,,,,*02
2017-05-26T21:15:58 -->> $GPGSV,2,1,08,09,,,29,25,,,29,05,,,24,06,,,32*78
2017-05-26T21:15:58 -->> $GPGSV,2,2,08,19,,,19,12,,,30,02,,,32,17,,,25*73
2017-05-26T21:15:58 -->> $GLGSV,1,1,00*65
2017-05-26T21:15:59 -->> $GNRMC,131559.083,V,,,,,62.27,271.77,260517,,,N*60
2017-05-26T21:15:59 -->> $GNVTG,271.77,T,,M,62.27,N,115.38,K,N*17
2017-05-26T21:15:59 -->> $GNGGA,131600.083,,,,,0,0,,,M,,M,,*58
2017-05-26T21:15:59 -->> $GPGSA,A,1,,,,,,,,,,,,,,,*1E
2017-05-26T21:15:59 -->> $GLGSA,A,1,,,,,,,,,,,,,,,*02
2017-05-26T21:15:59 -->> $GPGSV,3,1,10,02,57,337,30,12,46,260,29,06,40,052,32,42,37,124,*71
2017-05-26T21:16:00 -->> $GPGSV,3,2,10,25,23,306,27,09,22,061,30,17,22,127,35,193,,,*7D
2017-05-26T21:16:00 -->> $GPGSV,3,3,10,05,,,25,19,,,34*75
2017-05-26T21:16:00 -->> $GLGSV,1,1,00*65
2017-05-26T21:16:00 -->> $GNRMC,131600.083,V,,,,,0.03,271.77,260517,,,N*5D
2017-05-26T21:16:00 -->> $GNVTG,271.77,T,,M,0.03,N,0.05,K,N*2E
2017-05-26T21:16:00 -->> $GNGGA,131601.083,3030.9472,N,10404.2887,E,1,5,2.12,565.3,M,-31.9,M,,*66
2017-05-26T21:16:00 -->> $GPGSA,A,3,09,25,06,12,02,,,,,,,,2.31,2.12,0.93*00
2017-05-26T21:16:00 -->> $GLGSA,A,3,,,,,,,,,,,,,2.31,2.12,0.93*15
2017-05-26T21:16:01 -->> $GPGSV,3,1,10,02,57,337,29,12,46,260,29,06,40,052,32,42,37,124,*79
2017-05-26T21:16:01 -->> $GPGSV,3,2,10,25,23,306,17,09,22,061,30,17,22,127,35,193,,,*7E
2017-05-26T21:16:01 -->> $GPGSV,3,3,10,05,,,25,19,,,33*72
2017-05-26T21:16:01 -->> $GLGSV,1,1,00*65
2017-05-26T21:16:01 -->> $GNRMC,131601.083,A,3030.9472,N,10404.2887,E,0.05,271.77,260517,,,A*75
2017-05-26T21:16:01 -->> $GNVTG,271.77,T,,M,0.05,N,0.10,K,A*23
2017-05-26T21:16:02 -->> $GNGGA,131603.000,3030.9468,N,10404.2893,E,1,5,2.12,568.5,M,-31.9,M,,*6A
2017-05-26T21:16:02 -->> $GPGSA,A,3,09,25,06,12,02,,,,,,,,2.31,2.12,0.93*00
2017-05-26T21:16:02 -->> $GLGSA,A,3,,,,,,,,,,,,,2.31,2.12,0.93*15
2017-05-26T21:16:02 -->> $GPGSV,3,1,10,02,57,337,28,12,46,260,27,06,40,052,32,42,37,124,*76
2017-05-26T21:16:02 -->> $GPGSV,3,2,10,25,23,306,17,09,22,061,31,17,22,127,36,193,,,*7C
2017-05-26T21:16:03 -->> $GPGSV,3,3,10,05,,,26,19,,,32*70
2017-05-26T21:16:03 -->> $GLGSV,1,1,00*65
2017-05-26T21:16:03 -->> $GNRMC,131603.000,A,3030.9468,N,10404.2893,E,0.04,271.77,260517,,,A*73
2017-05-26T21:16:03 -->> $GNVTG,271.77,T,,M,0.04,N,0.07,K,A*24
2017-05-26T21:16:03 -->> $GNGGA,131604.000,3030.9465,N,10404.2893,E,1,5,2.12,570.0,M,-31.9,M,,*6C
2017-05-26T21:16:03 -->> $GPGSA,A,3,09,25,06,12,02,,,,,,,,2.31,2.12,0.93*00
2017-05-26T21:16:03 -->> $GLGSA,A,3,,,,,,,,,,,,,2.31,2.12,0.93*15
2017-05-26T21:16:03 -->> $GPGSV,3,1,10,02,57,337,28,12,46,260,26,06,40,052,32,42,37,124,*77
2017-05-26T21:16:04 -->> $GPGSV,3,2,10,25,23,306,18,09,22,061,32,17,22,127,35,193,,,*73
2017-05-26T21:16:04 -->> $GPGSV,3,3,10,05,,,26,19,,,32*70
2017-05-26T21:16:04 -->> $GLGSV,1,1,00*65
2017-05-26T21:16:04 -->> $GNRMC,131604.000,A,3030.9465,N,10404.2893,E,0.05,271.77,260517,,,A*78
2017-05-26T21:16:04 -->> $GNVTG,271.77,T,,M,0.05,N,0.09,K,A*2B
2017-05-26T21:16:04 -->> $GNGGA,131605.000,3030.9468,N,10404.2892,E,1,5,2.12,571.3,M,-31.9,M,,*63
2017-05-26T21:16:04 -->> $GPGSA,A,3,09,25,06,12,02,,,,,,,,2.31,2.12,0.93*00
2017-05-26T21:16:04 -->> $GLGSA,A,3,,,,,,,,,,,,,2.31,2.12,0.93*15
2017-05-26T21:16:04 -->> $GPGSV,3,1,10,02,57,337,28,12,46,260,25,06,40,052,32,42,37,124,*74
2017-05-26T21:16:04 -->> $GPGSV,3,2,10,25,23,306,19,09,22,061,32,17,22,127,35,193,,,*72
2017-05-26T21:16:05 -->> $GPGSV,3,3,10,05,,,24,19,,,31*71
2017-05-26T21:16:05 -->> $GLGSV,1,1,00*65
2017-05-26T21:16:05 -->> $GNRMC,131605.000,A,3030.9468,N,10404.2892,E,0.00,271.77,260517,,,A*70
2017-05-26T21:16:05 -->> $GNVTG,271.77,T,,M,0.00,N,0.00,K,A*27
2017-05-26T21:16:05 -->> $GNGGA,131606.000,3030.9470,N,10404.2893,E,1,5,2.12,572.2,M,-31.9,M,,*6A
2017-05-26T21:16:05 -->> $GPGSA,A,3,09,25,06,12,02,,,,,,,,2.31,2.12,0.93*00
2017-05-26T21:16:05 -->> $GLGSA,A,3,,,,,,,,,,,,,2.31,2.12,0.93*15
2017-05-26T21:16:05 -->> $GPGSV,3,1,10,02,57,337,28,12,46,260,24,06,40,052,32,42,37,124,*75
2017-05-26T21:16:05 -->> $GPGSV,3,2,10,25,23,306,19,09,22,061,32,17,22,127,34,193,,,*73
2017-05-26T21:16:06 -->> $GPGSV,3,3,10,05,,,29,19,,,31*7C
2017-05-26T21:16:06 -->> $GLGSV,1,1,00*65
2017-05-26T21:16:06 -->> $GNRMC,131606.000,A,3030.9470,N,10404.2893,E,0.00,271.77,260517,,,A*7B
2017-05-26T21:16:06 -->> $GNVTG,271.77,T,,M,0.00,N,0.00,K,A*27
2017-05-26T21:16:06 -->> $GNGGA,131607.000,3030.9479,N,10404.2894,E,1,5,2.11,572.7,M,-31.9,M,,*63
2017-05-26T21:16:06 -->> $GPGSA,A,3,09,25,06,12,02,,,,,,,,2.31,2.11,0.93*03
2017-05-26T21:16:06 -->> $GLGSA,A,3,,,,,,,,,,,,,2.31,2.11,0.93*16
2017-05-26T21:16:06 -->> $GPGSV,3,1,10,02,57,337,29,12,46,260,23,06,40,052,32,42,37,124,*73
2017-05-26T21:16:07 -->> $GPGSV,3,2,10,25,23,306,20,09,22,061,30,17,22,127,35,193,,,*7A
2017-05-26T21:16:07 -->> $GPGSV,3,3,10,05,,,20,19,,,30*74
2017-05-26T21:16:07 -->> $GLGSV,1,1,00*65
2017-05-26T21:16:07 -->> $GNRMC,131607.000,A,3030.9479,N,10404.2894,E,0.00,271.77,260517,,,A*74
2017-05-26T21:16:07 -->> $GNVTG,271.77,T,,M,0.00,N,0.00,K,A*27
2017-05-26T21:16:07 -->> $GNGGA,131608.000,3030.9479,N,10404.2894,E,1,5,2.11,572.7,M,-31.9,M,,*6C
2017-05-26T21:16:07 -->> $GPGSA,A,3,09,25,06,12,02,,,,,,,,2.31,2.11,0.93*03
2017-05-26T21:16:07 -->> $GLGSA,A,3,,,,,,,,,,,,,2.31,2.11,0.93*16
2017-05-26T21:16:07 -->> $GPGSV,3,1,10,02,57,337,29,12,46,260,23,06,40,052,32,42,37,124,*73
2017-05-26T21:16:08 -->> $GPGSV,3,2,10,25,23,306,21,09,22,061,30,17,22,127,35,193,,,*7B
2017-05-26T21:16:08 -->> $GPGSV,3,3,10,05,,,30,19,,,30*75
2017-05-26T21:16:08 -->> $GLGSV,1,1,00*65
2017-05-26T21:16:08 -->> $GNRMC,131608.000,A,3030.9479,N,10404.2894,E,0.00,271.77,260517,,,A*7B
2017-05-26T21:16:08 -->> $GNVTG,271.77,T,,M,0.00,N,0.00,K,A*27
2017-05-26T21:16:08 -->> $GNGGA,131609.000,3030.9479,N,10404.2894,E,1,5,2.11,572.7,M,-31.9,M,,*6D
2017-05-26T21:16:08 -->> $GPGSA,A,3,09,25,06,12,02,,,,,,,,2.31,2.11,0.93*03
2017-05-26T21:16:08 -->> $GLGSA,A,3,,,,,,,,,,,,,2.31,2.11,0.93*16
2017-05-26T21:16:08 -->> $GPGSV,3,1,10,02,57,337,28,12,46,260,22,06,40,052,32,42,37,124,*73
2017-05-26T21:16:09 -->> $GPGSV,3,2,10,25,23,306,22,09,22,061,31,17,22,127,35,193,,,*79
2017-05-26T21:16:09 -->> $GPGSV,3,3,10,05,,,25,19,,,31*70
2017-05-26T21:16:09 -->> $GLGSV,1,1,00*65
2017-05-26T21:16:09 -->> $GNRMC,131609.000,A,3030.9479,N,10404.2894,E,0.00,271.77,260517,,,A*7A
2017-05-26T21:16:09 -->> $GNVTG,271.77,T,,M,0.00,N,0.00,K,A*27
2017-05-26T21:16:09 -->> $GNGGA,131610.000,3030.9479,N,10404.2894,E,1,7,1.57,572.7,M,-31.9,M,,*66
2017-05-26T21:16:09 -->> $GPGSA,A,3,09,25,06,12,02,,,,,,,,1.83,1.57,0.93*08
2017-05-26T21:16:09 -->> $GLGSA,A,3,86,71,,,,,,,,,,,1.83,1.57,0.93*15
2017-05-26T21:16:10 -->> $GPGSV,3,1,10,02,57,337,28,12,46,260,29,06,40,052,31,42,37,124,*7B
2017-05-26T21:16:10 -->> $GPGSV,3,2,10,25,23,306,36,09,22,061,30,17,22,127,24,193,,,*7D
2017-05-26T21:16:10 -->> $GPGSV,3,3,10,05,,,33,19,,,29*7E
2017-05-26T21:16:10 -->> $GLGSV,1,1,02,86,39,085,26,71,31,034,28*63
2017-05-26T21:16:10 -->> $GNRMC,131610.000,A,3030.9479,N,10404.2894,E,0.00,271.77,260517,,,A*72
2017-05-26T21:16:10 -->> $GNVTG,271.77,T,,M,0.00,N,0.00,K,A*27
2017-05-26T21:16:10 -->> $GNGGA,131611.000,3030.9479,N,10404.2894,E,1,7,1.57,572.7,M,-31.9,M,,*67
2017-05-26T21:16:10 -->> $GPGSA,A,3,09,25,06,12,02,,,,,,,,1.83,1.57,0.93*08
2017-05-26T21:16:10 -->> $GLGSA,A,3,86,71,,,,,,,,,,,1.83,1.57,0.93*15
2017-05-26T21:16:11 -->> $GPGSV,3,1,10,02,57,337,31,12,46,260,30,06,40,052,31,42,37,124,*7B
2017-05-26T21:16:11 -->> $GPGSV,3,2,10,25,23,306,36,09,22,061,29,17,22,127,25,193,,,*74
2017-05-26T21:16:11 -->> $GPGSV,3,3,10,05,,,31,19,,,22*77
2017-05-26T21:16:11 -->> $GLGSV,1,1,02,86,39,085,25,71,31,034,29*61
2017-05-26T21:16:11 -->> $GNRMC,131611.000,A,3030.9479,N,10404.2894,E,0.00,271.77,260517,,,A*73
2017-05-26T21:16:11 -->> $GNVTG,271.77,T,,M,0.00,N,0.00,K,A*27
2017-05-26T21:16:11 -->> $GNGGA,131612.000,3030.9479,N,10404.2894,E,1,7,1.57,572.7,M,-31.9,M,,*64
2017-05-26T21:16:11 -->> $GPGSA,A,3,09,25,06,12,02,,,,,,,,1.82,1.57,0.93*09
2017-05-26T21:16:11 -->> $GLGSA,A,3,86,71,,,,,,,,,,,1.82,1.57,0.93*14
2017-05-26T21:16:12 -->> $GPGSV,3,1,10,02,57,337,30,12,46,260,29,06,40,052,32,42,37,124,*71
2017-05-26T21:16:12 -->> $GPGSV,3,2,10,25,23,306,35,09,22,061,30,17,22,127,32,193,,,*79
2017-05-26T21:16:12 -->> $GPGSV,3,3,10,05,,,22,19,,,30*76
2017-05-26T21:16:12 -->> $GLGSV,1,1,02,86,39,085,27,71,31,034,29*63
2017-05-26T21:16:12 -->> $GNRMC,131612.000,A,3030.9479,N,10404.2894,E,0.00,271.77,260517,,,A*70
2017-05-26T21:16:12 -->> $GNVTG,271.77,T,,M,0.00,N,0.00,K,A*27
2017-05-26T21:16:12 -->> $GNGGA,131613.000,3030.9479,N,10404.2894,E,1,7,1.57,572.7,M,-31.9,M,,*65
2017-05-26T21:16:12 -->> $GPGSA,A,3,09,25,06,12,02,,,,,,,,1.83,1.57,0.93*08
2017-05-26T21:16:12 -->> $GLGSA,A,3,86,71,,,,,,,,,,,1.83,1.57,0.93*15
2017-05-26T21:16:13 -->> $GPGSV,3,1,10,02,57,337,30,12,46,260,20,06,40,052,33,42,37,124,*79
2017-05-26T21:16:13 -->> $GPGSV,3,2,10,25,23,306,22,09,22,061,32,17,22,127,39,193,,,*76
2017-05-26T21:16:13 -->> $GPGSV,3,3,10,05,,,22,19,,,32*74
2017-05-26T21:16:13 -->> $GLGSV,1,1,02,86,39,085,28,71,31,034,29*6C
2017-05-26T21:16:13 -->> $GNRMC,131613.000,A,3030.9479,N,10404.2894,E,0.00,271.77,260517,,,A*71
2017-05-26T21:16:13 -->> $GNVTG,271.77,T,,M,0.00,N,0.00,K,A*27
2017-05-26T21:16:13 -->> $GNGGA,131614.000,3030.9479,N,10404.2894,E,1,7,1.57,572.7,M,-31.9,M,,*62
2017-05-26T21:16:13 -->> $GPGSA,A,3,09,25,06,12,02,,,,,,,,1.82,1.57,0.93*09
2017-05-26T21:16:13 -->> $GLGSA,A,3,86,71,,,,,,,,,,,1.82,1.57,0.93*14
2017-05-26T21:16:14 -->> $GPGSV,3,1,10,02,57,337,23,12,46,260,21,06,40,052,32,42,37,124,26*7F
2017-05-26T21:16:14 -->> $GPGSV,3,2,10,25,23,306,22,09,22,061,31,17,22,127,38,193,,,*74
2017-05-26T21:16:14 -->> $GPGSV,3,3,10,05,,,32,19,,,32*75
2017-05-26T21:16:14 -->> $GLGSV,1,1,02,86,39,085,28,71,31,034,28*6D
2017-05-26T21:16:14 -->> $GNRMC,131614.000,A,3030.9479,N,10404.2894,E,0.00,271.77,260517,,,A*76
2017-05-26T21:16:14 -->> $GNVTG,271.77,T,,M,0.00,N,0.00,K,A*27
2017-05-26T21:16:14 -->> $GNGGA,131615.000,3030.9479,N,10404.2894,E,1,7,1.57,572.7,M,-31.9,M,,*63
2017-05-26T21:16:14 -->> $GPGSA,A,3,09,25,06,12,02,,,,,,,,1.82,1.57,0.93*09
2017-05-26T21:16:14 -->> $GLGSA,A,3,86,71,,,,,,,,,,,1.82,1.57,0.93*14
2017-05-26T21:16:15 -->> $GPGSV,3,1,10,02,57,337,21,12,46,260,30,06,40,052,32,42,37,124,26*7D
2017-05-26T21:16:15 -->> $GPGSV,3,2,10,25,23,306,21,09,22,061,31,17,22,127,38,193,,,*77
2017-05-26T21:16:15 -->> $GPGSV,3,3,10,05,,,33,19,,,32*74
2017-05-26T21:16:15 -->> $GLGSV,1,1,02,86,39,085,28,71,31,034,27*62
2017-05-26T21:16:15 -->> $GNRMC,131615.000,A,3030.9479,N,10404.2894,E,0.00,271.77,260517,,,A*77
2017-05-26T21:16:15 -->> $GNVTG,271.77,T,,M,0.00,N,0.00,K,A*27
2017-05-26T21:16:15 -->> $GNGGA,131616.000,3030.9479,N,10404.2894,E,1,7,1.57,572.7,M,-31.9,M,,*60
2017-05-26T21:16:15 -->> $GPGSA,A,3,09,25,06,12,02,,,,,,,,1.82,1.57,0.93*09
2017-05-26T21:16:15 -->> $GLGSA,A,3,86,71,,,,,,,,,,,1.82,1.57,0.93*14
2017-05-26T21:16:16 -->> $GPGSV,3,1,10,02,57,337,29,12,46,259,20,06,40,052,33,42,37,124,27*7E
2017-05-26T21:16:16 -->> $GPGSV,3,2,10,25,23,306,21,09,22,061,32,17,22,127,38,193,,,*74
2017-05-26T21:16:16 -->> $GPGSV,3,3,10,05,,,25,19,,,32*73
2017-05-26T21:16:16 -->> $GLGSV,1,1,02,86,39,085,29,71,31,034,27*63
2017-05-26T21:16:16 -->> $GNRMC,131616.000,A,3030.9479,N,10404.2894,E,0.00,271.77,260517,,,A*74
2017-05-26T21:16:16 -->> $GNVTG,271.77,T,,M,0.00,N,0.00,K,A*27
2017-05-26T21:16:16 -->> $GNGGA,131617.000,3030.9479,N,10404.2894,E,1,7,1.64,572.7,M,-31.9,M,,*61
2017-05-26T21:16:16 -->> $GPGSA,A,3,09,25,06,12,02,,,,,,,,3.06,1.64,2.58*02
2017-05-26T21:16:16 -->> $GLGSA,A,3,86,71,,,,,,,,,,,3.06,1.64,2.58*1F
2017-05-26T21:16:17 -->> $GPGSV,3,1,10,02,57,337,29,12,46,259,28,06,40,052,33,42,37,124,27*76
2017-05-26T21:16:17 -->> $GPGSV,3,2,10,25,23,306,30,09,22,061,33,17,22,127,36,193,,,*7B
2017-05-26T21:16:17 -->> $GPGSV,3,3,10,05,,,29,19,,,32*7F
2017-05-26T21:16:17 -->> $GLGSV,1,1,02,86,39,085,29,71,31,034,27*63
2017-05-26T21:16:17 -->> $GNRMC,131617.000,A,3030.9479,N,10404.2894,E,0.00,271.77,260517,,,A*75
2017-05-26T21:16:17 -->> $GNVTG,271.77,T,,M,0.00,N,0.00,K,A*27
2017-05-26T21:16:17 -->> $GNGGA,131618.000,3030.9479,N,10404.2894,E,1,7,1.57,572.7,M,-31.9,M,,*6E
2017-05-26T21:16:17 -->> $GPGSA,A,3,09,25,06,12,02,,,,,,,,1.82,1.57,0.93*09
2017-05-26T21:16:17 -->> $GLGSA,A,3,86,71,,,,,,,,,,,1.82,1.57,0.93*14
2017-05-26T21:16:18 -->> $GPGSV,3,1,10,02,57,337,29,12,46,259,30,06,40,052,32,42,37,124,27*7E
2017-05-26T21:16:18 -->> $GPGSV,3,2,10,25,23,306,32,09,22,061,31,17,22,127,35,193,,,*78
2017-05-26T21:16:18 -->> $GPGSV,3,3,10,05,,,28,19,,,30*7C
2017-05-26T21:16:18 -->> $GLGSV,1,1,02,86,39,085,28,71,31,034,28*6D
2017-05-26T21:16:18 -->> $GNRMC,131618.000,A,3030.9479,N,10404.2894,E,0.00,271.77,260517,,,A*7A
2017-05-26T21:16:18 -->> $GNVTG,271.77,T,,M,0.00,N,0.00,K,A*27
2017-05-26T21:16:18 -->> $GNGGA,131619.000,3030.9479,N,10404.2894,E,1,8,1.07,572.7,M,-31.9,M,,*65
2017-05-26T21:16:18 -->> $GPGSA,A,3,09,25,06,12,02,17,,,,,,,1.41,1.07,0.91*07
2017-05-26T21:16:19 -->> $GLGSA,A,3,86,71,,,,,,,,,,,1.41,1.07,0.91*1C
2017-05-26T21:16:19 -->> $GPGSV,3,1,10,02,57,337,29,12,46,259,30,06,40,052,33,42,37,124,26*7E
2017-05-26T21:16:19 -->> $GPGSV,3,2,10,25,23,306,32,09,22,061,30,17,22,127,33,193,,,26*7B
2017-05-26T21:16:19 -->> $GPGSV,3,3,10,05,,,27,19,,,30*73
2017-05-26T21:16:19 -->> $GLGSV,1,1,02,86,39,085,27,71,31,034,28*62
2017-05-26T21:16:19 -->> $GNRMC,131619.000,A,3030.9479,N,10404.2894,E,0.00,271.77,260517,,,A*7B
2017-05-26T21:16:19 -->> $GNVTG,271.77,T,,M,0.00,N,0.00,K,A*27
2017-05-26T21:16:19 -->> $GNGGA,131620.000,3030.9479,N,10404.2894,E,1,8,1.07,572.7,M,-31.9,M,,*6F
2017-05-26T21:16:19 -->> $GPGSA,A,3,09,25,06,12,02,17,,,,,,,1.41,1.07,0.91*07
2017-05-26T21:16:19 -->> $GLGSA,A,3,86,71,,,,,,,,,,,1.41,1.07,0.91*1C
2017-05-26T21:16:20 -->> $GPGSV,3,1,10,02,57,337,28,12,46,259,20,06,40,052,33,44,35,237,*7F
2017-05-26T21:16:20 -->> $GPGSV,3,2,10,25,23,306,22,09,22,061,31,17,22,127,35,193,,,29*72
2017-05-26T21:16:20 -->> $GPGSV,3,3,10,05,,,25,19,,,30*71
2017-05-26T21:16:20 -->> $GLGSV,1,1,02,86,39,085,28,71,31,034,28*6D
2017-05-26T21:16:20 -->> $GNRMC,131620.000,A,3030.9479,N,10404.2894,E,0.00,271.77,260517,,,A*71
2017-05-26T21:16:20 -->> $GNVTG,271.77,T,,M,0.00,N,0.00,K,A*27
2017-05-26T21:16:20 -->> $GNGGA,131621.000,3030.9479,N,10404.2894,E,1,8,1.07,572.7,M,-31.9,M,,*6E
2017-05-26T21:16:20 -->> $GPGSA,A,3,09,25,06,12,02,17,,,,,,,1.40,1.07,0.91*06
2017-05-26T21:16:20 -->> $GLGSA,A,3,86,71,,,,,,,,,,,1.40,1.07,0.91*1D
2017-05-26T21:16:21 -->> $GPGSV,3,1,10,02,57,337,26,12,46,259,29,06,40,052,32,44,35,237,*79
2017-05-26T21:16:21 -->> $GPGSV,3,2,10,25,23,306,21,09,22,061,30,17,22,127,36,193,,,30*7B
2017-05-26T21:16:21 -->> $GPGSV,3,3,10,05,,,32,19,,,31*76
2017-05-26T21:16:21 -->> $GLGSV,1,1,02,86,39,085,29,71,31,034,26*62
2017-05-26T21:16:21 -->> $GNRMC,131621.000,A,3030.9479,N,10404.2894,E,0.00,271.77,260517,,,A*70
2017-05-26T21:16:21 -->> $GNVTG,271.77,T,,M,0.00,N,0.00,K,A*27
2017-05-26T21:16:21 -->> $GNGGA,131622.000,3030.9479,N,10404.2894,E,1,8,1.07,572.7,M,-31.9,M,,*6D
2017-05-26T21:16:21 -->> $GPGSA,A,3,09,25,06,12,02,17,,,,,,,1.41,1.07,0.91*07
2017-05-26T21:16:21 -->> $GLGSA,A,3,86,71,,,,,,,,,,,1.41,1.07,0.91*1C
2017-05-26T21:16:22 -->> $GPGSV,3,1,10,02,57,337,22,12,46,259,29,06,40,052,31,44,35,237,*7E
2017-05-26T21:16:22 -->> $GPGSV,3,2,10,25,23,306,21,09,22,061,30,17,21,127,37,193,,,22*7A
2017-05-26T21:16:22 -->> $GPGSV,3,3,10,05,,,31,19,,,31*75
2017-05-26T21:16:22 -->> $GLGSV,1,1,02,86,39,085,29,71,31,034,24*60
2017-05-26T21:16:22 -->> $GNRMC,131622.000,A,3030.9479,N,10404.2894,E,0.00,271.77,260517,,,A*73
2017-05-26T21:16:22 -->> $GNVTG,271.77,T,,M,0.00,N,0.00,K,A*27
2017-05-26T21:16:22 -->> $GNGGA,131623.000,3030.9479,N,10404.2894,E,1,8,1.07,572.7,M,-31.9,M,,*6C
2017-05-26T21:16:22 -->> $GPGSA,A,3,09,25,06,12,02,17,,,,,,,1.40,1.07,0.91*06
2017-05-26T21:16:22 -->> $GLGSA,A,3,86,71,,,,,,,,,,,1.40,1.07,0.91*1D
2017-05-26T21:16:23 -->> $GPGSV,3,1,10,02,57,337,23,12,46,259,28,06,40,052,32,44,35,237,*7D
2017-05-26T21:16:23 -->> $GPGSV,3,2,10,25,23,306,20,09,22,061,31,17,21,127,37,193,,,22*7A
2017-05-26T21:16:23 -->> $GPGSV,3,3,10,05,,,28,19,,,32*7E
2017-05-26T21:16:23 -->> $GLGSV,1,1,02,86,39,085,28,71,31,034,24*61
2017-05-26T21:16:23 -->> $GNRMC,131623.000,A,3030.9479,N,10404.2894,E,0.00,271.77,260517,,,A*72
2017-05-26T21:16:23 -->> $GNVTG,271.77,T,,M,0.00,N,0.00,K,A*27
2017-05-26T21:16:23 -->> $GNGGA,131624.000,3030.9479,N,10404.2894,E,1,8,1.07,572.7,M,-31.9,M,,*6B
2017-05-26T21:16:23 -->> $GPGSA,A,3,09,25,06,12,02,17,,,,,,,1.40,1.07,0.91*06
2017-05-26T21:16:23 -->> $GLGSA,A,3,86,71,,,,,,,,,,,1.40,1.07,0.91*1D
2017-05-26T21:16:24 -->> $GPGSV,3,1,10,02,57,337,25,12,46,259,27,06,40,052,33,44,35,237,*75
2017-05-26T21:16:24 -->> $GPGSV,3,2,10,25,23,306,29,09,22,061,32,17,21,127,35,193,,,28*78
2017-05-26T21:16:24 -->> $GPGSV,3,3,10,05,,,28,19,,,32*7E
2017-05-26T21:16:24 -->> $GLGSV,1,1,02,86,39,085,28,71,31,034,25*60
2017-05-26T21:16:24 -->> $GNRMC,131624.000,A,3030.9479,N,10404.2894,E,0.00,271.77,260517,,,A*75
2017-05-26T21:16:24 -->> $GNVTG,271.77,T,,M,0.00,N,0.00,K,A*27
2017-05-26T21:16:24 -->> $GNGGA,131625.000,3030.9479,N,10404.2894,E,1,8,1.07,572.7,M,-31.9,M,,*6A
2017-05-26T21:16:24 -->> $GPGSA,A,3,09,25,06,12,02,17,,,,,,,1.40,1.07,0.91*06
2017-05-26T21:16:24 -->> $GLGSA,A,3,86,71,,,,,,,,,,,1.40,1.07,0.91*1D
2017-05-26T21:16:25 -->> $GPGSV,3,1,10,02,57,337,26,12,46,259,25,06,40,052,33,44,35,237,*74
2017-05-26T21:16:25 -->> $GPGSV,3,2,10,25,23,306,29,09,22,061,32,17,21,127,35,193,,,28*78
2017-05-26T21:16:25 -->> $GPGSV,3,3,10,05,,,27,19,,,31*72
2017-05-26T21:16:25 -->> $GLGSV,1,1,02,86,39,085,28,71,31,034,26*63
2017-05-26T21:16:25 -->> $GNRMC,131625.000,A,3030.9479,N,10404.2894,E,0.00,271.77,260517,,,A*74
2017-05-26T21:16:25 -->> $GNVTG,271.77,T,,M,0.00,N,0.00,K,A*27
2017-05-26T21:16:25 -->> $GNGGA,131626.000,3030.9479,N,10404.2894,E,1,8,1.07,572.7,M,-31.9,M,,*69
2017-05-26T21:16:25 -->> $GPGSA,A,3,09,25,06,12,02,17,,,,,,,1.40,1.07,0.91*06
2017-05-26T21:16:25 -->> $GLGSA,A,3,86,71,,,,,,,,,,,1.40,1.07,0.91*1D
2017-05-26T21:16:26 -->> $GPGSV,3,1,10,02,57,337,28,12,46,259,25,06,40,052,33,44,35,237,*7A
2017-05-26T21:16:26 -->> $GPGSV,3,2,10,25,23,306,29,09,22,061,33,17,21,127,33,193,,,29*7E
2017-05-26T21:16:26 -->> $GPGSV,3,3,10,05,,,27,19,,,31*72
2017-05-26T21:16:26 -->> $GLGSV,1,1,02,86,39,085,28,71,31,034,27*62
2017-05-26T21:16:26 -->> $GNRMC,131626.000,A,3030.9479,N,10404.2894,E,0.00,271.77,260517,,,A*77
2017-05-26T21:16:26 -->> $GNVTG,271.77,T,,M,0.00,N,0.00,K,A*27
2017-05-26T21:16:26 -->> $GNGGA,131627.000,3030.9479,N,10404.2894,E,1,8,1.07,572.7,M,-31.9,M,,*68
2017-05-26T21:16:26 -->> $GPGSA,A,3,09,25,06,12,02,17,,,,,,,1.40,1.07,0.91*06
2017-05-26T21:16:26 -->> $GLGSA,A,3,86,71,,,,,,,,,,,1.40,1.07,0.91*1D
2017-05-26T21:16:27 -->> $GPGSV,3,1,10,02,57,337,29,12,46,259,27,06,40,052,33,44,35,237,*79
2017-05-26T21:16:27 -->> $GPGSV,3,2,10,25,23,306,30,09,22,061,32,17,21,127,32,193,,,29*76
2017-05-26T21:16:27 -->> $GPGSV,3,3,10,05,,,27,19,,,30*73
2017-05-26T21:16:27 -->> $GLGSV,1,1,02,86,39,085,27,71,31,034,28*62
2017-05-26T21:16:27 -->> $GNRMC,131627.000,A,3030.9479,N,10404.2894,E,0.00,271.77,260517,,,A*76
2017-05-26T21:16:27 -->> $GNVTG,271.77,T,,M,0.00,N,0.00,K,A*27
2017-05-26T21:16:27 -->> $GNGGA,131628.000,3030.9479,N,10404.2894,E,1,8,1.07,572.7,M,-31.9,M,,*67
2017-05-26T21:16:27 -->> $GPGSA,A,3,09,25,06,12,02,17,,,,,,,1.40,1.07,0.91*06
2017-05-26T21:16:27 -->> $GLGSA,A,3,86,71,,,,,,,,,,,1.40,1.07,0.91*1D
2017-05-26T21:16:28 -->> $GPGSV,3,1,10,02,57,337,30,12,46,259,35,06,40,052,32,44,35,237,*73
2017-05-26T21:16:28 -->> $GPGSV,3,2,10,25,23,306,31,09,22,061,31,17,21,127,30,193,,,28*77
2017-05-26T21:16:28 -->> $GPGSV,3,3,10,05,,,29,19,,,29*75
2017-05-26T21:16:28 -->> $GLGSV,1,1,02,86,39,085,26,71,31,034,28*63
2017-05-26T21:16:28 -->> $GNRMC,131628.000,A,3030.9479,N,10404.2894,E,0.00,271.77,260517,,,A*79
2017-05-26T21:16:28 -->> $GNVTG,271.77,T,,M,0.00,N,0.00,K,A*27
2017-05-26T21:16:28 -->> $GNGGA,131629.000,3030.9479,N,10404.2894,E,1,8,1.07,572.7,M,-31.9,M,,*66
2017-05-26T21:16:28 -->> $GPGSA,A,3,09,25,06,12,02,17,,,,,,,1.40,1.07,0.91*06
2017-05-26T21:16:28 -->> $GLGSA,A,3,86,71,,,,,,,,,,,1.40,1.07,0.91*1D
2017-05-26T21:16:29 -->> $GPGSV,3,1,09,02,57,337,30,12,46,259,33,06,40,052,35,44,35,237,*7A
2017-05-26T21:16:29 -->> $GPGSV,3,2,09,25,23,306,31,09,22,061,32,17,21,127,37,193,,,28*7B
2017-05-26T21:16:29 -->> $GPGSV,3,3,09,19,,,30*7B
2017-05-26T21:16:29 -->> $GLGSV,1,1,02,86,39,085,27,71,31,034,27*6D
2017-05-26T21:16:29 -->> $GNRMC,131629.000,A,3030.9479,N,10404.2894,E,0.00,271.77,260517,,,A*78
2017-05-26T21:16:29 -->> $GNVTG,271.77,T,,M,0.00,N,0.00,K,A*27
2017-05-26T21:16:29 -->> $GNGGA,131630.000,3030.9479,N,10404.2894,E,1,8,1.07,572.7,M,-31.9,M,,*6E
2017-05-26T21:16:29 -->> $GPGSA,A,3,09,25,06,12,02,17,,,,,,,1.40,1.07,0.91*06
2017-05-26T21:16:29 -->> $GLGSA,A,3,86,71,,,,,,,,,,,1.40,1.07,0.91*1D
2017-05-26T21:16:30 -->> $GPGSV,3,1,10,02,57,337,29,12,46,259,25,06,40,052,34,40,34,238,*76
2017-05-26T21:16:30 -->> $GPGSV,3,2,10,25,23,306,19,09,22,061,32,17,21,127,37,193,,,29*78
2017-05-26T21:16:30 -->> $GPGSV,3,3,10,05,,,27,19,,,30*73
2017-05-26T21:16:30 -->> $GLGSV,1,1,02,86,39,085,28,71,31,034,26*63
2017-05-26T21:16:30 -->> $GNRMC,131630.000,A,3030.9479,N,10404.2894,E,0.00,271.77,260517,,,A*70
2017-05-26T21:16:30 -->> $GNVTG,271.77,T,,M,0.00,N,0.00,K,A*27
2017-05-26T21:16:30 -->> $GNGGA,131631.000,3030.9479,N,10404.2894,E,1,8,1.07,572.7,M,-31.9,M,,*6F
2017-05-26T21:16:30 -->> $GPGSA,A,3,09,25,06,12,02,17,,,,,,,1.40,1.07,0.91*06
2017-05-26T21:16:31 -->> $GLGSA,A,3,86,71,,,,,,,,,,,1.40,1.07,0.91*1D
2017-05-26T21:16:31 -->> $GPGSV,3,1,10,02,57,337,28,12,46,259,25,06,40,052,32,40,34,238,*71
2017-05-26T21:16:31 -->> $GPGSV,3,2,10,25,23,305,19,09,22,061,31,17,21,127,38,193,,,28*76
2017-05-26T21:16:31 -->> $GPGSV,3,3,10,05,,,32,19,,,31*76
2017-05-26T21:16:31 -->> $GLGSV,1,1,02,86,39,085,27,71,31,034,26*6C
2017-05-26T21:16:31 -->> $GNRMC,131631.000,A,3030.9479,N,10404.2894,E,0.00,271.77,260517,,,A*71
2017-05-26T21:16:31 -->> $GNVTG,271.77,T,,M,0.00,N,0.00,K,A*27
2017-05-26T21:16:31 -->> $GNGGA,131632.000,3030.9479,N,10404.2894,E,1,8,1.07,572.7,M,-31.9,M,,*6C
2017-05-26T21:16:31 -->> $GPGSA,A,3,09,25,06,12,02,17,,,,,,,1.40,1.07,0.91*06
2017-05-26T21:16:31 -->> $GLGSA,A,3,86,71,,,,,,,,,,,1.40,1.07,0.91*1D
2017-05-26T21:16:32 -->> $GPGSV,3,1,10,02,57,337,26,12,46,259,25,06,40,052,32,40,34,238,*7F
2017-05-26T21:16:32 -->> $GPGSV,3,2,10,25,23,305,19,09,22,061,29,17,21,127,39,193,,,28*7E
2017-05-26T21:16:32 -->> $GPGSV,3,3,10,05,,,30,19,,,32*77
2017-05-26T21:16:32 -->> $GLGSV,1,1,02,86,39,085,27,71,31,034,25*6F
2017-05-26T21:16:32 -->> $GNRMC,131632.000,A,3030.9479,N,10404.2894,E,0.00,271.77,260517,,,A*72
2017-05-26T21:16:32 -->> $GNVTG,271.77,T,,M,0.00,N,0.00,K,A*27
2017-05-26T21:16:32 -->> $GNGGA,131633.000,3030.9479,N,10404.2894,E,1,8,1.07,572.7,M,-31.9,M,,*6D
2017-05-26T21:16:32 -->> $GPGSA,A,3,09,25,06,12,02,17,,,,,,,1.40,1.07,0.91*06
2017-05-26T21:16:32 -->> $GLGSA,A,3,86,71,,,,,,,,,,,1.40,1.07,0.91*1D
2017-05-26T21:16:33 -->> $GPGSV,3,1,10,02,57,337,27,12,46,259,27,06,40,052,33,40,34,238,*7D
2017-05-26T21:16:33 -->> $GPGSV,3,2,10,25,23,305,26,09,22,061,31,17,21,127,37,193,,,28*75
2017-05-26T21:16:33 -->> $GPGSV,3,3,10,05,,,26,19,,,31*73
2017-05-26T21:16:33 -->> $GLGSV,1,1,02,86,39,085,28,71,31,034,26*63
2017-05-26T21:16:33 -->> $GNRMC,131633.000,A,3030.9479,N,10404.2894,E,0.00,271.77,260517,,,A*73
2017-05-26T21:16:33 -->> $GNVTG,271.77,T,,M,0.00,N,0.00,K,A*27
2017-05-26T21:16:33 -->> $GNGGA,131634.000,3030.9479,N,10404.2894,E,1,8,1.07,572.7,M,-31.9,M,,*6A
2017-05-26T21:16:33 -->> $GPGSA,A,3,09,25,06,12,02,17,,,,,,,1.40,1.07,0.91*06
2017-05-26T21:16:34 -->> $GLGSA,A,3,86,71,,,,,,,,,,,1.40,1.07,0.91*1D
2017-05-26T21:16:34 -->> $GPGSV,3,1,10,02,57,337,29,12,46,259,28,06,40,052,33,40,34,238,*7C
2017-05-26T21:16:34 -->> $GPGSV,3,2,10,25,23,305,33,09,22,061,30,17,21,127,29,193,,,29*7E
2017-05-26T21:16:34 -->> $GPGSV,3,3,10,05,,,29,19,,,30*7D
2017-05-26T21:16:34 -->> $GLGSV,1,1,02,86,39,085,28,71,31,034,27*62
2017-05-26T21:16:34 -->> $GNRMC,131634.000,A,3030.9479,N,10404.2894,E,0.00,271.77,260517,,,A*74
2017-05-26T21:16:34 -->> $GNVTG,271.77,T,,M,0.00,N,0.00,K,A*27
2017-05-26T21:16:34 -->> $GNGGA,131635.000,3030.9479,N,10404.2894,E,1,8,1.07,572.7,M,-31.9,M,,*6B
2017-05-26T21:16:34 -->> $GPGSA,A,3,09,25,06,12,02,17,,,,,,,1.40,1.07,0.91*06
2017-05-26T21:16:34 -->> $GLGSA,A,3,86,71,,,,,,,,,,,1.40,1.07,0.91*1D
2017-05-26T21:16:35 -->> $GPGSV,3,1,10,02,57,337,30,12,46,259,35,06,40,052,32,40,34,238,*79
2017-05-26T21:16:35 -->> $GPGSV,3,2,10,25,23,305,34,09,22,061,29,17,21,127,28,193,,,29*70
2017-05-26T21:16:35 -->> $GPGSV,3,3,10,05,,,29,19,,,28*74
2017-05-26T21:16:35 -->> $GLGSV,1,1,02,86,39,085,27,71,31,034,28*62
2017-05-26T21:16:35 -->> $GNRMC,131635.000,A,3030.9479,N,10404.2894,E,0.00,271.77,260517,,,A*75
2017-05-26T21:16:35 -->> $GNVTG,271.77,T,,M,0.00,N,0.00,K,A*27
2017-05-26T21:16:35 -->> $GNGGA,131636.000,3030.9479,N,10404.2894,E,1,8,1.07,572.7,M,-31.9,M,,*68
2017-05-26T21:16:35 -->> $GPGSA,A,3,09,25,06,12,02,17,,,,,,,1.40,1.07,0.91*06
2017-05-26T21:16:35 -->> $GLGSA,A,3,86,71,,,,,,,,,,,1.40,1.07,0.91*1D
2017-05-26T21:16:36 -->> $GPGSV,3,1,10,02,57,337,30,12,46,259,33,06,40,052,33,40,34,238,*7E
2017-05-26T21:16:36 -->> $GPGSV,3,2,10,25,23,305,33,09,22,061,31,17,21,127,30,193,,,29*77
2017-05-26T21:16:36 -->> $GPGSV,3,3,10,05,,,27,19,,,30*73
2017-05-26T21:16:36 -->> $GLGSV,1,1,02,86,39,085,28,71,31,034,28*6D
2017-05-26T21:16:36 -->> $GNRMC,131636.000,A,3030.9479,N,10404.2894,E,0.00,271.77,260517,,,A*76
2017-05-26T21:16:36 -->> $GNVTG,271.77,T,,M,0.00,N,0.00,K,A*27
2017-05-26T21:16:36 -->> $GNGGA,131637.000,3030.9479,N,10404.2894,E,1,8,1.07,572.7,M,-31.9,M,,*69
2017-05-26T21:16:36 -->> $GPGSA,A,3,09,25,06,12,02,17,,,,,,,1.40,1.07,0.91*06
2017-05-26T21:16:37 -->> $GLGSA,A,3,86,71,,,,,,,,,,,1.40,1.07,0.91*1D
2017-05-26T21:16:37 -->> $GPGSV,3,1,10,02,57,337,29,12,46,259,24,06,40,052,32,40,34,238,*71
2017-05-26T21:16:37 -->> $GPGSV,3,2,10,25,23,305,19,09,22,061,31,17,21,127,39,193,,,29*76
2017-05-26T21:16:37 -->> $GPGSV,3,3,10,05,,,27,19,,,31*72
2017-05-26T21:16:37 -->> $GLGSV,1,1,02,86,39,085,29,71,31,034,27*63
2017-05-26T21:16:37 -->> $GNRMC,131637.000,A,3030.9479,N,10404.2894,E,0.00,271.77,260517,,,A*77
2017-05-26T21:16:37 -->> $GNVTG,271.77,T,,M,0.00,N,0.00,K,A*27
2017-05-26T21:16:37 -->> $GNGGA,131638.000,3030.9479,N,10404.2894,E,1,8,1.07,572.7,M,-31.9,M,,*66
2017-05-26T21:16:37 -->> $GPGSA,A,3,09,25,06,12,02,17,,,,,,,1.40,1.07,0.91*06
2017-05-26T21:16:37 -->> $GLGSA,A,3,86,71,,,,,,,,,,,1.40,1.07,0.91*1D
2017-05-26T21:16:38 -->> $GPGSV,3,1,10,02,57,337,28,12,46,259,24,06,40,052,30,40,34,238,*72
2017-05-26T21:16:38 -->> $GPGSV,3,2,10,25,23,305,19,09,22,061,30,17,21,127,39,193,,,27*79
2017-05-26T21:16:38 -->> $GPGSV,3,3,10,05,,,28,19,,,32*7E
2017-05-26T21:16:38 -->> $GLGSV,1,1,02,86,39,085,28,71,31,034,26*63
2017-05-26T21:16:38 -->> $GNRMC,131638.000,A,3030.9479,N,10404.2894,E,0.00,271.77,260517,,,A*78
2017-05-26T21:16:38 -->> $GNVTG,271.77,T,,M,0.00,N,0.00,K,A*27
2017-05-26T21:16:38 -->> $GNGGA,131639.000,3030.9479,N,10404.2894,E,1,8,1.07,572.7,M,-31.9,M,,*67
2017-05-26T21:16:38 -->> $GPGSA,A,3,09,25,06,12,02,17,,,,,,,1.40,1.07,0.91*06
2017-05-26T21:16:38 -->> $GLGSA,A,3,86,71,,,,,,,,,,,1.40,1.07,0.91*1D
2017-05-26T21:16:39 -->> $GPGSV,3,1,10,02,57,337,28,12,46,259,26,06,40,052,31,50,33,120,*7D
2017-05-26T21:16:39 -->> $GPGSV,3,2,10,25,23,305,19,09,22,061,31,17,21,127,39,193,,,27*78
2017-05-26T21:16:39 -->> $GPGSV,3,3,10,05,,,28,19,,,32*7E
2017-05-26T21:16:39 -->> $GLGSV,1,1,02,86,39,085,27,71,31,034,25*6F
2017-05-26T21:16:39 -->> $GNRMC,131639.000,A,3030.9479,N,10404.2894,E,0.00,271.77,260517,,,A*79
2017-05-26T21:16:39 -->> $GNVTG,271.77,T,,M,0.00,N,0.00,K,A*27
2017-05-26T21:16:39 -->> $GNGGA,131640.000,3030.9479,N,10404.2894,E,1,8,1.06,572.7,M,-31.9,M,,*68
2017-05-26T21:16:39 -->> $GPGSA,A,3,09,25,06,12,02,17,,,,,,,1.40,1.06,0.91*07
2017-05-26T21:16:40 -->> $GLGSA,A,3,86,71,,,,,,,,,,,1.40,1.06,0.91*1C
2017-05-26T21:16:40 -->> $GPGSV,3,1,10,02,57,337,28,12,46,259,28,06,40,052,32,50,33,120,*70
2017-05-26T21:16:40 -->> $GPGSV,3,2,10,25,23,305,28,09,22,061,33,17,21,127,37,193,,,29*78
2017-05-26T21:16:40 -->> $GPGSV,3,3,10,05,,,30,19,,,32*77
2017-05-26T21:16:40 -->> $GLGSV,1,1,02,86,39,085,26,71,31,034,26*6D
2017-05-26T21:16:40 -->> $GNRMC,131640.000,A,3030.9479,N,10404.2894,E,0.00,271.77,260517,,,A*77
2017-05-26T21:16:40 -->> $GNVTG,271.77,T,,M,0.00,N,0.00,K,A*27
2017-05-26T21:16:40 -->> $GNGGA,131641.000,3030.9479,N,10404.2894,E,1,8,1.06,572.7,M,-31.9,M,,*69
2017-05-26T21:16:40 -->> $GPGSA,A,3,09,25,06,12,02,17,,,,,,,1.40,1.06,0.91*07
2017-05-26T21:16:41 -->> $GLGSA,A,3,86,71,,,,,,,,,,,1.40,1.06,0.91*1C
2017-05-26T21:16:41 -->> $GPGSV,3,1,10,02,57,337,29,12,46,259,29,06,40,052,33,50,33,120,*71
2017-05-26T21:16:41 -->> $GPGSV,3,2,10,25,23,305,35,09,22,061,30,17,21,127,30,193,,,28*71
2017-05-26T21:16:41 -->> $GPGSV,3,3,10,05,,,30,19,,,32*77
2017-05-26T21:16:41 -->> $GLGSV,1,1,02,86,39,085,25,71,31,034,27*6F
2017-05-26T21:16:41 -->> $GNRMC,131641.000,A,3030.9479,N,10404.2894,E,0.00,271.77,260517,,,A*76
2017-05-26T21:16:41 -->> $GNVTG,271.77,T,,M,0.00,N,0.00,K,A*27
2017-05-26T21:16:41 -->> $GNGGA,131642.000,3030.9479,N,10404.2894,E,1,8,1.06,572.7,M,-31.9,M,,*6A
2017-05-26T21:16:41 -->> $GPGSA,A,3,09,25,06,12,02,17,,,,,,,1.40,1.06,0.91*07
2017-05-26T21:16:42 -->> $GLGSA,A,3,86,71,,,,,,,,,,,1.40,1.06,0.91*1C
2017-05-26T21:16:42 -->> $GPGSV,3,1,10,02,57,337,29,12,46,259,30,06,40,052,33,50,33,120,*79
2017-05-26T21:16:42 -->> $GPGSV,3,2,10,25,23,305,35,09,22,061,30,17,21,127,30,193,,,28*71
2017-05-26T21:16:42 -->> $GPGSV,3,3,10,05,,,29,19,,,31*7C
2017-05-26T21:16:42 -->> $GLGSV,1,1,02,86,39,085,24,71,31,034,28*61
2017-05-26T21:16:42 -->> $GNRMC,131642.000,A,3030.9479,N,10404.2894,E,0.00,271.77,260517,,,A*75
2017-05-26T21:16:42 -->> $GNVTG,271.77,T,,M,0.00,N,0.00,K,A*27
2017-05-26T21:16:42 -->> $GNGGA,131643.000,3030.9479,N,10404.2894,E,1,8,1.06,572.7,M,-31.9,M,,*6B
2017-05-26T21:16:42 -->> $GPGSA,A,3,09,25,06,12,02,17,,,,,,,1.40,1.06,0.91*07
2017-05-26T21:16:43 -->> $GLGSA,A,3,86,71,,,,,,,,,,,1.40,1.06,0.91*1C
2017-05-26T21:16:43 -->> $GPGSV,3,1,10,02,57,337,29,12,46,259,28,06,40,052,34,19,40,118,30*76
2017-05-26T21:16:43 -->> $GPGSV,3,2,10,50,33,120,,25,23,305,33,09,22,061,32,17,21,127,31*73
2017-05-26T21:16:43 -->> $GPGSV,3,3,10,193,,,30,05,,,29*4E
2017-05-26T21:16:43 -->> $GLGSV,1,1,02,86,39,085,25,71,31,034,28*60
2017-05-26T21:16:43 -->> $GNRMC,131643.000,A,3030.9479,N,10404.2894,E,0.00,271.77,260517,,,A*74
2017-05-26T21:16:43 -->> $GNVTG,271.77,T,,M,0.00,N,0.00,K,A*27
2017-05-26T21:16:43 -->> $GNGGA,131644.000,3030.9479,N,10404.2894,E,1,8,1.06,572.7,M,-31.9,M,,*6C
2017-05-26T21:16:43 -->> $GPGSA,A,3,09,25,06,12,02,17,,,,,,,1.40,1.06,0.91*07
2017-05-26T21:16:43 -->> $GLGSA,A,3,86,71,,,,,,,,,,,1.40,1.06,0.91*1C
2017-05-26T21:16:44 -->> $GPGSV,3,1,10,02,57,337,23,12,46,259,26,06,40,052,33,19,40,118,30*75
2017-05-26T21:16:44 -->> $GPGSV,3,2,10,50,33,120,,25,23,305,23,09,22,061,32,17,21,127,38*7B
2017-05-26T21:16:44 -->> $GPGSV,3,3,10,193,,,30,05,,,28*4F
2017-05-26T21:16:44 -->> $GLGSV,1,1,02,86,39,085,27,71,31,034,27*6D
2017-05-26T21:16:44 -->> $GNRMC,131644.000,A,3030.9479,N,10404.2894,E,0.00,271.77,260517,,,A*73
2017-05-26T21:16:44 -->> $GNVTG,271.77,T,,M,0.00,N,0.00,K,A*27
2017-05-26T21:16:44 -->> $GNGGA,131645.000,3030.9479,N,10404.2894,E,1,8,1.06,572.7,M,-31.9,M,,*6D
2017-05-26T21:16:44 -->> $GPGSA,A,3,09,25,06,12,02,17,,,,,,,1.40,1.06,0.91*07
2017-05-26T21:16:44 -->> $GLGSA,A,3,86,71,,,,,,,,,,,1.40,1.06,0.91*1C
2017-05-26T21:16:45 -->> $GPGSV,3,1,10,02,57,337,22,12,46,259,27,06,40,052,31,19,40,118,31*76
2017-05-26T21:16:45 -->> $GPGSV,3,2,10,50,33,120,,25,23,305,24,09,22,061,31,17,21,127,38*7F
2017-05-26T21:16:45 -->> $GPGSV,3,3,10,193,,,30,05,,,27*40
2017-05-26T21:16:45 -->> $GLGSV,1,1,02,86,39,085,27,71,31,034,25*6F
2017-05-26T21:16:45 -->> $GNRMC,131645.000,A,3030.9479,N,10404.2894,E,0.00,271.77,260517,,,A*72
2017-05-26T21:16:45 -->> $GNVTG,271.77,T,,M,0.00,N,0.00,K,A*27
2017-05-26T21:16:45 -->> $GNGGA,131646.000,3030.9479,N,10404.2894,E,1,8,1.06,572.7,M,-31.9,M,,*6E
2017-05-26T21:16:45 -->> $GPGSA,A,3,09,25,06,12,02,17,,,,,,,1.40,1.06,0.91*07
2017-05-26T21:16:46 -->> $GLGSA,A,3,86,71,,,,,,,,,,,1.40,1.06,0.91*1C
2017-05-26T21:16:46 -->> $GPGSV,3,1,10,02,57,337,22,12,46,259,26,06,40,052,31,19,40,118,31*77
2017-05-26T21:16:46 -->> $GPGSV,3,2,10,50,33,120,,25,23,305,23,09,22,061,31,17,21,127,38*78
2017-05-26T21:16:46 -->> $GPGSV,3,3,10,193,,,23,05,,,27*42
2017-05-26T21:16:46 -->> $GLGSV,1,1,02,86,39,085,28,71,31,034,24*61
2017-05-26T21:16:46 -->> $GNRMC,131646.000,A,3030.9479,N,10404.2894,E,0.00,271.77,260517,,,A*71
2017-05-26T21:16:46 -->> $GNVTG,271.77,T,,M,0.00,N,0.00,K,A*27
2017-05-26T21:16:46 -->> $GNGGA,131647.000,3030.9479,N,10404.2894,E,1,8,1.06,572.7,M,-31.9,M,,*6F
2017-05-26T21:16:46 -->> $GPGSA,A,3,09,25,06,12,02,17,,,,,,,1.40,1.06,0.91*07
2017-05-26T21:16:46 -->> $GLGSA,A,3,86,71,,,,,,,,,,,1.40,1.06,0.91*1C
2017-05-26T21:16:47 -->> $GPGSV,3,1,10,02,57,337,24,12,46,259,27,06,40,052,32,19,40,118,32*70
2017-05-26T21:16:47 -->> $GPGSV,3,2,10,50,33,120,26,25,23,305,25,09,22,061,32,17,21,127,31*70
2017-05-26T21:16:47 -->> $GPGSV,3,3,10,193,,,25,05,,,29*4A
2017-05-26T21:16:47 -->> $GLGSV,1,1,02,86,39,085,28,71,31,034,25*60
2017-05-26T21:16:47 -->> $GNRMC,131647.000,A,3030.9479,N,10404.2894,E,0.00,271.77,260517,,,A*70
2017-05-26T21:16:47 -->> $GNVTG,271.77,T,,M,0.00,N,0.00,K,A*27
2017-05-26T21:16:47 -->> $GNGGA,131648.000,3030.9479,N,10404.2894,E,1,8,1.06,572.7,M,-31.9,M,,*60
2017-05-26T21:16:47 -->> $GPGSA,A,3,09,25,06,12,02,17,,,,,,,1.40,1.06,0.91*07
2017-05-26T21:16:48 -->> $GLGSA,A,3,86,71,,,,,,,,,,,1.40,1.06,0.91*1C
2017-05-26T21:16:48 -->> $GPGSV,3,1,10,02,57,337,26,12,46,259,28,06,40,052,31,19,40,118,31*7D
2017-05-26T21:16:48 -->> $GPGSV,3,2,10,50,33,120,24,25,23,305,35,09,22,061,30,17,21,127,30*70
2017-05-26T21:16:48 -->> $GPGSV,3,3,10,193,,,27,05,,,29*48
2017-05-26T21:16:48 -->> $GLGSV,1,1,02,86,39,085,27,71,31,034,26*6C
2017-05-26T21:16:48 -->> $GNRMC,131648.000,A,3030.9479,N,10404.2894,E,0.00,271.77,260517,,,A*7F
2017-05-26T21:16:48 -->> $GNVTG,271.77,T,,M,0.00,N,0.00,K,A*27
2017-05-26T21:16:48 -->> $GNGGA,131649.000,3030.9479,N,10404.2894,E,1,8,1.06,572.7,M,-31.9,M,,*61
2017-05-26T21:16:48 -->> $GPGSA,A,3,09,25,06,12,02,17,,,,,,,1.40,1.06,0.91*07
2017-05-26T21:16:49 -->> $GLGSA,A,3,86,71,,,,,,,,,,,1.40,1.06,0.91*1C
2017-05-26T21:16:49 -->> $GPGSV,3,1,10,02,57,337,27,12,46,259,29,06,40,052,32,19,40,118,32*7D
2017-05-26T21:16:49 -->> $GPGSV,3,2,10,50,33,120,24,25,23,305,35,09,22,061,30,17,21,127,29*78
2017-05-26T21:16:49 -->> $GPGSV,3,3,10,193,,,26,05,,,28*48
2017-05-26T21:16:49 -->> $GLGSV,1,1,02,86,39,085,27,71,31,034,27*6D
2017-05-26T21:16:49 -->> $GNRMC,131649.000,A,3030.9479,N,10404.2894,E,0.00,271.77,260517,,,A*7E
2017-05-26T21:16:49 -->> $GNVTG,271.77,T,,M,0.00,N,0.00,K,A*27
2017-05-26T21:16:49 -->> $GNGGA,131650.000,3030.9479,N,10404.2894,E,1,8,1.06,572.7,M,-31.9,M,,*69
