2017-05-26T21:30:03
2017-05-26T21:30:03 -->> ============================
2017-05-26T21:30:09 -->> $GNGGA,235944.799,,,,,0,0,,,M,,M,,*5C
2017-05-26T21:30:09 -->> $GPGSA,A,1,,,,,,,,,,,,,,,*1E
2017-05-26T21:30:09 -->> $GLGSA,A,1,,,,,,,,,,,,,,,*02
2017-05-26T21:30:09 -->> $GPGSV,1,1,00*79
2017-05-26T21:30:09 -->> $GLGSV,1,1,00*65
2017-05-26T21:30:09 -->> $GNRMC,235944.799,V,,,,,0.00,0.00,050180,,,N*55
2017-05-26T21:30:09 -->> $GNVTG,0.00,T,,M,0.00,N,0.00,K,N*2C
2017-05-26T21:30:10 -->> $GNGGA,235945.799,,,,,0,0,,,M,,M,,*5D
2017-05-26T21:30:10 -->> $GPGSA,A,1,,,,,,,,,,,,,,,*1E
2017-05-26T21:30:10 -->> $GLGSA,A,1,,,,,,,,,,,,,,,*02
2017-05-26T21:30:10 -->> $GPGSV,1,1,01,25,,,32*7E
2017-05-26T21:30:10 -->> $GLGSV,1,1,00*65
2017-05-26T21:30:10 -->> $GNRMC,235945.799,V,,,,,0.00,0.00,050180,,,N*54
2017-05-26T21:30:10 -->> $GNVTG,0.00,T,,M,0.00,N,0.00,K,N*2C
2017-05-26T21:30:11 -->> $GNGGA,235946.799,,,,,0,0,,,M,,M,,*5E
2017-05-26T21:30:11 -->> $GPGSA,A,1,,,,,,,,,,,,,,,*1E
2017-05-26T21:30:11 -->> $GLGSA,A,1,,,,,,,,,,,,,,,*02
2017-05-26T21:30:11 -->> $GPGSV,1,1,02,25,,,31,12,,,33*7D
2017-05-26T21:30:11 -->> $GLGSV,1,1,00*65
2017-05-26T21:30:11 -->> $GNRMC,235946.799,V,,,,,0.00,0.00,050180,,,N*57
2017-05-26T21:30:11 -->> $GNVTG,0.00,T,,M,0.00,N,0.00,K,N*2C
2017-05-26T21:30:12 -->> $GNGGA,235947.799,,,,,0,0,,,M,,M,,*5F
2017-05-26T21:30:12 -->> $GPGSA,A,1,,,,,,,,,,,,,,,*1E
2017-05-26T21:30:12 -->> $GLGSA,A,1,,,,,,,,,,,,,,,*02
2017-05-26T21:30:12 -->> $GPGSV,1,1,02,25,,,31,12,,,36*78
2017-05-26T21:30:12 -->> $GLGSV,1,1,00*65
2017-05-26T21:30:12 -->> $GNRMC,235947.799,V,,,,,0.00,0.00,050180,,,N*56
2017-05-26T21:30:12 -->> $GNVTG,0.00,T,,M,0.00,N,0.00,K,N*2C
2017-05-26T21:30:13 -->> $GNGGA,235948.799,,,,,0,0,,,M,,M,,*50
2017-05-26T21:30:13 -->> $GPGSA,A,1,,,,,,,,,,,,,,,*1E
2017-05-26T21:30:13 -->> $GLGSA,A,1,,,,,,,,,,,,,,,*02
2017-05-26T21:30:13 -->> $GPGSV,1,1,02,25,,,32,12,,,35*78
2017-05-26T21:30:13 -->> $GLGSV,1,1,00*65
2017-05-26T21:30:13 -->> $GNRMC,235948.799,V,,,,,0.00,0.00,050180,,,N*59
2017-05-26T21:30:13 -->> $GNVTG,0.00,T,,M,0.00,N,0.00,K,N*2C
2017-05-26T21:30:14 -->> $GNGGA,235949.799,,,,,0,0,,,M,,M,,*51
2017-05-26T21:30:14 -->> $GPGSA,A,1,,,,,,,,,,,,,,,*1E
2017-05-26T21:30:14 -->> $GLGSA,A,1,,,,,,,,,,,,,,,*02
2017-05-26T21:30:14 -->> $GPGSV,1,1,02,25,,,31,12,,,35*7B
2017-05-26T21:30:14 -->> $GLGSV,1,1,00*65
2017-05-26T21:30:14 -->> $GNRMC,235949.799,V,,,,,0.00,0.00,050180,,,N*58
2017-05-26T21:30:14 -->> $GNVTG,0.00,T,,M,0.00,N,0.00,K,N*2C
2017-05-26T21:30:15 -->> $GNGGA,235950.800,,,,,0,0,,,M,,M,,*56
2017-05-26T21:30:15 -->> $GPGSA,A,1,,,,,,,,,,,,,,,*1E
2017-05-26T21:30:15 -->> $GLGSA,A,1,,,,,,,,,,,,,,,*02
2017-05-26T21:30:15 -->> $GPGSV,1,1,02,25,,,31,12,,,36*78
2017-05-26T21:30:15 -->> $GLGSV,1,1,00*65
2017-05-26T21:30:15 -->> $GNRMC,235950.800,V,,,,,0.00,0.00,050180,,,N*5F
2017-05-26T21:30:15 -->> $GNVTG,0.00,T,,M,0.00,N,0.00,K,N*2C
2017-05-26T21:30:16 -->> $GNGGA,235951.800,,,,,0,0,,,M,,M,,*57
2017-05-26T21:30:16 -->> $GPGSA,A,1,,,,,,,,,,,,,,,*1E
2017-05-26T21:30:16 -->> $GLGSA,A,1,,,,,,,,,,,,,,,*02
2017-05-26T21:30:16 -->> $GPGSV,1,1,03,25,,,31,12,,,36,06,,,25*78
2017-05-26T21:30:16 -->> $GLGSV,1,1,00*65
2017-05-26T21:30:16 -->> $GNRMC,235951.800,V,,,,,0.00,0.00,050180,,,N*5E
2017-05-26T21:30:16 -->> $GNVTG,0.00,T,,M,0.00,N,0.00,K,N*2C
2017-05-26T21:30:17 -->> $GNGGA,235952.800,,,,,0,0,,,M,,M,,*54
2017-05-26T21:30:17 -->> $GPGSA,A,1,,,,,,,,,,,,,,,*1E
2017-05-26T21:30:17 -->> $GLGSA,A,1,,,,,,,,,,,,,,,*02
2017-05-26T21:30:17 -->> $GPGSV,1,1,03,25,,,31,12,,,36,06,,,25*78
2017-05-26T21:30:17 -->> $GLGSV,1,1,00*65
2017-05-26T21:30:17 -->> $GNRMC,235952.800,V,,,,,0.00,0.00,050180,,,N*5D
2017-05-26T21:30:17 -->> $GNVTG,0.00,T,,M,0.00,N,0.00,K,N*2C
2017-05-26T21:30:17 -->> $GNGGA,235953.327,,,,,0,0,,,M,,M,,*5B
2017-05-26T21:30:17 -->> $GPGSA,A,1,,,,,,,,,,,,,,,*1E
2017-05-26T21:30:17 -->> $GLGSA,A,1,,,,,,,,,,,,,,,*02
2017-05-26T21:30:17 -->> $GPGSV,1,1,03,25,,,31,12,,,36,06,,,26*7B
2017-05-26T21:30:17 -->> $GLGSV,1,1,00*65
2017-05-26T21:30:17 -->> $GNRMC,235953.327,V,,,,,0.00,0.00,050180,,,N*52
2017-05-26T21:30:17 -->> $GNVTG,0.00,T,,M,0.00,N,0.00,K,N*2C
2017-05-26T21:30:18 -->> $GNGGA,235954.327,,,,,0,0,,,M,,M,,*5C
2017-05-26T21:30:18 -->> $GPGSA,A,1,,,,,,,,,,,,,,,*1E
2017-05-26T21:30:18 -->> $GLGSA,A,1,,,,,,,,,,,,,,,*02
2017-05-26T21:30:18 -->> $GPGSV,1,1,03,25,,,31,12,,,36,06,,,26*7B
2017-05-26T21:30:18 -->> $GLGSV,1,1,00*65
2017-05-26T21:30:18 -->> $GNRMC,235954.327,V,,,,,0.00,0.00,050180,,,N*55
2017-05-26T21:30:18 -->> $GNVTG,0.00,T,,M,0.00,N,0.00,K,N*2C
2017-05-26T21:30:19 -->> $GNGGA,133020.093,,,,,0,0,,,M,,M,,*5F
2017-05-26T21:30:19 -->> $GPGSA,A,1,,,,,,,,,,,,,,,*1E
2017-05-26T21:30:19 -->> $GLGSA,A,1,,,,,,,,,,,,,,,*02
2017-05-26T21:30:19 -->> $GPGSV,1,1,03,25,,,31,12,,,36,06,,,25*78
2017-05-26T21:30:19 -->> $GLGSV,1,1,00*65
2017-05-26T21:30:19 -->> $GNRMC,133020.093,V,,,,,0.00,0.00,110180,,,N*53
2017-05-26T21:30:20 -->> $GNVTG,0.00,T,,M,0.00,N,0.00,K,N*2C
2017-05-26T21:30:20 -->> $GNGGA,133021.093,,,,,0,0,,,M,,M,,*5E
2017-05-26T21:30:20 -->> $GPGSA,A,1,,,,,,,,,,,,,,,*1E
2017-05-26T21:30:20 -->> $GLGSA,A,1,,,,,,,,,,,,,,,*02
2017-05-26T21:30:20 -->> $GPGSV,1,1,03,25,,,31,12,,,36,06,,,26*7B
2017-05-26T21:30:20 -->> $GLGSV,1,1,00*65
2017-05-26T21:30:20 -->> $GNRMC,133021.093,V,,,,,0.00,0.00,110180,,,N*52
2017-05-26T21:30:21 -->> $GNVTG,0.00,T,,M,0.00,N,0.00,K,N*2C
2017-05-26T21:30:21 -->> $GNGGA,133022.093,,,,,0,0,,,M,,M,,*5D
2017-05-26T21:30:21 -->> $GPGSA,A,1,,,,,,,,,,,,,,,*1E
2017-05-26T21:30:21 -->> $GLGSA,A,1,,,,,,,,,,,,,,,*02
2017-05-26T21:30:21 -->> $GPGSV,1,1,03,25,,,31,12,,,36,06,,,26*7B
2017-05-26T21:30:21 -->> $GLGSV,1,1,00*65
2017-05-26T21:30:21 -->> $GNRMC,133022.093,V,,,,,0.00,0.00,110180,,,N*51
2017-05-26T21:30:22 -->> $GNVTG,0.00,T,,M,0.00,N,0.00,K,N*2C
2017-05-26T21:30:22 -->> $GNGGA,133023.093,,,,,0,0,,,M,,M,,*5C
2017-05-26T21:30:22 -->> $GPGSA,A,1,,,,,,,,,,,,,,,*1E
2017-05-26T21:30:22 -->> $GLGSA,A,1,,,,,,,,,,,,,,,*02
2017-05-26T21:30:22 -->> $GPGSV,1,1,03,25,,,31,12,,,36,06,,,26*7B
2017-05-26T21:30:22 -->> $GLGSV,1,1,00*65
2017-05-26T21:30:22 -->> $GNRMC,133023.093,V,,,,,0.00,0.00,110180,,,N*50
2017-05-26T21:30:23 -->> $GNVTG,0.00,T,,M,0.00,N,0.00,K,N*2C
2017-05-26T21:30:23 -->> $GNGGA,133024.088,,,,,0,0,,,M,,M,,*51
2017-05-26T21:30:23 -->> $GPGSA,A,1,,,,,,,,,,,,,,,*1E
2017-05-26T21:30:23 -->> $GLGSA,A,1,,,,,,,,,,,,,,,*02
2017-05-26T21:30:23 -->> $GPGSV,1,1,03,25,,,31,12,,,36,06,,,25*78
2017-05-26T21:30:23 -->> $GLGSV,1,1,00*65
2017-05-26T21:30:23 -->> $GNRMC,133024.088,V,,,,,0.00,0.00,110180,,,N*5D
2017-05-26T21:30:23 -->> $GNVTG,0.00,T,,M,0.00,N,0.00,K,N*2C
2017-05-26T21:30:24 -->> $GNGGA,133025.088,,,,,0,0,,,M,,M,,*50
2017-05-26T21:30:24 -->> $GPGSA,A,1,,,,,,,,,,,,,,,*1E
2017-05-26T21:30:24 -->> $GLGSA,A,1,,,,,,,,,,,,,,,*02
2017-05-26T21:30:24 -->> $GPGSV,1,1,03,25,,,31,12,,,36,06,,,25*78
2017-05-26T21:30:24 -->> $GLGSV,1,1,00*65
2017-05-26T21:30:24 -->> $GNRMC,133025.088,V,,,,,0.00,0.00,110180,,,N*5C
2017-05-26T21:30:25 -->> $GNVTG,0.00,T,,M,0.00,N,0.00,K,N*2C
2017-05-26T21:30:25 -->> $GNGGA,133026.088,,,,,0,0,,,M,,M,,*53
2017-05-26T21:30:25 -->> $GPGSA,A,1,,,,,,,,,,,,,,,*1E
2017-05-26T21:30:25 -->> $GLGSA,A,1,,,,,,,,,,,,,,,*02
2017-05-26T21:30:25 -->> $GPGSV,1,1,03,25,,,31,12,,,36,06,,,25*78
2017-05-26T21:30:25 -->> $GLGSV,1,1,00*65
2017-05-26T21:30:25 -->> $GNRMC,133026.088,V,,,,,0.00,0.00,110180,,,N*5F
2017-05-26T21:30:25 -->> $GNVTG,0.00,T,,M,0.00,N,0.00,K,N*2C
2017-05-26T21:30:26 -->> $GNGGA,133027.088,,,,,0,0,,,M,,M,,*52
2017-05-26T21:30:26 -->> $GPGSA,A,1,,,,,,,,,,,,,,,*1E
2017-05-26T21:30:26 -->> $GLGSA,A,1,,,,,,,,,,,,,,,*02
2017-05-26T21:30:26 -->> $GPGSV,1,1,03,25,,,32,12,,,36,06,,,25*7B
2017-05-26T21:30:26 -->> $GLGSV,1,1,00*65
2017-05-26T21:30:26 -->> $GNRMC,133027.088,V,,,,,0.00,0.00,110180,,,N*5E
2017-05-26T21:30:27 -->> $GNVTG,0.00,T,,M,0.00,N,0.00,K,N*2C
2017-05-26T21:30:27 -->> $GNGGA,133028.088,,,,,0,0,,,M,,M,,*5D
2017-05-26T21:30:27 -->> $GPGSA,A,1,,,,,,,,,,,,,,,*1E
2017-05-26T21:30:27 -->> $GLGSA,A,1,,,,,,,,,,,,,,,*02
2017-05-26T21:30:27 -->> $GPGSV,1,1,03,25,,,32,12,,,36,06,,,25*7B
2017-05-26T21:30:27 -->> $GLGSV,1,1,00*65
2017-05-26T21:30:27 -->> $GNRMC,133028.088,V,,,,,0.00,0.00,110180,,,N*51
2017-05-26T21:30:27 -->> $GNVTG,0.00,T,,M,0.00,N,0.00,K,N*2C
2017-05-26T21:30:28 -->> $GNGGA,133029.088,,,,,0,0,,,M,,M,,*5C
2017-05-26T21:30:28 -->> $GPGSA,A,1,,,,,,,,,,,,,,,*1E
2017-05-26T21:30:28 -->> $GLGSA,A,1,,,,,,,,,,,,,,,*02
2017-05-26T21:30:28 -->> $GPGSV,1,1,03,25,,,32,12,,,36,06,,,25*7B
2017-05-26T21:30:28 -->> $GLGSV,1,1,00*65
2017-05-26T21:30:28 -->> $GNRMC,133029.088,V,,,,,0.00,0.00,110180,,,N*50
2017-05-26T21:30:29 -->> $GNVTG,0.00,T,,M,0.00,N,0.00,K,N*2C
2017-05-26T21:30:29 -->> $GNGGA,133030.088,,,,,0,0,,,M,,M,,*54
2017-05-26T21:30:29 -->> $GPGSA,A,1,,,,,,,,,,,,,,,*1E
2017-05-26T21:30:29 -->> $GLGSA,A,1,,,,,,,,,,,,,,,*02
2017-05-26T21:30:29 -->> $GPGSV,1,1,04,25,,,32,12,,,36,06,,,26,19,,,25*70
2017-05-26T21:30:29 -->> $GLGSV,1,1,00*65
2017-05-26T21:30:29 -->> $GNRMC,133030.088,V,,,,,0.00,0.00,260517,,,N*56
2017-05-26T21:30:30 -->> $GNVTG,0.00,T,,M,0.00,N,0.00,K,N*2C
2017-05-26T21:30:30 -->> $GNGGA,133031.088,,,,,0,0,,,M,,M,,*55
2017-05-26T21:30:30 -->> $GPGSA,A,1,,,,,,,,,,,,,,,*1E
2017-05-26T21:30:30 -->> $GLGSA,A,1,,,,,,,,,,,,,,,*02
2017-05-26T21:30:30 -->> $GPGSV,1,1,04,25,,,32,12,,,36,06,,,26,19,,,27*72
2017-05-26T21:30:30 -->> $GLGSV,1,1,00*65
2017-05-26T21:30:30 -->> $GNRMC,133031.088,V,,,,,0.00,0.00,260517,,,N*57
2017-05-26T21:30:31 -->> $GNVTG,0.00,T,,M,0.00,N,0.00,K,N*2C
2017-05-26T21:30:31 -->> $GNGGA,133032.088,,,,,0,0,,,M,,M,,*56
2017-05-26T21:30:31 -->> $GPGSA,A,1,,,,,,,,,,,,,,,*1E
2017-05-26T21:30:31 -->> $GLGSA,A,1,,,,,,,,,,,,,,,*02
2017-05-26T21:30:31 -->> $GPGSV,1,1,04,25,,,32,12,,,36,06,,,26,19,,,28*7D
2017-05-26T21:30:31 -->> $GLGSV,1,1,00*65
2017-05-26T21:30:31 -->> $GNRMC,133032.088,V,,,,,0.00,0.00,260517,,,N*54
2017-05-26T21:30:32 -->> $GNVTG,0.00,T,,M,0.00,N,0.00,K,N*2C
2017-05-26T21:30:32 -->> $GNGGA,133033.088,,,,,0,0,,,M,,M,,*57
2017-05-26T21:30:32 -->> $GPGSA,A,1,,,,,,,,,,,,,,,*1E
2017-05-26T21:30:32 -->> $GLGSA,A,1,,,,,,,,,,,,,,,*02
2017-05-26T21:30:32 -->> $GPGSV,1,1,04,25,,,32,12,,,36,06,,,26,19,,,29*7C
2017-05-26T21:30:32 -->> $GLGSV,1,1,00*65
2017-05-26T21:30:32 -->> $GNRMC,133033.088,V,,,,,0.00,0.00,260517,,,N*55
2017-05-26T21:30:33 -->> $GNVTG,0.00,T,,M,0.00,N,0.00,K,N*2C
2017-05-26T21:30:33 -->> $GNGGA,133034.088,,,,,0,0,,,M,,M,,*50
2017-05-26T21:30:33 -->> $GPGSA,A,1,,,,,,,,,,,,,,,*1E
2017-05-26T21:30:33 -->> $GLGSA,A,1,,,,,,,,,,,,,,,*02
2017-05-26T21:30:33 -->> $GPGSV,1,1,04,25,,,32,12,,,36,06,,,26,19,,,28*7D
2017-05-26T21:30:33 -->> $GLGSV,1,1,00*65
2017-05-26T21:30:33 -->> $GNRMC,133034.088,V,,,,,0.00,0.00,260517,,,N*52
2017-05-26T21:30:34 -->> $GNVTG,0.00,T,,M,0.00,N,0.00,K,N*2C
2017-05-26T21:30:34 -->> $GNGGA,133035.088,,,,,0,0,,,M,,M,,*51
2017-05-26T21:30:34 -->> $GPGSA,A,1,,,,,,,,,,,,,,,*1E
2017-05-26T21:30:34 -->> $GLGSA,A,1,,,,,,,,,,,,,,,*02
2017-05-26T21:30:34 -->> $GPGSV,1,1,04,25,,,32,12,,,36,06,,,25,19,,,29*7F
2017-05-26T21:30:34 -->> $GLGSV,1,1,00*65
2017-05-26T21:30:34 -->> $GNRMC,133035.088,V,,,,,0.00,0.00,260517,,,N*53
2017-05-26T21:30:34 -->> $GNVTG,0.00,T,,M,0.00,N,0.00,K,N*2C
2017-05-26T21:30:35 -->> $GNGGA,133036.088,,,,,0,0,,,M,,M,,*52
2017-05-26T21:30:35 -->> $GPGSA,A,1,,,,,,,,,,,,,,,*1E
2017-05-26T21:30:35 -->> $GLGSA,A,1,,,,,,,,,,,,,,,*02
2017-05-26T21:30:35 -->> $GPGSV,1,1,04,25,,,32,12,,,36,06,,,25,19,,,29*7F
2017-05-26T21:30:35 -->> $GLGSV,1,1,00*65
2017-05-26T21:30:35 -->> $GNRMC,133036.088,V,,,,,0.00,0.00,260517,,,N*50
2017-05-26T21:30:35 -->> $GNVTG,0.00,T,,M,0.00,N,0.00,K,N*2C
2017-05-26T21:30:36 -->> $GNGGA,133037.088,,,,,0,0,,,M,,M,,*53
2017-05-26T21:30:36 -->> $GPGSA,A,1,,,,,,,,,,,,,,,*1E
2017-05-26T21:30:36 -->> $GLGSA,A,1,,,,,,,,,,,,,,,*02
2017-05-26T21:30:36 -->> $GPGSV,2,1,05,25,,,32,12,,,36,06,,,25,19,,,29*7D
2017-05-26T21:30:36 -->> $GPGSV,2,2,05,02,,,23*7F
2017-05-26T21:30:36 -->> $GLGSV,1,1,00*65
2017-05-26T21:30:37 -->> $GNRMC,133037.088,V,,,,,0.00,0.00,260517,,,N*51
2017-05-26T21:30:37 -->> $GNVTG,0.00,T,,M,0.00,N,0.00,K,N*2C
2017-05-26T21:30:37 -->> $GNGGA,133038.088,,,,,0,0,,,M,,M,,*5C
2017-05-26T21:30:37 -->> $GPGSA,A,1,,,,,,,,,,,,,,,*1E
2017-05-26T21:30:37 -->> $GLGSA,A,1,,,,,,,,,,,,,,,*02
2017-05-26T21:30:37 -->> $GPGSV,2,1,05,25,,,32,12,,,36,06,,,25,19,,,29*7D
2017-05-26T21:30:37 -->> $GPGSV,2,2,05,02,,,24*78
2017-05-26T21:30:37 -->> $GLGSV,1,1,00*65
2017-05-26T21:30:37 -->> $GNRMC,133038.088,V,,,,,0.00,0.00,260517,,,N*5E
2017-05-26T21:30:38 -->> $GNVTG,0.00,T,,M,0.00,N,0.00,K,N*2C
2017-05-26T21:30:38 -->> $GNGGA,133039.088,,,,,0,0,,,M,,M,,*5D
2017-05-26T21:30:38 -->> $GPGSA,A,1,,,,,,,,,,,,,,,*1E
2017-05-26T21:30:38 -->> $GLGSA,A,1,,,,,,,,,,,,,,,*02
2017-05-26T21:30:38 -->> $GPGSV,2,1,05,25,,,32,12,,,36,06,,,25,19,,,29*7D
2017-05-26T21:30:38 -->> $GPGSV,2,2,05,02,,,24*78
2017-05-26T21:30:38 -->> $GLGSV,1,1,00*65
2017-05-26T21:30:39 -->> $GNRMC,133039.088,V,,,,,0.00,0.00,260517,,,N*5F
2017-05-26T21:30:39 -->> $GNVTG,0.00,T,,M,0.00,N,0.00,K,N*2C
2017-05-26T21:30:39 -->> $GNGGA,133040.088,,,,,0,0,,,M,,M,,*53
2017-05-26T21:30:39 -->> $GPGSA,A,1,,,,,,,,,,,,,,,*1E
2017-05-26T21:30:39 -->> $GLGSA,A,1,,,,,,,,,,,,,,,*02
2017-05-26T21:30:39 -->> $GPGSV,2,1,05,25,,,32,12,,,36,06,,,25,19,,,29*7D
2017-05-26T21:30:39 -->> $GPGSV,2,2,05,02,,,24*78
2017-05-26T21:30:39 -->> $GLGSV,1,1,00*65
2017-05-26T21:30:39 -->> $GNRMC,133040.088,V,,,,,0.00,0.00,260517,,,N*51
2017-05-26T21:30:40 -->> $GNVTG,0.00,T,,M,0.00,N,0.00,K,N*2C
2017-05-26T21:30:40 -->> $GNGGA,133041.088,,,,,0,0,,,M,,M,,*52
2017-05-26T21:30:40 -->> $GPGSA,A,1,,,,,,,,,,,,,,,*1E
2017-05-26T21:30:40 -->> $GLGSA,A,1,,,,,,,,,,,,,,,*02
2017-05-26T21:30:40 -->> $GPGSV,2,1,05,25,,,31,12,,,36,06,,,25,19,,,29*7E
2017-05-26T21:30:40 -->> $GPGSV,2,2,05,02,,,24*78
2017-05-26T21:30:40 -->> $GLGSV,1,1,00*65
2017-05-26T21:30:41 -->> $GNRMC,133041.088,V,,,,,0.00,0.00,260517,,,N*50
2017-05-26T21:30:41 -->> $GNVTG,0.00,T,,M,0.00,N,0.00,K,N*2C
2017-05-26T21:30:41 -->> $GNGGA,133042.086,,,,,0,0,,,M,,M,,*5F
2017-05-26T21:30:41 -->> $GPGSA,A,1,,,,,,,,,,,,,,,*1E
2017-05-26T21:30:41 -->> $GLGSA,A,1,,,,,,,,,,,,,,,*02
2017-05-26T21:30:41 -->> $GPGSV,2,1,05,25,,,31,12,,,36,06,,,25,19,,,29*7E
2017-05-26T21:30:41 -->> $GPGSV,2,2,05,02,,,24*78
2017-05-26T21:30:41 -->> $GLGSV,1,1,00*65
2017-05-26T21:30:42 -->> $GNRMC,133042.086,V,,,,,0.00,0.00,260517,,,N*5D
2017-05-26T21:30:42 -->> $GNVTG,0.00,T,,M,0.00,N,0.00,K,N*2C
2017-05-26T21:30:42 -->> $GNGGA,133043.086,,,,,0,0,,,M,,M,,*5E
2017-05-26T21:30:42 -->> $GPGSA,A,1,,,,,,,,,,,,,,,*1E
2017-05-26T21:30:42 -->> $GLGSA,A,1,,,,,,,,,,,,,,,*02
2017-05-26T21:30:42 -->> $GPGSV,2,1,05,25,,,31,12,,,36,06,,,25,19,,,29*7E
2017-05-26T21:30:42 -->> $GPGSV,2,2,05,02,,,24*78
2017-05-26T21:30:42 -->> $GLGSV,1,1,00*65
2017-05-26T21:30:43 -->> $GNRMC,133043.086,V,,,,,0.00,0.00,260517,,,N*5C
2017-05-26T21:30:43 -->> $GNVTG,0.00,T,,M,0.00,N,0.00,K,N*2C
2017-05-26T21:30:43 -->> $GNGGA,133044.086,,,,,0,0,,,M,,M,,*59
2017-05-26T21:30:43 -->> $GPGSA,A,1,,,,,,,,,,,,,,,*1E
2017-05-26T21:30:43 -->> $GLGSA,A,1,,,,,,,,,,,,,,,*02
2017-05-26T21:30:43 -->> $GPGSV,2,1,05,25,,,31,12,,,36,06,,,25,19,,,29*7E
2017-05-26T21:30:43 -->> $GPGSV,2,2,05,02,,,24*78
2017-05-26T21:30:43 -->> $GLGSV,1,1,00*65
2017-05-26T21:30:43 -->> $GNRMC,133044.086,V,,,,,0.00,0.00,260517,,,N*5B
2017-05-26T21:30:44 -->> $GNVTG,0.00,T,,M,0.00,N,0.00,K,N*2C
2017-05-26T21:30:44 -->> $GNGGA,133045.086,,,,,0,0,,,M,,M,,*58
2017-05-26T21:30:44 -->> $GPGSA,A,1,,,,,,,,,,,,,,,*1E
2017-05-26T21:30:44 -->> $GLGSA,A,1,,,,,,,,,,,,,,,*02
2017-05-26T21:30:44 -->> $GPGSV,2,1,05,25,,,31,12,,,36,06,,,24,19,,,29*7F
2017-05-26T21:30:44 -->> $GPGSV,2,2,05,02,,,24*78
2017-05-26T21:30:44 -->> $GLGSV,1,1,00*65
2017-05-26T21:30:44 -->> $GNRMC,133045.086,V,,,,,0.00,0.00,260517,,,N*5A
2017-05-26T21:30:45 -->> $GNVTG,0.00,T,,M,0.00,N,0.00,K,N*2C
2017-05-26T21:30:45 -->> $GNGGA,133046.086,,,,,0,0,,,M,,M,,*5B
2017-05-26T21:30:45 -->> $GPGSA,A,1,,,,,,,,,,,,,,,*1E
2017-05-26T21:30:45 -->> $GLGSA,A,1,,,,,,,,,,,,,,,*02
2017-05-26T21:30:45 -->> $GPGSV,2,1,05,25,,,31,12,,,35,06,,,25,19,,,29*7D
2017-05-26T21:30:45 -->> $GPGSV,2,2,05,02,,,24*78
2017-05-26T21:30:45 -->> $GLGSV,1,1,00*65
2017-05-26T21:30:45 -->> $GNRMC,133046.086,V,,,,,0.00,0.00,260517,,,N*59
2017-05-26T21:30:46 -->> $GNVTG,0.00,T,,M,0.00,N,0.00,K,N*2C
2017-05-26T21:30:46 -->> $GNGGA,133047.086,,,,,0,0,,,M,,M,,*5A
2017-05-26T21:30:46 -->> $GPGSA,A,1,,,,,,,,,,,,,,,*1E
2017-05-26T21:30:46 -->> $GLGSA,A,1,,,,,,,,,,,,,,,*02
2017-05-26T21:30:46 -->> $GPGSV,2,1,05,25,,,31,12,,,35,06,,,25,19,,,29*7D
2017-05-26T21:30:46 -->> $GPGSV,2,2,05,02,,,24*78
2017-05-26T21:30:46 -->> $GLGSV,1,1,00*65
2017-05-26T21:30:47 -->> $GNRMC,133047.086,V,,,,,0.00,0.00,260517,,,N*58
2017-05-26T21:30:47 -->> $GNVTG,0.00,T,,M,0.00,N,0.00,K,N*2C
2017-05-26T21:30:47 -->> $GNGGA,133048.086,,,,,0,0,,,M,,M,,*55
2017-05-26T21:30:47 -->> $GPGSA,A,1,,,,,,,,,,,,,,,*1E
2017-05-26T21:30:47 -->> $GLGSA,A,1,,,,,,,,,,,,,,,*02
2017-05-26T21:30:47 -->> $GPGSV,2,1,05,25,,,31,12,,,35,06,,,25,19,,,29*7D
2017-05-26T21:30:47 -->> $GPGSV,2,2,05,02,,,24*78
2017-05-26T21:30:47 -->> $GLGSV,1,1,00*65
2017-05-26T21:30:47 -->> $GNRMC,133048.086,V,,,,,0.00,0.00,260517,,,N*57
2017-05-26T21:30:48 -->> $GNVTG,0.00,T,,M,0.00,N,0.00,K,N*2C
2017-05-26T21:30:48 -->> $GNGGA,133049.086,,,,,0,0,,,M,,M,,*54
2017-05-26T21:30:48 -->> $GPGSA,A,1,,,,,,,,,,,,,,,*1E
2017-05-26T21:30:48 -->> $GLGSA,A,1,,,,,,,,,,,,,,,*02
2017-05-26T21:30:48 -->> $GPGSV,2,1,05,25,,,31,12,,,35,06,,,25,19,,,29*7D
2017-05-26T21:30:48 -->> $GPGSV,2,2,05,02,,,24*78
2017-05-26T21:30:48 -->> $GLGSV,1,1,00*65
2017-05-26T21:30:48 -->> $GNRMC,133049.086,V,,,,,0.00,0.00,260517,,,N*56
2017-05-26T21:30:49 -->> $GNVTG,0.00,T,,M,0.00,N,0.00,K,N*2C
2017-05-26T21:30:49 -->> $GNGGA,133050.086,,,,,0,0,,,M,,M,,*5C
2017-05-26T21:30:49 -->> $GPGSA,A,1,,,,,,,,,,,,,,,*1E
2017-05-26T21:30:49 -->> $GLGSA,A,1,,,,,,,,,,,,,,,*02
2017-05-26T21:30:49 -->> $GPGSV,2,1,05,25,,,31,12,,,35,06,,,25,19,,,29*7D
2017-05-26T21:30:49 -->> $GPGSV,2,2,05,02,,,24*78
2017-05-26T21:30:49 -->> $GLGSV,1,1,00*65
2017-05-26T21:30:50 -->> $GNRMC,133050.086,V,,,,,0.00,0.00,260517,,,N*5E
2017-05-26T21:30:50 -->> $GNVTG,0.00,T,,M,0.00,N,0.00,K,N*2C
2017-05-26T21:30:50 -->> $GNGGA,133051.086,,,,,0,0,,,M,,M,,*5D
2017-05-26T21:30:50 -->> $GPGSA,A,1,,,,,,,,,,,,,,,*1E
2017-05-26T21:30:50 -->> $GLGSA,A,1,,,,,,,,,,,,,,,*02
2017-05-26T21:30:50 -->> $GPGSV,2,1,05,25,,,31,12,,,35,06,,,25,19,,,28*7C
2017-05-26T21:30:50 -->> $GPGSV,2,2,05,02,,,24*78
2017-05-26T21:30:50 -->> $GLGSV,1,1,00*65
2017-05-26T21:30:51 -->> $GNRMC,133051.086,V,,,,,0.00,0.00,260517,,,N*5F
2017-05-26T21:30:51 -->> $GNVTG,0.00,T,,M,0.00,N,0.00,K,N*2C
2017-05-26T21:30:51 -->> $GNGGA,133052.086,,,,,0,0,,,M,,M,,*5E
2017-05-26T21:30:51 -->> $GPGSA,A,1,,,,,,,,,,,,,,,*1E
2017-05-26T21:30:51 -->> $GLGSA,A,1,,,,,,,,,,,,,,,*02
2017-05-26T21:30:51 -->> $GPGSV,2,1,05,25,,,31,12,,,35,06,,,25,19,,,28*7C
2017-05-26T21:30:51 -->> $GPGSV,2,2,05,02,,,24*78
2017-05-26T21:30:51 -->> $GLGSV,1,1,00*65
2017-05-26T21:30:52 -->> $GNRMC,133052.086,V,,,,,0.00,0.00,260517,,,N*5C
2017-05-26T21:30:52 -->> $GNVTG,0.00,T,,M,0.00,N,0.00,K,N*2C
2017-05-26T21:30:52 -->> $GNGGA,133053.086,,,,,0,0,,,M,,M,,*5F
2017-05-26T21:30:52 -->> $GPGSA,A,1,,,,,,,,,,,,,,,*1E
2017-05-26T21:30:52 -->> $GLGSA,A,1,,,,,,,,,,,,,,,*02
2017-05-26T21:30:52 -->> $GPGSV,2,1,05,25,,,31,12,,,35,06,,,25,19,,,28*7C
2017-05-26T21:30:52 -->> $GPGSV,2,2,05,02,,,24*78
2017-05-26T21:30:52 -->> $GLGSV,1,1,00*65
2017-05-26T21:30:53 -->> $GNRMC,133053.086,V,,,,,0.00,0.00,260517,,,N*5D
2017-05-26T21:30:53 -->> $GNVTG,0.00,T,,M,0.00,N,0.00,K,N*2C
2017-05-26T21:30:53 -->> $GNGGA,133054.086,,,,,0,0,,,M,,M,,*58
2017-05-26T21:30:53 -->> $GPGSA,A,1,,,,,,,,,,,,,,,*1E
2017-05-26T21:30:53 -->> $GLGSA,A,1,,,,,,,,,,,,,,,*02
2017-05-26T21:30:53 -->> $GPGSV,2,1,05,25,,,31,12,,,35,06,,,25,19,,,28*7C
2017-05-26T21:30:53 -->> $GPGSV,2,2,05,02,,,24*78
2017-05-26T21:30:53 -->> $GLGSV,1,1,00*65
2017-05-26T21:30:53 -->> $GNRMC,133054.086,V,,,,,0.00,0.00,260517,,,N*5A
2017-05-26T21:30:54 -->> $GNVTG,0.00,T,,M,0.00,N,0.00,K,N*2C
2017-05-26T21:30:54 -->> $GNGGA,133055.086,,,,,0,0,,,M,,M,,*59
2017-05-26T21:30:54 -->> $GPGSA,A,1,,,,,,,,,,,,,,,*1E
2017-05-26T21:30:54 -->> $GLGSA,A,1,,,,,,,,,,,,,,,*02
2017-05-26T21:30:54 -->> $GPGSV,2,1,05,25,,,31,12,,,35,06,,,25,19,,,28*7C
2017-05-26T21:30:54 -->> $GPGSV,2,2,05,02,,,24*78
2017-05-26T21:30:54 -->> $GLGSV,1,1,00*65
2017-05-26T21:30:54 -->> $GNRMC,133055.086,V,,,,,0.00,0.00,260517,,,N*5B
2017-05-26T21:30:55 -->> $GNVTG,0.00,T,,M,0.00,N,0.00,K,N*2C
2017-05-26T21:30:55 -->> $GNGGA,133056.086,,,,,0,0,,,M,,M,,*5A
2017-05-26T21:30:55 -->> $GPGSA,A,1,,,,,,,,,,,,,,,*1E
2017-05-26T21:30:55 -->> $GLGSA,A,1,,,,,,,,,,,,,,,*02
2017-05-26T21:30:55 -->> $GPGSV,2,1,05,25,,,31,12,,,35,06,,,25,19,,,28*7C
2017-05-26T21:30:55 -->> $GPGSV,2,2,05,02,,,24*78
2017-05-26T21:30:55 -->> $GLGSV,1,1,00*65
2017-05-26T21:30:56 -->> $GNRMC,133056.086,V,,,,,0.00,0.00,260517,,,N*58
2017-05-26T21:30:56 -->> $GNVTG,0.00,T,,M,0.00,N,0.00,K,N*2C
2017-05-26T21:30:56 -->> $GNGGA,133057.086,,,,,0,0,,,M,,M,,*5B
2017-05-26T21:30:56 -->> $GPGSA,A,1,,,,,,,,,,,,,,,*1E
2017-05-26T21:30:56 -->> $GLGSA,A,1,,,,,,,,,,,,,,,*02
2017-05-26T21:30:56 -->> $GPGSV,2,1,05,25,,,31,12,,,35,06,,,25,19,,,28*7C
2017-05-26T21:30:56 -->> $GPGSV,2,2,05,02,,,24*78
2017-05-26T21:30:56 -->> $GLGSV,1,1,00*65
2017-05-26T21:30:56 -->> $GNRMC,133057.086,V,,,,,0.00,0.00,260517,,,N*59
2017-05-26T21:30:57 -->> $GNVTG,0.00,T,,M,0.00,N,0.00,K,N*2C
2017-05-26T21:30:57 -->> $GNGGA,133058.086,,,,,0,0,,,M,,M,,*54
2017-05-26T21:30:57 -->> $GPGSA,A,1,,,,,,,,,,,,,,,*1E
2017-05-26T21:30:57 -->> $GLGSA,A,1,,,,,,,,,,,,,,,*02
2017-05-26T21:30:57 -->> $GPGSV,2,1,05,25,,,31,12,,,35,06,,,25,19,,,28*7C
2017-05-26T21:30:57 -->> $GPGSV,2,2,05,02,,,24*78
2017-05-26T21:30:57 -->> $GLGSV,1,1,00*65
2017-05-26T21:30:58 -->> $GNRMC,133058.086,V,,,,,0.00,0.00,260517,,,N*56
2017-05-26T21:30:58 -->> $GNVTG,0.00,T,,M,0.00,N,0.00,K,N*2C
2017-05-26T21:30:58 -->> $GNGGA,133059.086,,,,,0,0,,,M,,M,,*55
2017-05-26T21:30:58 -->> $GPGSA,A,1,,,,,,,,,,,,,,,*1E
2017-05-26T21:30:58 -->> $GLGSA,A,1,,,,,,,,,,,,,,,*02
2017-05-26T21:30:58 -->> $GPGSV,2,1,05,25,,,31,12,,,35,06,,,25,19,,,28*7C
2017-05-26T21:30:58 -->> $GPGSV,2,2,05,02,,,24*78
2017-05-26T21:30:58 -->> $GLGSV,1,1,00*65
2017-05-26T21:30:58 -->> $GNRMC,133059.086,V,,,,,0.00,0.00,260517,,,N*57
2017-05-26T21:30:59 -->> $GNVTG,0.00,T,,M,0.00,N,0.00,K,N*2C
2017-05-26T21:30:59 -->> $GNGGA,133100.083,,,,,0,0,,,M,,M,,*5D
2017-05-26T21:30:59 -->> $GPGSA,A,1,,,,,,,,,,,,,,,*1E
2017-05-26T21:30:59 -->> $GLGSA,A,1,,,,,,,,,,,,,,,*02
2017-05-26T21:30:59 -->> $GPGSV,2,1,07,12,43,250,35,06,37,059,25,42,37,124,,19,35,125,28*76
2017-05-26T21:31:00 -->> $GPGSV,2,2,07,25,25,299,31,193,,,,02,,,24*71
2017-05-26T21:31:00 -->> $GLGSV,1,1,00*65
2017-05-26T21:31:00 -->> $GNRMC,133100.083,V,,,,,0.34,0.00,260517,,,N*58
2017-05-26T21:31:00 -->> $GNVTG,0.00,T,,M,0.34,N,0.63,K,N*2E
2017-05-26T21:31:00 -->> $GNGGA,133101.083,3030.9457,N,10404.2896,E,1,4,1.47,583.3,M,-31.9,M,,*6E
2017-05-26T21:31:00 -->> $GPGSA,A,2,25,12,06,19,,,,,,,,,1.77,1.47,0.99*0A
2017-05-26T21:31:00 -->> $GLGSA,A,2,,,,,,,,,,,,,1.77,1.47,0.99*1C
2017-05-26T21:31:01 -->> $GPGSV,2,1,08,12,43,250,35,06,37,059,25,42,37,124,,19,35,125,28*79
2017-05-26T21:31:01 -->> $GPGSV,2,2,08,25,25,299,31,193,,,,05,,,24,02,,,24*7D
2017-05-26T21:31:01 -->> $GLGSV,1,1,00*65
2017-05-26T21:31:01 -->> $GNRMC,133101.083,A,3030.9457,N,10404.2896,E,0.65,192.71,260517,,,A*79
2017-05-26T21:31:01 -->> $GNVTG,192.71,T,,M,0.65,N,1.20,K,A*2F
2017-05-26T21:31:02 -->> $GNGGA,133103.000,3030.9457,N,10404.2896,E,1,4,1.47,578.3,M,-31.9,M,,*63
2017-05-26T21:31:02 -->> $GPGSA,A,2,25,12,06,19,,,,,,,,,1.77,1.47,0.99*0A
2017-05-26T21:31:02 -->> $GLGSA,A,2,,,,,,,,,,,,,1.77,1.47,0.99*1C
2017-05-26T21:31:02 -->> $GPGSV,2,1,08,12,43,250,35,06,37,059,25,42,37,124,,19,35,125,28*79
2017-05-26T21:31:02 -->> $GPGSV,2,2,08,25,25,299,31,193,,,,05,,,27,02,,,24*7E
2017-05-26T21:31:02 -->> $GLGSV,1,1,00*65
2017-05-26T21:31:03 -->> $GNRMC,133103.000,A,3030.9457,N,10404.2896,E,0.35,192.71,260517,,,A*75
2017-05-26T21:31:03 -->> $GNVTG,192.71,T,,M,0.35,N,0.64,K,A*2B
2017-05-26T21:31:03 -->> $GNGGA,133104.000,3030.9458,N,10404.2896,E,1,4,1.47,575.2,M,-31.9,M,,*67
2017-05-26T21:31:03 -->> $GPGSA,A,3,25,12,06,19,,,,,,,,,1.77,1.47,0.99*0B
2017-05-26T21:31:03 -->> $GLGSA,A,3,,,,,,,,,,,,,1.77,1.47,0.99*1D
2017-05-26T21:31:03 -->> $GPGSV,2,1,08,12,43,250,35,06,37,059,25,42,37,124,,19,35,125,28*79
2017-05-26T21:31:03 -->> $GPGSV,2,2,08,25,25,299,31,193,,,,05,,,25,02,,,24*7C
2017-05-26T21:31:03 -->> $GLGSV,1,1,00*65
2017-05-26T21:31:04 -->> $GNRMC,133104.000,A,3030.9458,N,10404.2896,E,0.18,192.71,260517,,,A*72
2017-05-26T21:31:04 -->> $GNVTG,192.71,T,,M,0.18,N,0.34,K,A*21
2017-05-26T21:31:04 -->> $GNGGA,133105.000,3030.9455,N,10404.2897,E,1,4,1.47,574.2,M,-31.9,M,,*6B
2017-05-26T21:31:04 -->> $GPGSA,A,3,25,12,06,19,,,,,,,,,1.77,1.47,0.99*0B
2017-05-26T21:31:04 -->> $GLGSA,A,3,,,,,,,,,,,,,1.77,1.47,0.99*1D
2017-05-26T21:31:04 -->> $GPGSV,2,1,08,12,43,250,35,06,37,059,25,42,37,124,,19,35,125,28*79
2017-05-26T21:31:04 -->> $GPGSV,2,2,08,25,25,299,31,193,,,,05,,,27,02,,,24*7E
2017-05-26T21:31:04 -->> $GLGSV,1,1,00*65
2017-05-26T21:31:05 -->> $GNRMC,133105.000,A,3030.9455,N,10404.2897,E,0.00,192.71,260517,,,A*76
2017-05-26T21:31:05 -->> $GNVTG,192.71,T,,M,0.00,N,0.00,K,A*2F
2017-05-26T21:31:05 -->> $GNGGA,133106.000,3030.9455,N,10404.2898,E,1,4,1.47,573.4,M,-31.9,M,,*66
2017-05-26T21:31:05 -->> $GPGSA,A,3,25,12,06,19,,,,,,,,,1.77,1.47,0.99*0B
2017-05-26T21:31:05 -->> $GLGSA,A,3,,,,,,,,,,,,,1.77,1.47,0.99*1D
2017-05-26T21:31:05 -->> $GPGSV,2,1,08,12,43,250,35,06,37,059,25,42,37,124,,19,35,125,28*79
2017-05-26T21:31:05 -->> $GPGSV,2,2,08,25,25,299,31,193,,,,05,,,27,02,,,24*7E
2017-05-26T21:31:05 -->> $GLGSV,1,1,00*65
2017-05-26T21:31:06 -->> $GNRMC,133106.000,A,3030.9455,N,10404.2898,E,0.00,192.71,260517,,,A*7A
2017-05-26T21:31:06 -->> $GNVTG,192.71,T,,M,0.00,N,0.00,K,A*2F
2017-05-26T21:31:06 -->> $GNGGA,133107.000,3030.9456,N,10404.2896,E,1,4,1.47,573.8,M,-31.9,M,,*66
2017-05-26T21:31:06 -->> $GPGSA,A,3,25,12,06,19,,,,,,,,,1.77,1.47,0.99*0B
2017-05-26T21:31:06 -->> $GLGSA,A,3,,,,,,,,,,,,,1.77,1.47,0.99*1D
2017-05-26T21:31:06 -->> $GPGSV,2,1,08,12,43,250,35,06,37,059,25,42,37,124,,19,35,125,28*79
2017-05-26T21:31:06 -->> $GPGSV,2,2,08,25,25,299,31,193,,,,05,,,27,02,,,24*7E
2017-05-26T21:31:06 -->> $GLGSV,1,1,00*65
2017-05-26T21:31:07 -->> $GNRMC,133107.000,A,3030.9456,N,10404.2896,E,0.00,192.71,260517,,,A*76
2017-05-26T21:31:07 -->> $GNVTG,192.71,T,,M,0.00,N,0.00,K,A*2F
2017-05-26T21:31:07 -->> $GNGGA,133108.000,3030.9456,N,10404.2896,E,1,4,1.47,573.8,M,-31.9,M,,*69
2017-05-26T21:31:07 -->> $GPGSA,A,3,25,12,06,19,,,,,,,,,1.77,1.47,0.99*0B
2017-05-26T21:31:07 -->> $GLGSA,A,3,,,,,,,,,,,,,1.77,1.47,0.99*1D
2017-05-26T21:31:07 -->> $GPGSV,2,1,08,12,43,250,35,06,37,059,25,42,37,124,,19,35,125,28*79
2017-05-26T21:31:07 -->> $GPGSV,2,2,08,25,25,299,31,193,,,,05,,,27,02,,,24*7E
2017-05-26T21:31:07 -->> $GLGSV,1,1,00*65
2017-05-26T21:31:08 -->> $GNRMC,133108.000,A,3030.9456,N,10404.2896,E,0.00,192.71,260517,,,A*79
2017-05-26T21:31:08 -->> $GNVTG,192.71,T,,M,0.00,N,0.00,K,A*2F
2017-05-26T21:31:08 -->> $GNGGA,133109.000,3030.9456,N,10404.2896,E,1,4,1.47,573.8,M,-31.9,M,,*68
2017-05-26T21:31:08 -->> $GPGSA,A,3,25,12,06,19,,,,,,,,,1.77,1.47,0.99*0B
2017-05-26T21:31:08 -->> $GLGSA,A,3,,,,,,,,,,,,,1.77,1.47,0.99*1D
2017-05-26T21:31:08 -->> $GPGSV,2,1,08,12,43,250,35,06,37,059,25,42,37,124,,19,35,125,28*79
2017-05-26T21:31:08 -->> $GPGSV,2,2,08,25,25,299,31,193,,,,05,,,27,02,,,25*7F
2017-05-26T21:31:08 -->> $GLGSV,1,1,00*65
2017-05-26T21:31:09 -->> $GNRMC,133109.000,A,3030.9456,N,10404.2896,E,0.00,192.71,260517,,,A*78
2017-05-26T21:31:09 -->> $GNVTG,192.71,T,,M,0.00,N,0.00,K,A*2F
2017-05-26T21:31:09 -->> $GNGGA,133110.000,3030.9456,N,10404.2896,E,1,4,1.47,573.8,M,-31.9,M,,*60
2017-05-26T21:31:09 -->> $GPGSA,A,3,25,12,06,19,,,,,,,,,1.77,1.47,0.99*0B
2017-05-26T21:31:09 -->> $GLGSA,A,3,,,,,,,,,,,,,1.77,1.47,0.99*1D
2017-05-26T21:31:09 -->> $GPGSV,2,1,08,12,43,250,35,06,37,059,25,19,35,125,28,44,35,237,*7C
2017-05-26T21:31:09 -->> $GPGSV,2,2,08,25,25,299,31,193,,,,05,,,25,02,,,25*7D
2017-05-26T21:31:09 -->> $GLGSV,1,1,00*65
2017-05-26T21:31:10 -->> $GNRMC,133110.000,A,3030.9456,N,10404.2896,E,0.00,192.71,260517,,,A*70
2017-05-26T21:31:10 -->> $GNVTG,192.71,T,,M,0.00,N,0.00,K,A*2F
2017-05-26T21:31:10 -->> $GNGGA,133111.000,3030.9456,N,10404.2896,E,1,4,1.47,573.8,M,-31.9,M,,*61
2017-05-26T21:31:10 -->> $GPGSA,A,3,25,12,06,19,,,,,,,,,1.77,1.47,0.99*0B
2017-05-26T21:31:10 -->> $GLGSA,A,3,,,,,,,,,,,,,1.77,1.47,0.99*1D
2017-05-26T21:31:10 -->> $GPGSV,2,1,08,12,43,250,35,06,37,059,25,19,35,125,28,44,35,237,*7C
2017-05-26T21:31:10 -->> $GPGSV,2,2,08,25,25,299,31,193,,,,05,,,25,02,,,25*7D
2017-05-26T21:31:11 -->> $GLGSV,1,1,00*65
2017-05-26T21:31:11 -->> $GNRMC,133111.000,A,3030.9456,N,10404.2896,E,0.00,192.71,260517,,,A*71
2017-05-26T21:31:11 -->> $GNVTG,192.71,T,,M,0.00,N,0.00,K,A*2F
2017-05-26T21:31:11 -->> $GNGGA,133112.000,3030.9456,N,10404.2896,E,1,4,1.47,573.8,M,-31.9,M,,*62
2017-05-26T21:31:11 -->> $GPGSA,A,3,25,12,06,19,,,,,,,,,1.77,1.47,0.99*0B
2017-05-26T21:31:11 -->> $GLGSA,A,3,,,,,,,,,,,,,1.77,1.47,0.99*1D
2017-05-26T21:31:11 -->> $GPGSV,2,1,08,12,43,250,35,06,37,059,25,19,35,125,28,44,35,237,*7C
2017-05-26T21:31:11 -->> $GPGSV,2,2,08,25,25,299,31,193,,,,05,,,26,02,,,25*7E
2017-05-26T21:31:12 -->> $GLGSV,1,1,00*65
2017-05-26T21:31:12 -->> $GNRMC,133112.000,A,3030.9456,N,10404.2896,E,0.00,192.71,260517,,,A*72
2017-05-26T21:31:12 -->> $GNVTG,192.71,T,,M,0.00,N,0.00,K,A*2F
2017-05-26T21:31:12 -->> $GNGGA,133113.000,3030.9456,N,10404.2896,E,1,4,1.47,573.8,M,-31.9,M,,*63
2017-05-26T21:31:12 -->> $GPGSA,A,3,25,12,06,19,,,,,,,,,1.77,1.47,0.99*0B
2017-05-26T21:31:12 -->> $GLGSA,A,3,,,,,,,,,,,,,1.77,1.47,0.99*1D
2017-05-26T21:31:12 -->> $GPGSV,2,1,08,12,43,250,35,06,37,059,25,19,35,125,28,44,35,237,*7C
2017-05-26T21:31:12 -->> $GPGSV,2,2,08,25,25,299,31,193,,,,05,,,26,02,,,25*7E
2017-05-26T21:31:12 -->> $GLGSV,1,1,00*65
2017-05-26T21:31:13 -->> $GNRMC,133113.000,A,3030.9456,N,10404.2896,E,0.00,192.71,260517,,,A*73
2017-05-26T21:31:13 -->> $GNVTG,192.71,T,,M,0.00,N,0.00,K,A*2F
2017-05-26T21:31:13 -->> $GNGGA,133114.000,3030.9456,N,10404.2896,E,1,4,1.47,573.8,M,-31.9,M,,*64
2017-05-26T21:31:13 -->> $GPGSA,A,3,25,12,06,19,,,,,,,,,1.77,1.47,0.99*0B
2017-05-26T21:31:13 -->> $GLGSA,A,3,,,,,,,,,,,,,1.77,1.47,0.99*1D
2017-05-26T21:31:13 -->> $GPGSV,2,1,08,12,43,250,35,06,37,059,25,19,35,125,28,44,35,237,*7C
2017-05-26T21:31:13 -->> $GPGSV,2,2,08,25,25,299,31,193,,,,05,,,26,02,,,25*7E
2017-05-26T21:31:13 -->> $GLGSV,1,1,00*65
2017-05-26T21:31:14 -->> $GNRMC,133114.000,A,3030.9456,N,10404.2896,E,0.00,192.71,260517,,,A*74
2017-05-26T21:31:14 -->> $GNVTG,192.71,T,,M,0.00,N,0.00,K,A*2F
2017-05-26T21:31:14 -->> $GNGGA,133115.000,3030.9456,N,10404.2896,E,1,4,1.47,573.8,M,-31.9,M,,*65
2017-05-26T21:31:14 -->> $GPGSA,A,3,25,12,06,19,,,,,,,,,1.77,1.47,0.99*0B
2017-05-26T21:31:14 -->> $GLGSA,A,3,,,,,,,,,,,,,1.77,1.47,0.99*1D
2017-05-26T21:31:14 -->> $GPGSV,2,1,08,12,43,250,35,06,37,059,25,19,35,125,28,44,35,237,*7C
2017-05-26T21:31:14 -->> $GPGSV,2,2,08,25,25,299,31,193,,,,05,,,26,02,,,25*7E
2017-05-26T21:31:14 -->> $GLGSV,1,1,00*65
2017-05-26T21:31:15 -->> $GNRMC,133115.000,A,3030.9456,N,10404.2896,E,0.00,192.71,260517,,,A*75
2017-05-26T21:31:15 -->> $GNVTG,192.71,T,,M,0.00,N,0.00,K,A*2F
2017-05-26T21:31:15 -->> $GNGGA,133116.000,3030.9456,N,10404.2896,E,1,4,1.47,573.8,M,-31.9,M,,*66
2017-05-26T21:31:15 -->> $GPGSA,A,3,25,12,06,19,,,,,,,,,1.77,1.47,0.99*0B
2017-05-26T21:31:15 -->> $GLGSA,A,3,,,,,,,,,,,,,1.77,1.47,0.99*1D
2017-05-26T21:31:15 -->> $GPGSV,2,1,08,12,43,250,35,06,37,059,25,19,35,125,28,44,35,237,*7C
2017-05-26T21:31:15 -->> $GPGSV,2,2,08,25,25,299,31,193,,,,05,,,26,02,,,25*7E
2017-05-26T21:31:15 -->> $GLGSV,1,1,00*65
2017-05-26T21:31:16 -->> $GNRMC,133116.000,A,3030.9456,N,10404.2896,E,0.00,192.71,260517,,,A*76
2017-05-26T21:31:16 -->> $GNVTG,192.71,T,,M,0.00,N,0.00,K,A*2F
2017-05-26T21:31:16 -->> $GNGGA,133117.000,3030.9456,N,10404.2896,E,1,4,1.47,573.8,M,-31.9,M,,*67
2017-05-26T21:31:16 -->> $GPGSA,A,3,25,12,06,19,,,,,,,,,1.77,1.47,0.99*0B
2017-05-26T21:31:16 -->> $GLGSA,A,3,,,,,,,,,,,,,1.77,1.47,0.99*1D
2017-05-26T21:31:16 -->> $GPGSV,2,1,08,12,43,250,35,06,37,059,25,19,35,125,28,44,35,237,*7C
2017-05-26T21:31:16 -->> $GPGSV,2,2,08,25,25,299,31,193,,,,05,,,26,02,,,26*7D
2017-05-26T21:31:16 -->> $GLGSV,1,1,00*65
2017-05-26T21:31:17 -->> $GNRMC,133117.000,A,3030.9456,N,10404.2896,E,0.00,192.71,260517,,,A*77
2017-05-26T21:31:17 -->> $GNVTG,192.71,T,,M,0.00,N,0.00,K,A*2F
2017-05-26T21:31:17 -->> $GNGGA,133118.000,3030.9456,N,10404.2896,E,1,4,1.47,573.8,M,-31.9,M,,*68
2017-05-26T21:31:17 -->> $GPGSA,A,3,25,12,06,19,,,,,,,,,1.77,1.47,0.99*0B
2017-05-26T21:31:17 -->> $GLGSA,A,3,,,,,,,,,,,,,1.77,1.47,0.99*1D
2017-05-26T21:31:17 -->> $GPGSV,2,1,08,12,43,250,35,06,37,059,25,19,35,125,28,44,35,237,*7C
2017-05-26T21:31:17 -->> $GPGSV,2,2,08,25,25,299,31,193,,,,05,,,26,02,,,25*7E
2017-05-26T21:31:17 -->> $GLGSV,1,1,00*65
2017-05-26T21:31:18 -->> $GNRMC,133118.000,A,3030.9456,N,10404.2896,E,0.00,192.71,260517,,,A*78
2017-05-26T21:31:18 -->> $GNVTG,192.71,T,,M,0.00,N,0.00,K,A*2F
2017-05-26T21:31:18 -->> $GNGGA,133119.000,3030.9456,N,10404.2896,E,1,4,1.47,573.8,M,-31.9,M,,*69
2017-05-26T21:31:18 -->> $GPGSA,A,3,25,12,06,19,,,,,,,,,1.77,1.47,0.99*0B
2017-05-26T21:31:18 -->> $GLGSA,A,3,,,,,,,,,,,,,1.77,1.47,0.99*1D
2017-05-26T21:31:18 -->> $GPGSV,2,1,08,12,43,250,35,06,37,059,25,19,35,125,28,44,35,237,*7C
2017-05-26T21:31:18 -->> $GPGSV,2,2,08,25,25,299,31,193,,,,05,,,26,02,,,25*7E
2017-05-26T21:31:18 -->> $GLGSV,1,1,00*65
2017-05-26T21:31:19 -->> $GNRMC,133119.000,A,3030.9456,N,10404.2896,E,0.00,192.71,260517,,,A*79
2017-05-26T21:31:19 -->> $GNVTG,192.71,T,,M,0.00,N,0.00,K,A*2F
2017-05-26T21:31:19 -->> $GNGGA,133120.000,3030.9456,N,10404.2896,E,1,4,1.47,573.8,M,-31.9,M,,*63
2017-05-26T21:31:19 -->> $GPGSA,A,3,25,12,06,19,,,,,,,,,1.77,1.47,0.99*0B
2017-05-26T21:31:19 -->> $GLGSA,A,3,,,,,,,,,,,,,1.77,1.47,0.99*1D
2017-05-26T21:31:19 -->> $GPGSV,2,1,08,12,43,250,35,06,37,059,25,19,35,125,28,40,34,238,*76
2017-05-26T21:31:19 -->> $GPGSV,2,2,08,25,25,299,31,193,,,,05,,,26,02,,,25*7E
2017-05-26T21:31:19 -->> $GLGSV,1,1,00*65
2017-05-26T21:31:20 -->> $GNRMC,133120.000,A,3030.9456,N,10404.2896,E,0.00,192.71,260517,,,A*73
2017-05-26T21:31:20 -->> $GNVTG,192.71,T,,M,0.00,N,0.00,K,A*2F
2017-05-26T21:31:20 -->> $GNGGA,133121.000,3030.9456,N,10404.2896,E,1,4,1.47,573.8,M,-31.9,M,,*62
2017-05-26T21:31:20 -->> $GPGSA,A,3,25,12,06,19,,,,,,,,,1.77,1.47,0.99*0B
2017-05-26T21:31:20 -->> $GLGSA,A,3,,,,,,,,,,,,,1.77,1.47,0.99*1D
2017-05-26T21:31:20 -->> $GPGSV,2,1,08,12,43,250,35,06,37,059,25,19,35,125,28,40,34,238,*76
2017-05-26T21:31:20 -->> $GPGSV,2,2,08,25,25,299,31,193,,,,05,,,26,02,,,25*7E
2017-05-26T21:31:21 -->> $GLGSV,1,1,00*65
2017-05-26T21:31:21 -->> $GNRMC,133121.000,A,3030.9456,N,10404.2896,E,0.00,192.71,260517,,,A*72
2017-05-26T21:31:21 -->> $GNVTG,192.71,T,,M,0.00,N,0.00,K,A*2F
2017-05-26T21:31:21 -->> $GNGGA,133122.000,3030.9456,N,10404.2896,E,1,4,1.47,573.8,M,-31.9,M,,*61
2017-05-26T21:31:21 -->> $GPGSA,A,3,25,12,06,19,,,,,,,,,1.77,1.47,0.99*0B
2017-05-26T21:31:21 -->> $GLGSA,A,3,,,,,,,,,,,,,1.77,1.47,0.99*1D
2017-05-26T21:31:21 -->> $GPGSV,2,1,08,12,43,250,35,06,37,059,25,19,35,125,28,40,34,238,*76
2017-05-26T21:31:21 -->> $GPGSV,2,2,08,25,25,299,31,193,,,,05,,,26,02,,,25*7E
2017-05-26T21:31:22 -->> $GLGSV,1,1,00*65
2017-05-26T21:31:22 -->> $GNRMC,133122.000,A,3030.9456,N,10404.2896,E,0.00,192.71,260517,,,A*71
2017-05-26T21:31:22 -->> $GNVTG,192.71,T,,M,0.00,N,0.00,K,A*2F
2017-05-26T21:31:22 -->> $GNGGA,133123.000,3030.9456,N,10404.2896,E,1,4,1.47,573.8,M,-31.9,M,,*60
2017-05-26T21:31:22 -->> $GPGSA,A,3,25,12,06,19,,,,,,,,,1.77,1.47,0.99*0B
2017-05-26T21:31:22 -->> $GLGSA,A,3,,,,,,,,,,,,,1.77,1.47,0.99*1D
2017-05-26T21:31:22 -->> $GPGSV,2,1,08,12,43,250,35,06,37,059,25,19,35,125,28,40,34,238,*76
2017-05-26T21:31:22 -->> $GPGSV,2,2,08,25,25,299,31,193,,,,05,,,26,02,,,25*7E
2017-05-26T21:31:22 -->> $GLGSV,1,1,00*65
2017-05-26T21:31:23 -->> $GNRMC,133123.000,A,3030.9456,N,10404.2896,E,0.00,192.71,260517,,,A*70
2017-05-26T21:31:23 -->> $GNVTG,192.71,T,,M,0.00,N,0.00,K,A*2F
2017-05-26T21:31:23 -->> $GNGGA,133124.000,3030.9456,N,10404.2896,E,1,4,1.47,573.8,M,-31.9,M,,*67
2017-05-26T21:31:23 -->> $GPGSA,A,3,25,12,06,19,,,,,,,,,1.77,1.47,0.99*0B
2017-05-26T21:31:23 -->> $GLGSA,A,3,,,,,,,,,,,,,1.77,1.47,0.99*1D
2017-05-26T21:31:23 -->> $GPGSV,2,1,08,12,43,250,35,06,37,059,25,19,35,125,28,40,34,238,*76
2017-05-26T21:31:23 -->> $GPGSV,2,2,08,25,25,299,31,193,,,,05,,,26,02,,,25*7E
2017-05-26T21:31:23 -->> $GLGSV,1,1,00*65
2017-05-26T21:31:24 -->> $GNRMC,133124.000,A,3030.9456,N,10404.2896,E,0.00,192.71,260517,,,A*77
2017-05-26T21:31:24 -->> $GNVTG,192.71,T,,M,0.00,N,0.00,K,A*2F
2017-05-26T21:31:24 -->> $GNGGA,133125.000,3030.9456,N,10404.2896,E,1,5,1.33,573.8,M,-31.9,M,,*64
2017-05-26T21:31:24 -->> $GPGSA,A,3,25,12,06,19,02,,,,,,,,1.64,1.33,0.96*07
2017-05-26T21:31:24 -->> $GLGSA,A,3,,,,,,,,,,,,,1.64,1.33,0.96*13
2017-05-26T21:31:24 -->> $GPGSV,2,1,08,02,59,349,24,12,43,250,35,06,37,059,25,19,35,125,28*7A
2017-05-26T21:31:24 -->> $GPGSV,2,2,08,40,34,238,,25,25,299,31,193,,,,05,,,26*41
2017-05-26T21:31:25 -->> $GLGSV,1,1,00*65
2017-05-26T21:31:25 -->> $GNRMC,133125.000,A,3030.9456,N,10404.2896,E,0.00,192.71,260517,,,A*76
2017-05-26T21:31:25 -->> $GNVTG,192.71,T,,M,0.00,N,0.00,K,A*2F
2017-05-26T21:31:25 -->> $GNGGA,133126.000,3030.9456,N,10404.2896,E,1,5,1.33,573.8,M,-31.9,M,,*67
2017-05-26T21:31:25 -->> $GPGSA,A,3,25,12,06,19,02,,,,,,,,1.64,1.33,0.96*07
2017-05-26T21:31:25 -->> $GLGSA,A,3,,,,,,,,,,,,,1.64,1.33,0.96*13
2017-05-26T21:31:25 -->> $GPGSV,2,1,08,02,59,349,24,12,43,250,35,06,37,059,25,19,35,125,28*7A
2017-05-26T21:31:25 -->> $GPGSV,2,2,08,40,34,238,,25,25,299,31,193,,,,05,,,27*40
2017-05-26T21:31:26 -->> $GLGSV,1,1,00*65
2017-05-26T21:31:26 -->> $GNRMC,133126.000,A,3030.9456,N,10404.2896,E,0.00,192.71,260517,,,A*75
2017-05-26T21:31:26 -->> $GNVTG,192.71,T,,M,0.00,N,0.00,K,A*2F
2017-05-26T21:31:26 -->> $GNGGA,133127.000,3030.9456,N,10404.2896,E,1,5,1.33,573.8,M,-31.9,M,,*66
2017-05-26T21:31:26 -->> $GPGSA,A,3,25,12,06,19,02,,,,,,,,1.64,1.33,0.96*07
2017-05-26T21:31:26 -->> $GLGSA,A,3,,,,,,,,,,,,,1.64,1.33,0.96*13
2017-05-26T21:31:26 -->> $GPGSV,2,1,08,02,59,349,24,12,43,250,35,06,37,059,25,19,35,125,28*7A
2017-05-26T21:31:26 -->> $GPGSV,2,2,08,40,34,238,,25,25,299,31,193,,,,05,,,26*41
2017-05-26T21:31:27 -->> $GLGSV,1,1,00*65
2017-05-26T21:31:27 -->> $GNRMC,133127.000,A,3030.9456,N,10404.2896,E,0.00,192.71,260517,,,A*74
2017-05-26T21:31:27 -->> $GNVTG,192.71,T,,M,0.00,N,0.00,K,A*2F
2017-05-26T21:31:27 -->> $GNGGA,133128.000,3030.9456,N,10404.2896,E,1,5,1.33,573.8,M,-31.9,M,,*69
2017-05-26T21:31:27 -->> $GPGSA,A,3,25,12,06,19,02,,,,,,,,1.64,1.33,0.96*07
2017-05-26T21:31:27 -->> $GLGSA,A,3,,,,,,,,,,,,,1.64,1.33,0.96*13
2017-05-26T21:31:27 -->> $GPGSV,2,1,08,02,59,349,24,12,43,250,34,06,37,059,25,19,35,125,28*7B
2017-05-26T21:31:27 -->> $GPGSV,2,2,08,40,34,238,,25,26,299,31,193,,,,05,,,26*42
2017-05-26T21:31:28 -->> $GLGSV,1,1,00*65
2017-05-26T21:31:28 -->> $GNRMC,133128.000,A,3030.9456,N,10404.2896,E,0.00,192.71,260517,,,A*7B
2017-05-26T21:31:28 -->> $GNVTG,192.71,T,,M,0.00,N,0.00,K,A*2F
2017-05-26T21:31:28 -->> $GNGGA,133129.000,3030.9456,N,10404.2896,E,1,5,1.33,573.8,M,-31.9,M,,*68
2017-05-26T21:31:28 -->> $GPGSA,A,3,25,12,06,19,02,,,,,,,,1.64,1.33,0.96*07
2017-05-26T21:31:28 -->> $GLGSA,A,3,,,,,,,,,,,,,1.64,1.33,0.96*13
2017-05-26T21:31:28 -->> $GPGSV,2,1,08,02,59,349,24,12,43,250,34,06,37,059,24,19,35,125,28*7A
2017-05-26T21:31:28 -->> $GPGSV,2,2,08,40,34,238,28,25,26,299,31,193,,,,05,,,26*48
2017-05-26T21:31:29 -->> $GLGSV,1,1,00*65
2017-05-26T21:31:29 -->> $GNRMC,133129.000,A,3030.9456,N,10404.2896,E,0.00,192.71,260517,,,A*7A
2017-05-26T21:31:29 -->> $GNVTG,192.71,T,,M,0.00,N,0.00,K,A*2F
2017-05-26T21:31:29 -->> $GNGGA,133130.000,3030.9456,N,10404.2896,E,1,5,1.33,573.8,M,-31.9,M,,*60
2017-05-26T21:31:29 -->> $GPGSA,A,3,25,12,06,19,02,,,,,,,,1.64,1.33,0.96*07
2017-05-26T21:31:29 -->> $GLGSA,A,3,,,,,,,,,,,,,1.64,1.33,0.96*13
2017-05-26T21:31:29 -->> $GPGSV,2,1,08,02,59,349,24,12,43,250,35,06,37,059,24,19,35,125,28*7B
2017-05-26T21:31:29 -->> $GPGSV,2,2,08,40,34,238,28,25,26,299,31,193,,,,05,,,26*48
2017-05-26T21:31:30 -->> $GLGSV,1,1,00*65
2017-05-26T21:31:30 -->> $GNRMC,133130.000,A,3030.9456,N,10404.2896,E,0.00,192.71,260517,,,A*72
2017-05-26T21:31:30 -->> $GNVTG,192.71,T,,M,0.00,N,0.00,K,A*2F
2017-05-26T21:31:30 -->> $GNGGA,133131.000,3030.9456,N,10404.2896,E,1,6,1.25,573.8,M,-31.9,M,,*65
2017-05-26T21:31:30 -->> $GPGSA,A,3,25,12,06,19,05,02,,,,,,,1.56,1.25,0.93*01
2017-05-26T21:31:30 -->> $GLGSA,A,3,,,,,,,,,,,,,1.56,1.25,0.93*10
2017-05-26T21:31:31 -->> $GPGSV,2,1,08,05,64,236,27,02,59,349,24,12,43,250,35,06,37,059,24*7C
2017-05-26T21:31:31 -->> $GPGSV,2,2,08,19,35,125,28,40,34,238,28,25,26,299,31,193,,,*7B
2017-05-26T21:31:31 -->> $GLGSV,1,1,00*65
2017-05-26T21:31:31 -->> $GNRMC,133131.000,A,3030.9456,N,10404.2896,E,0.00,192.71,260517,,,A*73
2017-05-26T21:31:31 -->> $GNVTG,192.71,T,,M,0.00,N,0.00,K,A*2F
2017-05-26T21:31:31 -->> $GNGGA,133132.000,3030.9456,N,10404.2896,E,1,6,1.25,573.8,M,-31.9,M,,*66
2017-05-26T21:31:31 -->> $GPGSA,A,3,25,12,06,19,05,02,,,,,,,1.56,1.25,0.93*01
2017-05-26T21:31:31 -->> $GLGSA,A,3,,,,,,,,,,,,,1.56,1.25,0.93*10
2017-05-26T21:31:32 -->> $GPGSV,2,1,08,05,64,236,27,02,59,349,24,12,43,250,35,06,37,059,24*7C
2017-05-26T21:31:32 -->> $GPGSV,2,2,08,19,35,125,28,40,34,238,28,25,26,299,31,193,,,*7B
2017-05-26T21:31:32 -->> $GLGSV,1,1,00*65
2017-05-26T21:31:32 -->> $GNRMC,133132.000,A,3030.9456,N,10404.2896,E,0.00,192.71,260517,,,A*70
2017-05-26T21:31:32 -->> $GNVTG,192.71,T,,M,0.00,N,0.00,K,A*2F
2017-05-26T21:31:32 -->> $GNGGA,133133.000,3030.9456,N,10404.2896,E,1,6,1.26,573.8,M,-31.9,M,,*64
2017-05-26T21:31:32 -->> $GPGSA,A,3,25,12,06,19,05,02,,,,,,,2.84,1.26,2.55*06
2017-05-26T21:31:32 -->> $GLGSA,A,3,,,,,,,,,,,,,2.84,1.26,2.55*17
2017-05-26T21:31:33 -->> $GPGSV,2,1,08,05,64,236,26,02,59,349,24,12,43,250,35,06,37,059,24*7D
2017-05-26T21:31:33 -->> $GPGSV,2,2,08,19,35,125,28,40,34,238,28,25,26,299,31,193,,,*7B
2017-05-26T21:31:33 -->> $GLGSV,1,1,00*65
2017-05-26T21:31:33 -->> $GNRMC,133133.000,A,3030.9456,N,10404.2896,E,0.00,192.71,260517,,,A*71
2017-05-26T21:31:33 -->> $GNVTG,192.71,T,,M,0.00,N,0.00,K,A*2F
2017-05-26T21:31:33 -->> $GNGGA,133134.000,3030.9456,N,10404.2896,E,1,6,1.25,573.8,M,-31.9,M,,*60
2017-05-26T21:31:33 -->> $GPGSA,A,3,25,12,06,19,05,02,,,,,,,1.56,1.25,0.93*01
2017-05-26T21:31:33 -->> $GLGSA,A,3,,,,,,,,,,,,,1.56,1.25,0.93*10
2017-05-26T21:31:34 -->> $GPGSV,2,1,08,05,64,236,26,02,59,349,24,12,43,250,35,06,37,059,24*7D
2017-05-26T21:31:34 -->> $GPGSV,2,2,08,19,35,125,28,40,34,238,28,25,26,299,31,193,,,*7B
2017-05-26T21:31:34 -->> $GLGSV,1,1,00*65
2017-05-26T21:31:34 -->> $GNRMC,133134.000,A,3030.9456,N,10404.2896,E,0.00,192.71,260517,,,A*76
2017-05-26T21:31:34 -->> $GNVTG,192.71,T,,M,0.00,N,0.00,K,A*2F
2017-05-26T21:31:34 -->> $GNGGA,133135.000,3030.9456,N,10404.2896,E,1,6,1.25,573.8,M,-31.9,M,,*61
2017-05-26T21:31:34 -->> $GPGSA,A,3,25,12,06,19,05,02,,,,,,,1.56,1.25,0.93*01
2017-05-26T21:31:34 -->> $GLGSA,A,3,,,,,,,,,,,,,1.56,1.25,0.93*10
2017-05-26T21:31:35 -->> $GPGSV,2,1,08,05,64,236,26,02,59,349,24,12,43,250,35,06,37,059,24*7D
2017-05-26T21:31:35 -->> $GPGSV,2,2,08,19,35,125,28,40,34,238,28,25,26,299,31,193,,,*7B
2017-05-26T21:31:35 -->> $GLGSV,1,1,00*65
2017-05-26T21:31:35 -->> $GNRMC,133135.000,A,3030.9456,N,10404.2896,E,0.00,192.71,260517,,,A*77
2017-05-26T21:31:35 -->> $GNVTG,192.71,T,,M,0.00,N,0.00,K,A*2F
2017-05-26T21:31:35 -->> $GNGGA,133136.000,3030.9456,N,10404.2896,E,1,6,1.26,573.8,M,-31.9,M,,*61
2017-05-26T21:31:35 -->> $GPGSA,A,3,25,12,06,19,05,02,,,,,,,2.84,1.26,2.55*06
2017-05-26T21:31:35 -->> $GLGSA,A,3,,,,,,,,,,,,,2.84,1.26,2.55*17
2017-05-26T21:31:36 -->> $GPGSV,2,1,08,05,64,236,26,02,59,349,24,12,43,250,35,06,37,059,24*7D
2017-05-26T21:31:36 -->> $GPGSV,2,2,08,19,35,125,28,50,33,120,,25,26,299,31,193,,,*7D
2017-05-26T21:31:36 -->> $GLGSV,1,1,00*65
2017-05-26T21:31:36 -->> $GNRMC,133136.000,A,3030.9456,N,10404.2896,E,0.00,192.71,260517,,,A*74
2017-05-26T21:31:36 -->> $GNVTG,192.71,T,,M,0.00,N,0.00,K,A*2F
2017-05-26T21:31:36 -->> $GNGGA,133137.000,3030.9456,N,10404.2896,E,1,6,1.25,573.8,M,-31.9,M,,*63
2017-05-26T21:31:36 -->> $GPGSA,A,3,25,12,06,19,05,02,,,,,,,1.56,1.25,0.93*01
2017-05-26T21:31:36 -->> $GLGSA,A,3,,,,,,,,,,,,,1.56,1.25,0.93*10
2017-05-26T21:31:37 -->> $GPGSV,2,1,08,05,64,236,26,02,59,349,24,12,43,250,35,06,37,059,24*7D
2017-05-26T21:31:37 -->> $GPGSV,2,2,08,19,35,125,28,50,33,120,,25,26,299,31,193,,,*7D
2017-05-26T21:31:37 -->> $GLGSV,1,1,00*65
2017-05-26T21:31:37 -->> $GNRMC,133137.000,A,3030.9456,N,10404.2896,E,0.00,192.71,260517,,,A*75
2017-05-26T21:31:37 -->> $GNVTG,192.71,T,,M,0.00,N,0.00,K,A*2F
2017-05-26T21:31:37 -->> $GNGGA,133138.000,3030.9456,N,10404.2896,E,1,6,1.25,573.8,M,-31.9,M,,*6C
2017-05-26T21:31:37 -->> $GPGSA,A,3,25,12,06,19,05,02,,,,,,,1.56,1.25,0.93*01
2017-05-26T21:31:37 -->> $GLGSA,A,3,,,,,,,,,,,,,1.56,1.25,0.93*10
2017-05-26T21:31:38 -->> $GPGSV,2,1,08,05,64,236,26,02,59,349,24,12,43,250,35,06,37,059,24*7D
2017-05-26T21:31:38 -->> $GPGSV,2,2,08,19,35,125,28,50,33,120,,25,26,299,31,193,,,*7D
2017-05-26T21:31:38 -->> $GLGSV,1,1,00*65
2017-05-26T21:31:38 -->> $GNRMC,133138.000,A,3030.9456,N,10404.2896,E,0.00,192.71,260517,,,A*7A
2017-05-26T21:31:38 -->> $GNVTG,192.71,T,,M,0.00,N,0.00,K,A*2F
2017-05-26T21:31:38 -->> $GNGGA,133139.000,3030.9456,N,10404.2896,E,1,6,1.25,573.8,M,-31.9,M,,*6D
2017-05-26T21:31:38 -->> $GPGSA,A,3,25,12,06,19,05,02,,,,,,,1.56,1.25,0.93*01
2017-05-26T21:31:38 -->> $GLGSA,A,3,,,,,,,,,,,,,1.56,1.25,0.93*10
2017-05-26T21:31:39 -->> $GPGSV,2,1,08,05,64,236,26,02,59,349,24,12,43,250,35,06,37,059,24*7D
2017-05-26T21:31:39 -->> $GPGSV,2,2,08,19,35,125,28,50,33,120,,25,26,299,31,193,,,*7D
2017-05-26T21:31:39 -->> $GLGSV,1,1,00*65
2017-05-26T21:31:39 -->> $GNRMC,133139.000,A,3030.9456,N,10404.2896,E,0.00,192.71,260517,,,A*7B
2017-05-26T21:31:39 -->> $GNVTG,192.71,T,,M,0.00,N,0.00,K,A*2F
2017-05-26T21:31:39 -->> $GNGGA,133140.000,3030.9456,N,10404.2896,E,1,6,1.25,573.8,M,-31.9,M,,*63
2017-05-26T21:31:39 -->> $GPGSA,A,3,25,12,06,19,05,02,,,,,,,1.56,1.25,0.93*01
2017-05-26T21:31:39 -->> $GLGSA,A,3,,,,,,,,,,,,,1.56,1.25,0.93*10
2017-05-26T21:31:40 -->> $GPGSV,2,1,08,05,64,236,26,02,59,349,24,12,43,250,35,06,37,059,24*7D
2017-05-26T21:31:40 -->> $GPGSV,2,2,08,19,35,125,28,50,33,120,,25,26,299,31,193,,,*7D
2017-05-26T21:31:40 -->> $GLGSV,1,1,00*65
2017-05-26T21:31:40 -->> $GNRMC,133140.000,A,3030.9456,N,10404.2896,E,0.00,192.71,260517,,,A*75
2017-05-26T21:31:40 -->> $GNVTG,192.71,T,,M,0.00,N,0.00,K,A*2F
2017-05-26T21:31:40 -->> $GNGGA,133141.000,3030.9456,N,10404.2896,E,1,6,1.25,573.8,M,-31.9,M,,*62
2017-05-26T21:31:40 -->> $GPGSA,A,3,25,12,06,19,05,02,,,,,,,1.56,1.25,0.93*01
2017-05-26T21:31:40 -->> $GLGSA,A,3,,,,,,,,,,,,,1.56,1.25,0.93*10
2017-05-26T21:31:41 -->> $GPGSV,2,1,08,05,64,236,27,02,59,349,24,12,43,250,35,06,37,059,24*7C
2017-05-26T21:31:41 -->> $GPGSV,2,2,08,19,35,125,28,50,33,120,,25,26,299,31,193,,,*7D
2017-05-26T21:31:41 -->> $GLGSV,1,1,00*65
2017-05-26T21:31:41 -->> $GNRMC,133141.000,A,3030.9456,N,10404.2896,E,0.00,192.71,260517,,,A*74
2017-05-26T21:31:41 -->> $GNVTG,192.71,T,,M,0.00,N,0.00,K,A*2F
2017-05-26T21:31:41 -->> $GNGGA,133142.000,3030.9456,N,10404.2896,E,1,6,1.25,573.8,M,-31.9,M,,*61
2017-05-26T21:31:41 -->> $GPGSA,A,3,25,12,06,19,05,02,,,,,,,1.56,1.25,0.93*01
2017-05-26T21:31:41 -->> $GLGSA,A,3,,,,,,,,,,,,,1.56,1.25,0.93*10
2017-05-26T21:31:42 -->> $GPGSV,2,1,08,05,64,236,26,02,59,349,24,12,43,250,35,06,37,059,24*7D
2017-05-26T21:31:42 -->> $GPGSV,2,2,08,19,35,125,28,50,33,120,,25,26,299,31,193,,,*7D
2017-05-26T21:31:42 -->> $GLGSV,1,1,00*65
2017-05-26T21:31:42 -->> $GNRMC,133142.000,A,3030.9456,N,10404.2896,E,0.00,192.71,260517,,,A*77
2017-05-26T21:31:42 -->> $GNVTG,192.71,T,,M,0.00,N,0.00,K,A*2F
2017-05-26T21:31:42 -->> $GNGGA,133143.000,3030.9456,N,10404.2896,E,1,6,1.25,573.8,M,-31.9,M,,*60
2017-05-26T21:31:42 -->> $GPGSA,A,3,25,12,06,19,05,02,,,,,,,1.56,1.25,0.93*01
2017-05-26T21:31:42 -->> $GLGSA,A,3,,,,,,,,,,,,,1.56,1.25,0.93*10
2017-05-26T21:31:43 -->> $GPGSV,2,1,08,05,64,236,26,02,59,349,24,12,43,250,35,06,37,059,24*7D
2017-05-26T21:31:43 -->> $GPGSV,2,2,08,19,35,125,28,50,33,120,,25,26,299,31,193,,,*7D
2017-05-26T21:31:43 -->> $GLGSV,1,1,00*65
2017-05-26T21:31:43 -->> $GNRMC,133143.000,A,3030.9456,N,10404.2896,E,0.00,192.71,260517,,,A*76
2017-05-26T21:31:43 -->> $GNVTG,192.71,T,,M,0.00,N,0.00,K,A*2F
2017-05-26T21:31:43 -->> $GNGGA,133144.000,3030.9456,N,10404.2896,E,1,6,1.25,573.8,M,-31.9,M,,*67
2017-05-26T21:31:43 -->> $GPGSA,A,3,25,12,06,19,05,02,,,,,,,1.56,1.25,0.93*01
2017-05-26T21:31:43 -->> $GLGSA,A,3,,,,,,,,,,,,,1.56,1.25,0.93*10
2017-05-26T21:31:44 -->> $GPGSV,2,1,08,05,64,236,26,02,59,349,24,12,43,250,35,06,37,059,24*7D
2017-05-26T21:31:44 -->> $GPGSV,2,2,08,19,35,125,28,50,33,120,,25,26,299,31,193,,,*7D
2017-05-26T21:31:44 -->> $GLGSV,1,1,00*65
2017-05-26T21:31:44 -->> $GNRMC,133144.000,A,3030.9456,N,10404.2896,E,0.00,192.71,260517,,,A*71
2017-05-26T21:31:44 -->> $GNVTG,192.71,T,,M,0.00,N,0.00,K,A*2F
2017-05-26T21:31:44 -->> $GNGGA,133145.000,3030.9456,N,10404.2896,E,1,6,1.25,573.8,M,-31.9,M,,*66
2017-05-26T21:31:44 -->> $GPGSA,A,3,25,12,06,19,05,02,,,,,,,1.56,1.25,0.93*01
2017-05-26T21:31:44 -->> $GLGSA,A,3,,,,,,,,,,,,,1.56,1.25,0.93*10
2017-05-26T21:31:45 -->> $GPGSV,2,1,08,05,64,236,26,02,59,349,24,12,43,250,35,06,37,059,24*7D
2017-05-26T21:31:45 -->> $GPGSV,2,2,08,19,35,125,28,50,33,120,,25,26,299,31,193,,,*7D
2017-05-26T21:31:45 -->> $GLGSV,1,1,00*65
2017-05-26T21:31:45 -->> $GNRMC,133145.000,A,3030.9456,N,10404.2896,E,0.00,192.71,260517,,,A*70
2017-05-26T21:31:45 -->> $GNVTG,192.71,T,,M,0.00,N,0.00,K,A*2F
2017-05-26T21:31:45 -->> $GNGGA,133146.000,3030.9456,N,10404.2896,E,1,6,1.26,573.8,M,-31.9,M,,*66
2017-05-26T21:31:45 -->> $GPGSA,A,3,25,12,06,19,05,02,,,,,,,2.84,1.26,2.54*07
2017-05-26T21:31:45 -->> $GLGSA,A,3,,,,,,,,,,,,,2.84,1.26,2.54*16
2017-05-26T21:31:46 -->> $GPGSV,2,1,08,05,64,236,27,02,59,349,24,12,43,250,35,06,37,059,24*7C
2017-05-26T21:31:46 -->> $GPGSV,2,2,08,19,35,125,28,50,33,120,,25,26,299,31,193,,,*7D
2017-05-26T21:31:46 -->> $GLGSV,1,1,00*65
2017-05-26T21:31:46 -->> $GNRMC,133146.000,A,3030.9456,N,10404.2896,E,0.00,192.71,260517,,,A*73
2017-05-26T21:31:46 -->> $GNVTG,192.71,T,,M,0.00,N,0.00,K,A*2F
2017-05-26T21:31:46 -->> $GNGGA,133147.000,3030.9456,N,10404.2896,E,1,6,1.26,573.8,M,-31.9,M,,*67
2017-05-26T21:31:46 -->> $GPGSA,A,3,25,12,06,19,05,02,,,,,,,2.84,1.26,2.54*07
2017-05-26T21:31:46 -->> $GLGSA,A,3,,,,,,,,,,,,,2.84,1.26,2.54*16
2017-05-26T21:31:47 -->> $GPGSV,2,1,08,05,64,236,27,02,59,349,24,12,43,250,36,06,37,059,24*7F
2017-05-26T21:31:47 -->> $GPGSV,2,2,08,19,35,125,28,50,33,120,,25,26,299,31,193,,,*7D
2017-05-26T21:31:47 -->> $GLGSV,1,1,00*65
2017-05-26T21:31:47 -->> $GNRMC,133147.000,A,3030.9456,N,10404.2896,E,0.00,192.71,260517,,,A*72
2017-05-26T21:31:47 -->> $GNVTG,192.71,T,,M,0.00,N,0.00,K,A*2F
2017-05-26T21:31:47 -->> $GNGGA,133148.000,3030.9456,N,10404.2896,E,1,6,1.26,573.8,M,-31.9,M,,*68
2017-05-26T21:31:47 -->> $GPGSA,A,3,25,12,06,19,05,02,,,,,,,2.84,1.26,2.54*07
2017-05-26T21:31:47 -->> $GLGSA,A,3,,,,,,,,,,,,,2.84,1.26,2.54*16
2017-05-26T21:31:48 -->> $GPGSV,2,1,08,05,64,236,27,02,59,349,24,12,43,250,36,06,37,059,24*7F
2017-05-26T21:31:48 -->> $GPGSV,2,2,08,19,35,125,28,50,33,120,,25,26,299,31,193,,,*7D
2017-05-26T21:31:48 -->> $GLGSV,1,1,00*65
2017-05-26T21:31:48 -->> $GNRMC,133148.000,A,3030.9456,N,10404.2896,E,0.00,192.71,260517,,,A*7D
2017-05-26T21:31:48 -->> $GNVTG,192.71,T,,M,0.00,N,0.00,K,A*2F
2017-05-26T21:31:48 -->> $GNGGA,133149.000,3030.9456,N,10404.2896,E,1,6,1.26,573.8,M,-31.9,M,,*69
2017-05-26T21:31:48 -->> $GPGSA,A,3,25,12,06,19,05,02,,,,,,,2.84,1.26,2.54*07
2017-05-26T21:31:48 -->> $GLGSA,A,3,,,,,,,,,,,,,2.84,1.26,2.54*16
2017-05-26T21:31:49 -->> $GPGSV,2,1,08,05,64,236,28,02,59,349,24,12,43,250,36,06,37,059,24*70
2017-05-26T21:31:49 -->> $GPGSV,2,2,08,19,35,125,28,50,33,120,,25,26,299,31,193,,,*7D
2017-05-26T21:31:49 -->> $GLGSV,1,1,00*65
2017-05-26T21:31:49 -->> $GNRMC,133149.000,A,3030.9456,N,10404.2896,E,0.00,192.71,260517,,,A*7C
2017-05-26T21:31:49 -->> $GNVTG,192.71,T,,M,0.00,N,0.00,K,A*2F
2017-05-26T21:31:49 -->> $GNGGA,133150.000,3030.9456,N,10404.2896,E,1,6,1.26,573.8,M,-31.9,M,,*61
2017-05-26T21:31:49 -->> $GPGSA,A,3,25,12,06,19,05,02,,,,,,,2.84,1.26,2.54*07
2017-05-26T21:31:49 -->> $GLGSA,A,3,,,,,,,,,,,,,2.84,1.26,2.54*16
2017-05-26T21:31:50 -->> $GPGSV,2,1,08,05,64,236,28,02,59,349,24,12,43,250,36,06,37,059,24*70
2017-05-26T21:31:50 -->> $GPGSV,2,2,08,19,35,125,29,50,33,120,,25,26,299,31,193,,,*7C
2017-05-26T21:31:50 -->> $GLGSV,1,1,00*65
2017-05-26T21:31:50 -->> $GNRMC,133150.000,A,3030.9456,N,10404.2896,E,0.00,192.71,260517,,,A*74
2017-05-26T21:31:50 -->> $GNVTG,192.71,T,,M,0.00,N,0.00,K,A*2F
2017-05-26T21:31:50 -->> $GNGGA,133151.000,3030.9456,N,10404.2896,E,1,6,1.25,573.8,M,-31.9,M,,*63
2017-05-26T21:31:50 -->> $GPGSA,A,3,25,12,06,19,05,02,,,,,,,1.56,1.25,0.93*01
2017-05-26T21:31:50 -->> $GLGSA,A,3,,,,,,,,,,,,,1.56,1.25,0.93*10
2017-05-26T21:31:51 -->> $GPGSV,2,1,08,05,64,236,28,02,59,349,24,12,43,250,36,06,37,059,24*70
2017-05-26T21:31:51 -->> $GPGSV,2,2,08,19,35,125,29,50,33,120,24,25,26,299,31,193,,,*7A
2017-05-26T21:31:51 -->> $GLGSV,1,1,00*65
2017-05-26T21:31:51 -->> $GNRMC,133151.000,A,3030.9456,N,10404.2896,E,0.00,192.71,260517,,,A*75
2017-05-26T21:31:51 -->> $GNVTG,192.71,T,,M,0.00,N,0.00,K,A*2F
2017-05-26T21:31:51 -->> $GNGGA,133152.000,3030.9456,N,10404.2896,E,1,6,1.25,573.8,M,-31.9,M,,*60
2017-05-26T21:31:51 -->> $GPGSA,A,3,25,12,06,19,05,02,,,,,,,1.56,1.25,0.93*01
2017-05-26T21:31:51 -->> $GLGSA,A,3,,,,,,,,,,,,,1.56,1.25,0.93*10
2017-05-26T21:31:52 -->> $GPGSV,2,1,08,05,64,236,28,02,59,349,24,12,43,250,36,06,37,059,24*70
2017-05-26T21:31:52 -->> $GPGSV,2,2,08,19,35,125,29,50,33,120,24,25,26,299,31,193,,,*7A
2017-05-26T21:31:52 -->> $GLGSV,1,1,00*65
2017-05-26T21:31:52 -->> $GNRMC,133152.000,A,3030.9456,N,10404.2896,E,0.00,192.71,260517,,,A*76
2017-05-26T21:31:52 -->> $GNVTG,192.71,T,,M,0.00,N,0.00,K,A*2F
2017-05-26T21:31:52 -->> $GNGGA,133153.000,3030.9456,N,10404.2896,E,1,6,1.25,573.8,M,-31.9,M,,*61
2017-05-26T21:31:52 -->> $GPGSA,A,3,25,12,06,19,05,02,,,,,,,1.56,1.25,0.93*01
2017-05-26T21:31:52 -->> $GLGSA,A,3,,,,,,,,,,,,,1.56,1.25,0.93*10
2017-05-26T21:31:53 -->> $GPGSV,2,1,08,05,64,236,28,02,59,349,24,12,43,250,36,06,37,059,24*70
2017-05-26T21:31:53 -->> $GPGSV,2,2,08,19,35,125,29,50,33,120,24,25,26,299,31,193,,,*7A
2017-05-26T21:31:53 -->> $GLGSV,1,1,00*65
2017-05-26T21:31:53 -->> $GNRMC,133153.000,A,3030.9456,N,10404.2896,E,0.00,192.71,260517,,,A*77
2017-05-26T21:31:53 -->> $GNVTG,192.71,T,,M,0.00,N,0.00,K,A*2F
2017-05-26T21:31:53 -->> $GNGGA,133154.000,3030.9456,N,10404.2896,E,1,6,1.25,573.8,M,-31.9,M,,*66
2017-05-26T21:31:53 -->> $GPGSA,A,3,25,12,06,19,05,02,,,,,,,1.56,1.25,0.93*01
2017-05-26T21:31:53 -->> $GLGSA,A,3,,,,,,,,,,,,,1.56,1.25,0.93*10
2017-05-26T21:31:54 -->> $GPGSV,2,1,08,05,64,236,28,02,59,349,24,12,43,250,36,06,37,059,24*70
2017-05-26T21:31:54 -->> $GPGSV,2,2,08,19,35,125,29,50,33,120,24,25,26,299,31,193,,,*7A
2017-05-26T21:31:54 -->> $GLGSV,1,1,00*65
2017-05-26T21:31:54 -->> $GNRMC,133154.000,A,3030.9456,N,10404.2896,E,0.00,192.71,260517,,,A*70
2017-05-26T21:31:54 -->> $GNVTG,192.71,T,,M,0.00,N,0.00,K,A*2F
2017-05-26T21:31:54 -->> $GNGGA,133155.000,3030.9456,N,10404.2896,E,1,6,1.25,573.8,M,-31.9,M,,*67
2017-05-26T21:31:54 -->> $GPGSA,A,3,25,12,06,19,05,02,,,,,,,1.56,1.25,0.93*01
2017-05-26T21:31:54 -->> $GLGSA,A,3,,,,,,,,,,,,,1.56,1.25,0.93*10
2017-05-26T21:31:55 -->> $GPGSV,2,1,08,05,64,236,28,02,59,349,24,12,43,250,36,06,37,059,24*70
2017-05-26T21:31:55 -->> $GPGSV,2,2,08,19,35,125,29,25,26,299,31,39,00,264,,193,,,*70
2017-05-26T21:31:55 -->> $GLGSV,1,1,00*65
2017-05-26T21:31:55 -->> $GNRMC,133155.000,A,3030.9456,N,10404.2896,E,0.00,192.71,260517,,,A*71
2017-05-26T21:31:55 -->> $GNVTG,192.71,T,,M,0.00,N,0.00,K,A*2F
2017-05-26T21:31:55 -->> $GNGGA,133156.000,3030.9456,N,10404.2896,E,1,6,1.25,573.8,M,-31.9,M,,*64
2017-05-26T21:31:55 -->> $GPGSA,A,3,25,12,06,19,05,02,,,,,,,1.56,1.25,0.93*01
2017-05-26T21:31:55 -->> $GLGSA,A,3,,,,,,,,,,,,,1.56,1.25,0.93*10
2017-05-26T21:31:56 -->> $GPGSV,2,1,08,05,64,236,28,02,59,349,24,12,43,250,36,06,37,059,24*70
2017-05-26T21:31:56 -->> $GPGSV,2,2,08,19,35,125,29,25,26,299,31,39,00,264,,193,,,*70
2017-05-26T21:31:56 -->> $GLGSV,1,1,00*65
2017-05-26T21:31:56 -->> $GNRMC,133156.000,A,3030.9456,N,10404.2896,E,0.00,192.71,260517,,,A*72
2017-05-26T21:31:56 -->> $GNVTG,192.71,T,,M,0.00,N,0.00,K,A*2F
2017-05-26T21:31:56 -->> $GNGGA,133157.000,3030.9456,N,10404.2896,E,1,6,1.25,573.8,M,-31.9,M,,*65
2017-05-26T21:31:56 -->> $GPGSA,A,3,25,12,06,19,05,02,,,,,,,1.56,1.25,0.93*01
2017-05-26T21:31:56 -->> $GLGSA,A,3,,,,,,,,,,,,,1.56,1.25,0.93*10
2017-05-26T21:31:57 -->> $GPGSV,2,1,08,05,64,236,28,02,59,349,24,12,43,250,36,06,37,059,24*70
2017-05-26T21:31:57 -->> $GPGSV,2,2,08,19,35,125,29,25,26,299,31,39,00,264,,193,,,*70
2017-05-26T21:31:57 -->> $GLGSV,1,1,00*65
2017-05-26T21:31:57 -->> $GNRMC,133157.000,A,3030.9456,N,10404.2896,E,0.00,192.71,260517,,,A*73
2017-05-26T21:31:57 -->> $GNVTG,192.71,T,,M,0.00,N,0.00,K,A*2F
2017-05-26T21:31:57 -->> $GNGGA,133158.000,3030.9456,N,10404.2896,E,1,6,1.25,573.8,M,-31.9,M,,*6A
2017-05-26T21:31:57 -->> $GPGSA,A,3,25,12,06,19,05,02,,,,,,,1.56,1.25,0.93*01
2017-05-26T21:31:57 -->> $GLGSA,A,3,,,,,,,,,,,,,1.56,1.25,0.93*10
2017-05-26T21:31:58 -->> $GPGSV,2,1,08,05,64,236,28,02,59,349,24,12,43,250,36,06,37,059,24*70
2017-05-26T21:31:58 -->> $GPGSV,2,2,08,19,35,125,29,25,26,299,31,39,00,264,,193,,,*70
2017-05-26T21:31:58 -->> $GLGSV,1,1,00*65
2017-05-26T21:31:58 -->> $GNRMC,133158.000,A,3030.9456,N,10404.2896,E,0.00,192.71,260517,,,A*7C
2017-05-26T21:31:58 -->> $GNVTG,192.71,T,,M,0.00,N,0.00,K,A*2F
2017-05-26T21:31:58 -->> $GNGGA,133159.000,3030.9456,N,10404.2896,E,1,6,1.26,573.8,M,-31.9,M,,*68
2017-05-26T21:31:58 -->> $GPGSA,A,3,25,12,06,19,05,02,,,,,,,2.83,1.26,2.54*00
2017-05-26T21:31:58 -->> $GLGSA,A,3,,,,,,,,,,,,,2.83,1.26,2.54*11
2017-05-26T21:31:59 -->> $GPGSV,2,1,08,05,64,236,28,02,59,349,24,12,43,250,36,06,37,059,24*70
2017-05-26T21:31:59 -->> $GPGSV,2,2,08,19,35,125,29,25,26,299,31,39,00,264,,193,,,*70
2017-05-26T21:31:59 -->> $GLGSV,1,1,00*65
2017-05-26T21:31:59 -->> $GNRMC,133159.000,A,3030.9456,N,10404.2896,E,0.00,192.71,260517,,,A*7D
2017-05-26T21:31:59 -->> $GNVTG,192.71,T,,M,0.00,N,0.00,K,A*2F
2017-05-26T21:31:59 -->> $GNGGA,133200.000,3030.9456,N,10404.2896,E,1,6,1.25,573.8,M,-31.9,M,,*64
2017-05-26T21:31:59 -->> $GPGSA,A,3,25,12,06,19,05,02,,,,,,,1.56,1.25,0.93*01
2017-05-26T21:31:59 -->> $GLGSA,A,3,,,,,,,,,,,,,1.56,1.25,0.93*10
2017-05-26T21:32:00 -->> $GPGSV,2,1,08,05,64,236,28,02,59,349,24,12,43,250,36,06,37,059,24*70
2017-05-26T21:32:00 -->> $GPGSV,2,2,08,19,35,125,29,25,26,299,31,39,00,264,,193,,,*70
2017-05-26T21:32:00 -->> $GLGSV,1,1,00*65
2017-05-26T21:32:00 -->> $GNRMC,133200.000,A,3030.9456,N,10404.2896,E,0.00,192.71,260517,,,A*72
2017-05-26T21:32:00 -->> $GNVTG,192.71,T,,M,0.00,N,0.00,K,A*2F
2017-05-26T21:32:00 -->> $GNGGA,133201.000,3030.9456,N,10404.2896,E,1,6,1.25,573.8,M,-31.9,M,,*65
2017-05-26T21:32:00 -->> $GPGSA,A,3,25,12,06,19,05,02,,,,,,,1.56,1.25,0.93*01
2017-05-26T21:32:00 -->> $GLGSA,A,3,,,,,,,,,,,,,1.56,1.25,0.93*10
2017-05-26T21:32:01 -->> $GPGSV,2,1,08,05,64,236,28,02,59,349,24,12,43,250,36,06,37,059,24*70
2017-05-26T21:32:01 -->> $GPGSV,2,2,08,19,35,125,29,25,26,299,31,39,00,264,,193,,,*70
2017-05-26T21:32:01 -->> $GLGSV,1,1,00*65
2017-05-26T21:32:01 -->> $GNRMC,133201.000,A,3030.9456,N,10404.2896,E,0.00,192.71,260517,,,A*73
2017-05-26T21:32:01 -->> $GNVTG,192.71,T,,M,0.00,N,0.00,K,A*2F
